,A,5442.9413,N,11318.4607,W,000.0,190.2,220819,017.7,E*6D
01DE9E,022666,00C4A3,$GPRMC,095956,A,5442.9415,N,11318.4606,W,000.0,190.2,220819,017.7,E*69
01DE9F,02266A,00C4A4,$GPRMC,095957,A,5442.9416,N,11318.4607,W,000.0,190.2,220819,017.7,E*6A
01DE9F,022668,00C4A4,$GPRMC,095958,A,5442.9416,N,11318.4608,W,000.0,190.2,220819,017.7,E*6A
01DEA0,02266B,00C4A4,$GPRMC,095959,A,5442.9418,N,11318.4610,W,000.0,190.2,220819,017.7,E*6C
01DEA4,02266F,00C4A6,$GPRMC,100000,A,5442.9419,N,11318.4612,W,000.0,190.2,220819,017.7,E*67
01DE9E,022667,00C4A3,$GPRMC,100001,A,5442.9423,N,11318.4609,W,000.0,190.2,220819,017.7,E*65
01DE9D,022666,00C4A2,$GPRMC,100002,A,5442.9424,N,11318.4611,W,000.0,190.2,220819,017.7,E*68
01DEA1,02266C,00C4A5,$GPRMC,100003,A,5442.9426,N,11318.4612,W,000.0,190.2,220819,017.7,E*68
01DEA0,02266A,00C4A4,$GPRMC,100004,A,5442.9428,N,11318.4613,W,000.0,190.2,220819,017.7,E*60
01DEA2,02266D,00C4A5,$GPRMC,100005,A,5442.9431,N,11318.4615,W,000.0,190.2,220819,017.7,E*6F
01DE9F,022668,00C4A3,$GPRMC,100006,A,5442.9435,N,11318.4611,W,000.0,190.2,220819,017.7,E*6C
01DEA0,022669,00C4A4,$GPRMC,100007,A,5442.9437,N,11318.4612,W,000.0,190.2,220819,017.7,E*6C
01DE9F,022668,00C4A3,$GPRMC,100008,A,5442.9439,N,11318.4613,W,000.0,190.2,220819,017.7,E*6C
01DEA3,02266E,00C4A6,$GPRMC,100009,A,5442.9439,N,11318.4614,W,000.0,190.2,220819,017.7,E*6A
01DE9F,022669,00C4A4,$GPRMC,100010,A,5442.9441,N,11318.4616,W,000.0,190.2,220819,017.7,E*6F
01DEA1,02266B,00C4A5,$GPRMC,100011,A,5442.9441,N,11318.4617,W,000.0,190.2,220819,017.7,E*6F
01DE9D,022667,00C4A3,$GPRMC,100012,A,5442.9440,N,11318.4618,W,000.0,190.2,220819,017.7,E*62
01DEA0,022669,00C4A4,$GPRMC,100013,A,5442.9440,N,11318.4619,W,000.0,190.2,220819,017.7,E*62
01DEA3,02266E,00C4A6,$GPRMC,100014,A,5442.9439,N,11318.4620,W,000.0,190.2,220819,017.7,E*61
01DEA0,02266C,00C4A5,$GPRMC,100015,A,5442.9437,N,11318.4620,W,000.0,190.2,220819,017.7,E*6E
01DEA2,02266C,00C4A5,$GPRMC,100016,A,5442.9435,N,11318.4621,W,000.0,190.2,220819,017.7,E*6E
01DEA1,02266B,00C4A6,$GPRMC,100017,A,5442.9434,N,11318.4621,W,000.0,190.2,220819,017.7,E*6E
01DEA2,02266D,00C4A6,$GPRMC,100018,A,5442.9435,N,11318.4623,W,000.0,190.2,220819,017.7,E*62
01DEA2,02266D,00C4A6,$GPRMC,100019,A,5442.9437,N,11318.4624,W,000.0,190.2,220819,017.7,E*66
01DEA2,02266B,00C4A6,$GPRMC,100020,A,5442.9439,N,11318.4626,W,000.0,190.2,220819,017.7,E*60
01DEA4,02266F,00C4A7,$GPRMC,100021,A,5442.9439,N,11318.4627,W,000.0,190.2,220819,017.7,E*60
01DEA4,02266F,00C4A7,$GPRMC,100022,A,5442.9440,N,11318.4628,W,000.0,190.2,220819,017.7,E*62
01DE9E,022668,00C4A4,$GPRMC,100023,A,5442.9441,N,11318.4629,W,000.0,190.2,220819,017.7,E*63
01DEA4,02266E,00C4A7,$GPRMC,100024,A,5442.9442,N,11318.4630,W,000.0,190.2,220819,017.7,E*6F
01DEA4,02266E,00C4A8,$GPRMC,100025,A,5442.9444,N,11318.4630,W,000.0,190.2,220819,017.7,E*68
01DEA6,022673,00C4A9,$GPRMC,100026,A,5442.9446,N,11318.4631,W,000.0,190.2,220819,017.7,E*68
01DEA1,02266A,00C4A5,$GPRMC,100027,A,5442.9447,N,11318.4631,W,000.0,190.2,220819,017.7,E*68
01DEA7,022671,00C4A8,$GPRMC,100028,A,5442.9449,N,11318.4631,W,000.0,190.2,220819,017.7,E*69
01DEA2,02266B,00C4A5,$GPRMC,100029,A,5442.9450,N,11318.4630,W,000.0,190.2,220819,017.7,E*61
01DEA5,02266E,00C4A7,$GPRMC,100030,A,5442.9451,N,11318.4630,W,000.0,190.2,220819,017.7,E*68
01DEA4,02266E,00C4A7,$GPRMC,100031,A,5442.9452,N,11318.4629,W,000.0,190.2,220819,017.7,E*62
01DEA9,022674,00C4AA,$GPRMC,100032,A,5442.9453,N,11318.4629,W,000.0,190.2,220819,017.7,E*60
01DEA3,02266D,00C4A6,$GPRMC,100033,A,5442.9453,N,11318.4628,W,000.0,190.2,220819,017.7,E*60
01DEA4,02266D,00C4A7,$GPRMC,100034,A,5442.9450,N,11318.4627,W,000.0,190.2,220819,017.7,E*6B
01DEA2,02266A,00C4A6,$GPRMC,100035,A,5442.9449,N,11318.4627,W,000.0,190.2,220819,017.7,E*62
01DEA2,02266A,00C4A6,$GPRMC,100036,A,5442.9448,N,11318.4626,W,000.0,190.2,220819,017.7,E*61
01DEA2,02266A,00C4A6,$GPRMC,100037,A,5442.9446,N,11318.4624,W,000.0,190.2,220819,017.7,E*6C
01DEA3,02266B,00C4A7,$GPRMC,100038,A,5442.9445,N,11318.4621,W,000.0,190.2,220819,017.7,E*65
01DE9F,022665,00C4A4,$GPRMC,100039,A,5442.9443,N,11318.4617,W,000.0,190.2,220819,017.7,E*67
01DEA3,022669,00C4A7,$GPRMC,100040,A,5442.9442,N,11318.4614,W,000.0,190.2,220819,017.7,E*6B
01DEA2,022669,00C4A6,$GPRMC,100041,A,5442.9439,N,11318.4612,W,000.0,190.2,220819,017.7,E*60
01DE9E,022662,00C4A4,$GPRMC,100042,A,5442.9438,N,11318.4610,W,000.0,190.2,220819,017.7,E*60
01DEA5,02266D,00C4A7,$GPRMC,100043,A,5442.9436,N,11318.4608,W,000.0,190.2,220819,017.7,E*66
01DEA2,022668,00C4A6,$GPRMC,100044,A,5442.9435,N,11318.4606,W,000.0,190.2,220819,017.7,E*6C
01DEA4,02266A,00C4A6,$GPRMC,100045,A,5442.9434,N,11318.4604,W,000.0,190.2,220819,017.7,E*6E
01DEA2,022669,00C4A6,$GPRMC,100046,A,5442.9434,N,11318.4603,W,000.0,190.2,220819,017.7,E*6A
01DEA1,022667,00C4A5,$GPRMC,100047,A,5442.9435,N,11318.4601,W,000.0,190.2,220819,017.7,E*68
01DEA1,022667,00C4A5,$GPRMC,100048,A,5442.9435,N,11318.4600,W,000.0,190.2,220819,017.7,E*66
01DEA2,022668,00C4A6,$GPRMC,100049,A,5442.9435,N,11318.4598,W,000.0,190.2,220819,017.7,E*65
01DEA3,022669,00C4A7,$GPRMC,100050,A,5442.9435,N,11318.4597,W,000.0,190.2,220819,017.7,E*62
01DEA2,022668,00C4A6,$GPRMC,100051,A,5442.9434,N,11318.4595,W,000.0,190.2,220819,017.7,E*60
01DEA1,022666,00C4A6,$GPRMC,100052,A,5442.9436,N,11318.4595,W,000.0,190.2,220819,017.7,E*61
01DEA5,02266B,00C4A8,$GPRMC,100053,A,5442.9434,N,11318.4593,W,000.0,190.2,220819,017.7,E*64
01DEA2,022667,00C4A6,$GPRMC,100054,A,5442.9432,N,11318.4594,W,000.0,190.2,220819,017.7,E*62
01DEA0,022665,00C4A5,$GPRMC,100055,A,5442.9431,N,11318.4591,W,000.0,190.2,220819,017.7,E*65
01DEA3,022669,00C4A7,$GPRMC,100056,A,5442.9430,N,11318.4590,W,000.0,190.2,220819,017.7,E*66
01DEA5,02266C,00C4A8,$GPRMC,100057,A,5442.9427,N,11318.4588,W,000.0,190.2,220819,017.7,E*68
01DEA4,02266B,00C4A7,$GPRMC,100058,A,5442.9424,N,11318.4586,W,000.0,190.2,220819,017.7,E*6A
01DEA1,022667,00C4A5,$GPRMC,100059,A,5442.9422,N,11318.4585,W,000.0,190.2,220819,017.7,E*6E
01DEA4,02266B,00C4A6,$GPRMC,100100,A,5442.9419,N,11318.4583,W,000.0,190.2,220819,017.7,E*6D
01DEA2,022669,00C4A5,$GPRMC,100101,A,5442.9416,N,11318.4582,W,000.0,190.2,220819,017.7,E*62
01DEA3,022667,00C4A5,$GPRMC,100102,A,5442.9414,N,11318.4580,W,000.0,190.2,220819,017.7,E*61
01DEA4,02266B,00C4A6,$GPRMC,100103,A,5442.9414,N,11318.4578,W,000.0,190.2,220819,017.7,E*67
01DEA5,02266A,00C4A7,$GPRMC,100104,A,5442.9412,N,11318.4579,W,000.0,190.2,220819,017.7,E*67
01DEA4,02266C,00C4A6,$GPRMC,100105,A,5442.9413,N,11318.4579,W,000.0,190.2,220819,017.7,E*67
01DEA3,022669,00C4A5,$GPRMC,100106,A,5442.9414,N,11318.4577,W,000.0,190.2,220819,017.7,E*6D
01DEA2,022667,00C4A5,$GPRMC,100107,A,5442.9415,N,11318.4576,W,000.0,190.2,220819,017.7,E*6C
01DEA4,02266A,00C4A6,$GPRMC,100108,A,5442.9417,N,11318.4576,W,000.0,190.2,220819,017.7,E*61
01DEA6,02266C,00C4A6,$GPRMC,100109,A,5442.9419,N,11318.4576,W,000.0,190.2,220819,017.7,E*6E
01DEA0,022665,00C4A4,$GPRMC,100110,A,5442.9421,N,11318.4576,W,000.0,190.2,220819,017.7,E*6D
01DEA5,02266C,00C4A7,$GPRMC,100111,A,5442.9423,N,11318.4576,W,000.0,190.2,220819,017.7,E*6E
01DEA4,02266B,00C4A6,$GPRMC,100112,A,5442.9424,N,11318.4577,W,000.0,190.2,220819,017.7,E*6B
01DEA4,02266A,00C4A6,$GPRMC,100113,A,5442.9424,N,11318.4577,W,000.0,190.2,220819,017.7,E*6A
01DEA8,022670,00C4A9,$GPRMC,100114,A,5442.9424,N,11318.4578,W,000.0,190.2,220819,017.7,E*62
01DEA5,02266C,00C4A8,$GPRMC,100115,A,5442.9424,N,11318.4579,W,000.0,190.2,220819,017.7,E*62
01DE9F,022664,00C4A4,$GPRMC,100116,A,5442.9424,N,11318.4577,W,000.0,190.2,220819,017.7,E*6F
01DEA3,022669,00C4A6,$GPRMC,100117,A,5442.9423,N,11318.4578,W,000.0,190.2,220819,017.7,E*66
01DEA2,022668,00C4A5,$GPRMC,100118,A,5442.9422,N,11318.4578,W,000.0,190.2,220819,017.7,E*68
01DEA4,02266B,00C4A7,$GPRMC,100119,A,5442.9421,N,11318.4578,W,000.0,190.2,220819,017.7,E*6A
01DEA4,02266A,00C4A7,$GPRMC,100120,A,5442.9419,N,11318.4577,W,000.0,190.2,220819,017.7,E*64
01DEA3,022669,00C4A6,$GPRMC,100121,A,5442.9418,N,11318.4576,W,000.0,190.2,220819,017.7,E*65
01DEA1,022666,00C4A5,$GPRMC,100122,A,5442.9418,N,11318.4576,W,000.0,190.2,220819,017.7,E*66
01DEA2,022668,00C4A6,$GPRMC,100123,A,5442.9417,N,11318.4575,W,000.0,190.2,220819,017.7,E*6B
01DEA6,02266B,00C4A7,$GPRMC,100124,A,5442.9416,N,11318.4575,W,000.0,190.2,220819,017.7,E*6D
01DEA5,02266B,00C4A7,$GPRMC,100125,A,5442.9416,N,11318.4575,W,000.0,190.2,220819,017.7,E*6C
01DEA1,022666,00C4A5,$GPRMC,100126,A,5442.9415,N,11318.4575,W,000.0,190.2,220819,017.7,E*6C
01DEA0,022664,00C4A4,$GPRMC,100127,A,5442.9415,N,11318.4574,W,000.0,190.2,220819,017.7,E*6C
01DEA5,02266C,00C4A8,$GPRMC,100128,A,5442.9416,N,11318.4575,W,000.0,190.2,220819,017.7,E*61
01DEA3,022667,00C4A5,$GPRMC,100129,A,5442.9416,N,11318.4575,W,000.0,190.2,220819,017.7,E*60
01DEA7,02266D,00C4A8,$GPRMC,100130,A,5442.9416,N,11318.4575,W,000.0,190.2,220819,017.7,E*68
01DEA1,022665,00C4A4,$GPRMC,100131,A,5442.9417,N,11318.4575,W,000.0,190.2,220819,017.7,E*68
01DEA6,02266C,00C4A7,$GPRMC,100132,A,5442.9418,N,11318.4575,W,000.0,190.2,220819,017.7,E*64
01DEA0,022664,00C4A4,$GPRMC,100133,A,5442.9418,N,11318.4575,W,000.0,190.2,220819,017.7,E*65
01DEA3,022669,00C4A6,$GPRMC,100134,A,5442.9419,N,11318.4574,W,000.0,190.2,220819,017.7,E*62
01DEA5,02266C,00C4A7,$GPRMC,100135,A,5442.9423,N,11318.4573,W,000.0,190.2,220819,017.7,E*6D
01DEA7,02266F,00C4A9,$GPRMC,100136,A,5442.9425,N,11318.4573,W,000.0,190.2,220819,017.7,E*68
01DEA4,02266A,00C4A6,$GPRMC,100137,A,5442.9427,N,11318.4573,W,000.0,190.2,220819,017.7,E*6B
01DEA3,02266A,00C4A7,$GPRMC,100138,A,5442.9429,N,11318.4573,W,000.0,190.2,220819,017.7,E*6A
01DEA6,02266E,00C4A8,$GPRMC,100139,A,5442.9435,N,11318.4567,W,000.0,190.2,220819,017.7,E*63
01DEA4,02266D,00C4A8,$GPRMC,100140,A,5442.9437,N,11318.4567,W,000.0,190.2,220819,017.7,E*6F
01DEA2,022667,00C4A6,$GPRMC,100141,A,5442.9441,N,11318.4567,W,000.0,190.2,220819,017.7,E*6F
01DEA4,02266C,00C4A7,$GPRMC,100142,A,5442.9444,N,11318.4567,W,000.0,190.2,220819,017.7,E*69
01DEA3,022669,00C4A6,$GPRMC,100143,A,5442.9447,N,11318.4568,W,000.0,190.2,220819,017.7,E*64
01DEA2,022668,00C4A6,$GPRMC,100144,A,5442.9451,N,11318.4568,W,000.0,190.2,220819,017.7,E*64
01DEA1,022667,00C4A5,$GPRMC,100145,A,5442.9454,N,11318.4568,W,000.0,190.2,220819,017.7,E*60
01DEA6,02266E,00C4A8,$GPRMC,100146,A,5442.9457,N,11318.4567,W,000.0,190.2,220819,017.7,E*6F
01DEA0,022666,00C4A4,$GPRMC,100147,A,5442.9460,N,11318.4568,W,000.0,190.2,220819,017.7,E*65
01DEA4,02266B,00C4A7,$GPRMC,100148,A,5442.9462,N,11318.4568,W,000.0,190.2,220819,017.7,E*68
01DEA4,02266D,00C4A7,$GPRMC,100149,A,5442.9465,N,11318.4568,W,000.0,190.2,220819,017.7,E*6E
01DE9E,022663,00C4A4,$GPRMC,100150,A,5442.9469,N,11318.4568,W,000.0,190.2,220819,017.7,E*6A
01DE9F,022664,00C4A4,$GPRMC,100151,A,5442.9472,N,11318.4568,W,000.0,190.2,220819,017.7,E*61
01DEA1,022666,00C4A5,$GPRMC,100152,A,5442.9477,N,11318.4563,W,000.0,190.2,220819,017.7,E*6C
01DE9E,022661,00C4A4,$GPRMC,100153,A,5442.9479,N,11318.4563,W,000.0,190.2,220819,017.7,E*63
01DEA2,022668,00C4A7,$GPRMC,100154,A,5442.9481,N,11318.4562,W,000.0,190.2,220819,017.7,E*62
01DE9E,022662,00C4A4,$GPRMC,100155,A,5442.9484,N,11318.4562,W,000.0,190.2,220819,017.7,E*66
01DEA6,02266D,00C4A8,$GPRMC,100156,A,5442.9484,N,11318.4564,W,000.0,190.2,220819,017.7,E*63
01DEA1,022666,00C4A5,$GPRMC,100157,A,5442.9485,N,11318.4566,W,000.0,190.2,220819,017.7,E*61
01DEA1,022666,00C4A6,$GPRMC,100158,A,5442.9486,N,11318.4568,W,000.0,190.2,220819,017.7,E*63
01DEA2,022669,00C4A6,$GPRMC,100159,A,5442.9484,N,11318.4569,W,000.0,190.2,220819,017.7,E*61
01DEA0,022666,00C4A4,$GPRMC,100200,A,5442.9483,N,11318.4571,W,000.0,190.2,220819,017.7,E*60
01DEA1,022666,00C4A5,$GPRMC,100201,A,5442.9482,N,11318.4573,W,000.0,190.2,220819,017.7,E*62
01DEA2,02266A,00C4A6,$GPRMC,100202,A,5442.9481,N,11318.4574,W,000.0,190.2,220819,017.7,E*65
01DEA0,022665,00C4A4,$GPRMC,100203,A,5442.9479,N,11318.4575,W,000.0,190.2,220819,017.7,E*62
01DEA3,02266B,00C4A7,$GPRMC,100204,A,5442.9478,N,11318.4576,W,000.0,190.2,220819,017.7,E*67
01DEA2,022667,00C4A5,$GPRMC,100205,A,5442.9477,N,11318.4577,W,000.0,190.2,220819,017.7,E*68
01DEA2,022668,00C4A5,$GPRMC,100206,A,5442.9476,N,11318.4578,W,000.0,190.2,220819,017.7,E*65
01DEA3,02266A,00C4A6,$GPRMC,100207,A,5442.9475,N,11318.4579,W,000.0,190.2,220819,017.7,E*66
01DEA1,022666,00C4A5,$GPRMC,100208,A,5442.9474,N,11318.4580,W,000.0,190.2,220819,017.7,E*6E
01DEA0,022665,00C4A4,$GPRMC,100209,A,5442.9473,N,11318.4580,W,000.0,190.2,220819,017.7,E*68
01DEA4,02266A,00C4A7,$GPRMC,100210,A,5442.9473,N,11318.4581,W,000.0,190.2,220819,017.7,E*61
01DE9F,022664,00C4A5,$GPRMC,100211,A,5442.9474,N,11318.4583,W,000.0,190.2,220819,017.7,E*65
01DEA2,022666,00C4A6,$GPRMC,100212,A,5442.9473,N,11318.4584,W,000.0,190.2,220819,017.7,E*66
01DEA4,022669,00C4A7,$GPRMC,100213,A,5442.9473,N,11318.4585,W,000.0,190.2,220819,017.7,E*66
01DE9F,022662,00C4A4,$GPRMC,100214,A,5442.9474,N,11318.4584,W,000.0,190.2,220819,017.7,E*67
01DE9F,022663,00C4A4,$GPRMC,100215,A,5442.9474,N,11318.4585,W,000.0,190.2,220819,017.7,E*67
01DEA3,022668,00C4A6,$GPRMC,100216,A,5442.9475,N,11318.4585,W,000.0,190.2,220819,017.7,E*65
01DEA3,022667,00C4A6,$GPRMC,100217,A,5442.9475,N,11318.4586,W,000.0,190.2,220819,017.7,E*67
01DEA3,022668,00C4A6,$GPRMC,100218,A,5442.9475,N,11318.4586,W,000.0,190.2,220819,017.7,E*68
01DEA4,022668,00C4A6,$GPRMC,100219,A,5442.9475,N,11318.4587,W,000.0,190.2,220819,017.7,E*68
01DEA2,022665,00C4A6,$GPRMC,100220,A,5442.9475,N,11318.4587,W,000.0,190.2,220819,017.7,E*62
01DE9E,02265F,00C4A3,$GPRMC,100221,A,5442.9475,N,11318.4587,W,000.0,190.2,220819,017.7,E*63
01DEA0,022661,00C4A4,$GPRMC,100222,A,5442.9474,N,11318.4587,W,000.0,190.2,220819,017.7,E*61
01DEA0,022662,00C4A4,$GPRMC,100223,A,5442.9472,N,11318.4586,W,000.0,190.2,220819,017.7,E*67
01DEA0,022661,00C4A3,$GPRMC,100224,A,5442.9471,N,11318.4585,W,000.0,190.2,220819,017.7,E*60
01DE9F,02265E,00C4A2,$GPRMC,100225,A,5442.9467,N,11318.4587,W,000.0,190.2,220819,017.7,E*64
01DE9E,02265F,00C4A2,$GPRMC,100226,A,5442.9466,N,11318.4586,W,000.0,190.2,220819,017.7,E*67
01DE9F,02265E,00C4A3,$GPRMC,100227,A,5442.9464,N,11318.4586,W,000.0,190.2,220819,017.7,E*64
01DEA0,02265F,00C4A3,$GPRMC,100228,A,5442.9463,N,11318.4587,W,000.0,190.2,220819,017.7,E*6D
01DEA2,022661,00C4A4,$GPRMC,100229,A,5442.9462,N,11318.4588,W,000.0,190.2,220819,017.7,E*62
01DEA1,022660,00C4A4,$GPRMC,100230,A,5442.9462,N,11318.4589,W,000.0,190.2,220819,017.7,E*6B
01DEA1,022660,00C4A3,$GPRMC,100231,A,5442.9461,N,11318.4590,W,000.0,190.2,220819,017.7,E*61
01DEA0,02265E,00C4A3,$GPRMC,100232,A,5442.9461,N,11318.4591,W,000.0,190.2,220819,017.7,E*63
01DEA2,022660,00C4A4,$GPRMC,100233,A,5442.9462,N,11318.4592,W,000.0,190.2,220819,017.7,E*62
01DEA3,022661,00C4A4,$GPRMC,100234,A,5442.9462,N,11318.4593,W,000.0,190.2,220819,017.7,E*64
01DEA0,02265C,00C4A2,$GPRMC,100235,A,5442.9462,N,11318.4594,W,000.0,190.2,220819,017.7,E*62
01DEA1,022660,00C4A4,$GPRMC,100236,A,5442.9462,N,11318.4594,W,000.0,190.2,220819,017.7,E*61
01DE9E,02265A,00C4A1,$GPRMC,100237,A,5442.9463,N,11318.4595,W,000.0,190.2,220819,017.7,E*60
01DE9E,02265A,00C4A2,$GPRMC,100238,A,5442.9464,N,11318.4595,W,000.0,190.2,220819,017.7,E*68
01DEA0,02265D,00C4A2,$GPRMC,100239,A,5442.9464,N,11318.4597,W,000.0,190.2,220819,017.7,E*6B
01DEA2,022661,00C4A4,$GPRMC,100240,A,5442.9464,N,11318.4597,W,000.0,190.2,220819,017.7,E*65
01DE9D,022658,00C4A0,$GPRMC,100241,A,5442.9465,N,11318.4598,W,000.0,190.2,220819,017.7,E*6A
01DE9C,022657,00C4A0,$GPRMC,100242,A,5442.9465,N,11318.4599,W,000.0,190.2,220819,017.7,E*68
01DE9F,02265B,00C4A2,$GPRMC,100243,A,5442.9466,N,11318.4600,W,000.0,190.2,220819,017.7,E*69
01DE9C,022658,00C4A0,$GPRMC,100244,A,5442.9466,N,11318.4598,W,000.0,190.2,220819,017.7,E*6C
01DEA2,022660,00C4A3,$GPRMC,100245,A,5442.9462,N,11318.4599,W,000.0,190.2,220819,017.7,E*68
01DEA0,02265E,00C4A2,$GPRMC,100246,A,5442.9459,N,11318.4599,W,000.0,190.2,220819,017.7,E*63
01DEA0,02265C,00C4A2,$GPRMC,100247,A,5442.9456,N,11318.4599,W,000.0,190.2,220819,017.7,E*6D
01DEA0,02265F,00C4A3,$GPRMC,100248,A,5442.9452,N,11318.4600,W,000.0,190.2,220819,017.7,E*65
01DEA0,02265C,00C4A2,$GPRMC,100249,A,5442.9449,N,11318.4599,W,000.0,190.2,220819,017.7,E*6D
01DEA0,02265E,00C4A3,$GPRMC,100250,A,5442.9450,N,11318.4601,W,000.0,190.2,220819,017.7,E*6F
01DEA1,02265E,00C4A3,$GPRMC,100251,A,5442.9451,N,11318.4600,W,000.0,190.2,220819,017.7,E*6E
01DE9E,02265C,00C4A1,$GPRMC,100252,A,5442.9453,N,11318.4602,W,000.0,190.2,220819,017.7,E*6D
01DE9F,02265C,00C4A1,$GPRMC,100253,A,5442.9454,N,11318.4599,W,000.0,190.2,220819,017.7,E*6A
01DE9D,022659,00C4A1,$GPRMC,100254,A,5442.9456,N,11318.4597,W,000.0,190.2,220819,017.7,E*61
01DEA0,02265E,00C4A3,$GPRMC,100255,A,5442.9457,N,11318.4594,W,000.0,190.2,220819,017.7,E*62
01DEA0,02265D,00C4A2,$GPRMC,100256,A,5442.9459,N,11318.4592,W,000.0,190.2,220819,017.7,E*69
01DE9E,02265B,00C4A1,$GPRMC,100257,A,5442.9461,N,11318.4589,W,000.0,190.2,220819,017.7,E*69
01DE9F,02265A,00C4A2,$GPRMC,100258,A,5442.9462,N,11318.4587,W,000.0,190.2,220819,017.7,E*6B
01DEA0,02265C,00C4A3,$GPRMC,100259,A,5442.9465,N,11318.4583,W,000.0,190.2,220819,017.7,E*69
01DE9D,022658,00C4A0,$GPRMC,100300,A,5442.9467,N,11318.4583,W,000.0,190.2,220819,017.7,E*66
01DE9C,022659,00C4A1,$GPRMC,100301,A,5442.9471,N,11318.4581,W,000.0,190.2,220819,017.7,E*62
01DEA2,022660,00C4A4,$GPRMC,100302,A,5442.9471,N,11318.4581,W,000.0,190.2,220819,017.7,E*61
01DE9D,02265A,00C4A1,$GPRMC,100303,A,5442.9473,N,11318.4583,W,000.0,190.2,220819,017.7,E*60
01DE9F,02265C,00C4A1,$GPRMC,100304,A,5442.9474,N,11318.4585,W,000.0,190.2,220819,017.7,E*66
01DEA0,02265E,00C4A2,$GPRMC,100305,A,5442.9475,N,11318.4587,W,000.0,190.2,220819,017.7,E*64
01DEA0,02265D,00C4A2,$GPRMC,100306,A,5442.9475,N,11318.4590,W,000.0,190.2,220819,017.7,E*61
01DEA2,022660,00C4A4,$GPRMC,100307,A,5442.9473,N,11318.4593,W,000.0,190.2,220819,017.7,E*65
01DEA1,02265E,00C4A3,$GPRMC,100308,A,5442.9470,N,11318.4594,W,000.0,190.2,220819,017.7,E*6E
01DEA1,022660,00C4A3,$GPRMC,100309,A,5442.9466,N,11318.4594,W,000.0,190.2,220819,017.7,E*68
01DE9E,02265A,00C4A0,$GPRMC,100310,A,5442.9466,N,11318.4594,W,000.0,190.2,220819,017.7,E*60
01DEA1,02265F,00C4A3,$GPRMC,100311,A,5442.9466,N,11318.4596,W,000.0,190.2,220819,017.7,E*63
01DE9E,022659,00C4A0,$GPRMC,100312,A,5442.9466,N,11318.4593,W,000.0,190.2,220819,017.7,E*65
01DE9F,02265B,00C4A2,$GPRMC,100313,A,5442.9466,N,11318.4596,W,000.0,190.2,220819,017.7,E*61
01DE9F,02265B,00C4A1,$GPRMC,100314,A,5442.9465,N,11318.4595,W,000.0,190.2,220819,017.7,E*66
01DEA1,02265F,00C4A2,$GPRMC,100315,A,5442.9462,N,11318.4595,W,000.0,190.2,220819,017.7,E*60
01DEA0,02265E,00C4A2,$GPRMC,100316,A,5442.9458,N,11318.4595,W,000.0,190.2,220819,017.7,E*6A
01DE9F,02265B,00C4A1,$GPRMC,100317,A,5442.9456,N,11318.4598,W,000.0,190.2,220819,017.7,E*68
01DE9E,022659,00C4A0,$GPRMC,100318,A,5442.9453,N,11318.4600,W,000.0,190.2,220819,017.7,E*60
01DE9D,02265A,00C4A0,$GPRMC,100319,A,5442.9450,N,11318.4602,W,000.0,190.2,220819,017.7,E*60
01DE9F,02265B,00C4A0,$GPRMC,100320,A,5442.9447,N,11318.4604,W,000.0,190.2,220819,017.7,E*6A
01DE9F,02265B,00C4A1,$GPRMC,100321,A,5442.9445,N,11318.4603,W,000.0,190.2,220819,017.7,E*6E
01DEA2,022660,00C4A3,$GPRMC,100322,A,5442.9443,N,11318.4601,W,000.0,190.2,220819,017.7,E*69
01DEA1,02265E,00C4A2,$GPRMC,100323,A,5442.9440,N,11318.4600,W,000.0,190.2,220819,017.7,E*6A
01DEA0,02265F,00C4A3,$GPRMC,100324,A,5442.9438,N,11318.4602,W,000.0,190.2,220819,017.7,E*60
01DEA0,02265E,00C4A2,$GPRMC,100325,A,5442.9435,N,11318.4599,W,000.0,190.2,220819,017.7,E*6D
01DE9D,02265B,00C4A1,$GPRMC,100326,A,5442.9434,N,11318.4601,W,000.0,190.2,220819,017.7,E*6D
01DEA3,022663,00C4A4,$GPRMC,100327,A,5442.9432,N,11318.4603,W,000.0,190.2,220819,017.7,E*68
01DEA0,02265F,00C4A3,$GPRMC,100328,A,5442.9430,N,11318.4604,W,000.0,190.2,220819,017.7,E*62
01DEA0,02265E,00C4A2,$GPRMC,100329,A,5442.9430,N,11318.4605,W,000.0,190.2,220819,017.7,E*62
01DEA0,02265E,00C4A2,$GPRMC,100330,A,5442.9429,N,11318.4605,W,000.0,190.2,220819,017.7,E*62
01DEA0,02265F,00C4A2,$GPRMC,100331,A,5442.9430,N,11318.4606,W,000.0,190.2,220819,017.7,E*68
01DEA2,022662,00C4A3,$GPRMC,100332,A,5442.9431,N,11318.4606,W,000.0,190.2,220819,017.7,E*6A
01DEA1,022661,00C4A2,$GPRMC,100333,A,5442.9429,N,11318.4604,W,000.0,190.2,220819,017.7,E*60
01DEA0,02265F,00C4A1,$GPRMC,100334,A,5442.9427,N,11318.4602,W,000.0,190.2,220819,017.7,E*6F
01DEA2,022662,00C4A2,$GPRMC,100335,A,5442.9425,N,11318.4599,W,000.0,190.2,220819,017.7,E*6D
01DEA3,022665,00C4A2,$GPRMC,100336,A,5442.9427,N,11318.4595,W,000.0,190.2,220819,017.7,E*60
01DEA2,022662,00C4A3,$GPRMC,100337,A,5442.9423,N,11318.4593,W,000.0,190.2,220819,017.7,E*63
01DEA0,02265F,00C4A1,$GPRMC,100338,A,5442.9421,N,11318.4590,W,000.0,190.2,220819,017.7,E*6D
01DEA2,022663,00C4A3,$GPRMC,100339,A,5442.9420,N,11318.4587,W,000.0,190.2,220819,017.7,E*6B
01DEA4,022665,00C4A4,$GPRMC,100340,A,5442.9419,N,11318.4588,W,000.0,190.2,220819,017.7,E*60
01DEA1,022661,00C4A2,$GPRMC,100341,A,5442.9418,N,11318.4588,W,000.0,190.2,220819,017.7,E*60
01DEA2,022665,00C4A4,$GPRMC,100342,A,5442.9417,N,11318.4589,W,000.0,190.2,220819,017.7,E*6D
01DEA2,022663,00C4A3,$GPRMC,100343,A,5442.9417,N,11318.4590,W,000.0,190.2,220819,017.7,E*64
01DEA1,022662,00C4A3,$GPRMC,100344,A,5442.9416,N,11318.4591,W,000.0,190.2,220819,017.7,E*63
01DEA0,022661,00C4A2,$GPRMC,100345,A,5442.9417,N,11318.4592,W,000.0,190.2,220819,017.7,E*60
01DEA1,022661,00C4A2,$GPRMC,100346,A,5442.9416,N,11318.4594,W,000.0,190.2,220819,017.7,E*64
01DE9E,02265F,00C4A0,$GPRMC,100347,A,5442.9416,N,11318.4594,W,000.0,190.2,220819,017.7,E*65
01DE9D,02265D,00C4A0,$GPRMC,100348,A,5442.9416,N,11318.4591,W,000.0,190.2,220819,017.7,E*6F
01DEA0,022662,00C4A2,$GPRMC,100349,A,5442.9420,N,11318.4590,W,000.0,190.2,220819,017.7,E*6A
01DE9F,022660,00C4A1,$GPRMC,100350,A,5442.9424,N,11318.4589,W,000.0,190.2,220819,017.7,E*6E
01DEA2,022665,00C4A3,$GPRMC,100351,A,5442.9423,N,11318.4594,W,000.0,190.2,220819,017.7,E*64
01DE9D,02265D,00C4A0,$GPRMC,100352,A,5442.9427,N,11318.4593,W,000.0,190.2,220819,017.7,E*64
01DEA1,022664,00C4A2,$GPRMC,100353,A,5442.9427,N,11318.4593,W,000.0,190.2,220819,017.7,E*65
01DE9D,02265E,00C4A0,$GPRMC,100354,A,5442.9429,N,11318.4591,W,000.0,190.2,220819,017.7,E*6E
01DEA0,022664,00C4A2,$GPRMC,100355,A,5442.9432,N,11318.4587,W,000.0,190.2,220819,017.7,E*62
01DEA0,022661,00C4A1,$GPRMC,100356,A,5442.9434,N,11318.4586,W,000.0,190.2,220819,017.7,E*66
01DEA0,022662,00C4A2,$GPRMC,100357,A,5442.9430,N,11318.4590,W,000.0,190.2,220819,017.7,E*64
01DEA1,022664,00C4A3,$GPRMC,100358,A,5442.9427,N,11318.4594,W,000.0,190.2,220819,017.7,E*69
01DE9D,02265F,00C4A0,$GPRMC,100359,A,5442.9430,N,11318.4594,W,000.0,190.2,220819,017.7,E*6E
01DEA1,022665,00C4A2,$GPRMC,100400,A,5442.9432,N,11318.4593,W,000.0,190.2,220819,017.7,E*60
01DEA2,022666,00C4A3,$GPRMC,100401,A,5442.9435,N,11318.4594,W,000.0,190.2,220819,017.7,E*61
01DE9F,022661,00C4A1,$GPRMC,100402,A,5442.9438,N,11318.4593,W,000.0,190.2,220819,017.7,E*68
01DEA0,022664,00C4A1,$GPRMC,100403,A,5442.9440,N,11318.4593,W,000.0,190.2,220819,017.7,E*66
01DEA3,022668,00C4A4,$GPRMC,100404,A,5442.9439,N,11318.4595,W,000.0,190.2,220819,017.7,E*69
01DEA3,022667,00C4A4,$GPRMC,100405,A,5442.9438,N,11318.4596,W,000.0,190.2,220819,017.7,E*6A
01DEA3,022668,00C4A3,$GPRMC,100406,A,5442.9441,N,11318.4597,W,000.0,190.2,220819,017.7,E*66
01DEA0,022662,00C4A1,$GPRMC,100407,A,5442.9444,N,11318.4597,W,000.0,190.2,220819,017.7,E*62
01DE9F,022661,00C4A0,$GPRMC,100408,A,5442.9442,N,11318.4599,W,000.0,190.2,220819,017.7,E*65
01DEA0,022664,00C4A2,$GPRMC,100409,A,5442.9441,N,11318.4601,W,000.0,190.2,220819,017.7,E*65
01DEA3,022666,00C4A3,$GPRMC,100410,A,5442.9439,N,11318.4603,W,000.0,190.2,220819,017.7,E*60
01DEA4,022669,00C4A4,$GPRMC,100411,A,5442.9437,N,11318.4604,W,000.0,190.2,220819,017.7,E*68
01DEA4,022668,00C4A3,$GPRMC,100412,A,5442.9436,N,11318.4606,W,000.0,190.2,220819,017.7,E*68
01DEA4,022669,00C4A3,$GPRMC,100413,A,5442.9433,N,11318.4605,W,000.0,190.2,220819,017.7,E*6F
01DEA1,022665,00C4A1,$GPRMC,100414,A,5442.9435,N,11318.4607,W,000.0,190.2,220819,017.7,E*6C
01DEA1,022665,00C4A1,$GPRMC,100415,A,5442.9437,N,11318.4608,W,000.0,190.2,220819,017.7,E*60
01DEA3,022667,00C4A2,$GPRMC,100416,A,5442.9439,N,11318.4609,W,000.0,190.2,220819,017.7,E*6C
01DEA0,022664,00C4A0,$GPRMC,100417,A,5442.9441,N,11318.4610,W,000.0,190.2,220819,017.7,E*6A
01DEA0,022662,00C4A1,$GPRMC,100418,A,5442.9443,N,11318.4611,W,000.0,190.2,220819,017.7,E*66
01DE9E,02265E,00C49E,$GPRMC,100419,A,5442.9446,N,11318.4612,W,000.0,190.2,220819,017.7,E*61
01DEA3,022667,00C4A1,$GPRMC,100420,A,5442.9445,N,11318.4612,W,000.0,190.2,220819,017.7,E*68
01DEA1,022664,00C4A1,$GPRMC,100421,A,5442.9444,N,11318.4611,W,000.0,190.2,220819,017.7,E*6B
01DEA1,022664,00C4A1,$GPRMC,100422,A,5442.9443,N,11318.4611,W,000.0,190.2,220819,017.7,E*6F
01DEA0,022662,00C4A0,$GPRMC,100423,A,5442.9440,N,11318.4607,W,000.0,190.2,220819,017.7,E*6A
01DEA4,022668,00C4A3,$GPRMC,100424,A,5442.9438,N,11318.4605,W,000.0,190.2,220819,017.7,E*60
01DEA0,022662,00C4A0,$GPRMC,100425,A,5442.9436,N,11318.4604,W,000.0,190.2,220819,017.7,E*6E
01DE9E,02265F,00C49E,$GPRMC,100426,A,5442.9434,N,11318.4605,W,000.0,190.2,220819,017.7,E*6E
01DE9E,02265F,00C49F,$GPRMC,100427,A,5442.9432,N,11318.4603,W,000.0,190.2,220819,017.7,E*6F
01DE9F,022661,00C4A0,$GPRMC,100428,A,5442.9430,N,11318.4603,W,000.0,190.2,220819,017.7,E*62
01DEA2,022663,00C4A1,$GPRMC,100429,A,5442.9425,N,11318.4597,W,000.0,190.2,220819,017.7,E*69
01DE9E,02265F,00C49F,$GPRMC,100430,A,5442.9423,N,11318.4597,W,000.0,190.2,220819,017.7,E*67
01DEA3,022665,00C4A1,$GPRMC,100431,A,5442.9422,N,11318.4598,W,000.0,190.2,220819,017.7,E*68
01DEA0,022660,00C49F,$GPRMC,100432,A,5442.9420,N,11318.4599,W,000.0,190.2,220819,017.7,E*68
01DE9B,02265A,00C49C,$GPRMC,100433,A,5442.9417,N,11318.4598,W,000.0,190.2,220819,017.7,E*6C
01DEA0,02265F,00C4A0,$GPRMC,100434,A,5442.9416,N,11318.4598,W,000.0,190.2,220819,017.7,E*6A
01DE9E,02265E,00C49E,$GPRMC,100435,A,5442.9415,N,11318.4599,W,000.0,190.2,220819,017.7,E*69
01DE9C,02265B,00C49E,$GPRMC,100436,A,5442.9412,N,11318.4598,W,000.0,190.2,220819,017.7,E*6C
01DE9A,022658,00C49C,$GPRMC,100437,A,5442.9409,N,11318.4596,W,000.0,190.2,220819,017.7,E*69
01DE9C,02265B,00C49E,$GPRMC,100438,A,5442.9408,N,11318.4595,W,000.0,190.2,220819,017.7,E*64
01DEA0,02265E,00C49F,$GPRMC,100439,A,5442.9405,N,11318.4593,W,000.0,190.2,220819,017.7,E*6E
01DE9E,02265D,00C49F,$GPRMC,100440,A,5442.9402,N,11318.4592,W,000.0,190.2,220819,017.7,E*66
01DE9D,02265C,00C49E,$GPRMC,100441,A,5442.9397,N,11318.4590,W,000.0,190.2,220819,017.7,E*6E
01DE9C,022658,00C49D,$GPRMC,100442,A,5442.9395,N,11318.4590,W,000.0,190.2,220819,017.7,E*6F
01DEA2,022661,00C4A0,$GPRMC,100443,A,5442.9395,N,11318.4594,W,000.0,190.2,220819,017.7,E*6A
01DE9D,022659,00C49D,$GPRMC,100444,A,5442.9393,N,11318.4595,W,000.0,190.2,220819,017.7,E*6A
01DE9E,02265B,00C49D,$GPRMC,100445,A,5442.9392,N,11318.4597,W,000.0,190.2,220819,017.7,E*68
01DEA1,022660,00C4A0,$GPRMC,100446,A,5442.9391,N,11318.4598,W,000.0,190.2,220819,017.7,E*67
01DEA0,02265E,00C49F,$GPRMC,100447,A,5442.9390,N,11318.4600,W,000.0,190.2,220819,017.7,E*65
01DEA0,02265E,00C49F,$GPRMC,100448,A,5442.9388,N,11318.4602,W,000.0,190.2,220819,017.7,E*61
01DE9F,02265D,00C49F,$GPRMC,100449,A,5442.9386,N,11318.4605,W,000.0,190.2,220819,017.7,E*69
01DEA5,022665,00C4A2,$GPRMC,100450,A,5442.9380,N,11318.4606,W,000.0,190.2,220819,017.7,E*64
01DEA4,022663,00C4A1,$GPRMC,100451,A,5442.9375,N,11318.4606,W,000.0,190.2,220819,017.7,E*6F
01DEA5,022663,00C4A2,$GPRMC,100452,A,5442.9373,N,11318.4606,W,000.0,190.2,220819,017.7,E*6A
01DEA2,02265F,00C4A0,$GPRMC,100453,A,5442.9372,N,11318.4607,W,000.0,190.2,220819,017.7,E*6B
01DEA5,022664,00C4A2,$GPRMC,100454,A,5442.9366,N,11318.4608,W,000.0,190.2,220819,017.7,E*66
01DEA3,022661,00C4A1,$GPRMC,100455,A,5442.9365,N,11318.4610,W,000.0,190.2,220819,017.7,E*6D
01DEA2,02265F,00C4A0,$GPRMC,100456,A,5442.9365,N,11318.4610,W,000.0,190.2,220819,017.7,E*6E
01DEA3,022660,00C4A1,$GPRMC,100457,A,5442.9364,N,11318.4612,W,000.0,190.2,220819,017.7,E*6C
01DEA4,022662,00C4A1,$GPRMC,100458,A,5442.9361,N,11318.4618,W,000.0,190.2,220819,017.7,E*6C
01DEA3,022660,00C4A0,$GPRMC,100459,A,5442.9360,N,11318.4620,W,000.0,190.2,220819,017.7,E*67
01DEA1,02265D,00C49F,$GPRMC,100500,A,5442.9363,N,11318.4619,W,000.0,190.2,220819,017.7,E*63
01DEA5,022663,00C4A1,$GPRMC,100501,A,5442.9365,N,11318.4619,W,000.0,190.2,220819,017.7,E*64
01DE9F,02265A,00C49E,$GPRMC,100502,A,5442.9364,N,11318.4620,W,000.0,190.2,220819,017.7,E*6C
01DEA5,022662,00C4A1,$GPRMC,100503,A,5442.9365,N,11318.4624,W,000.0,190.2,220819,017.7,E*68
01DEA6,022663,00C4A2,$GPRMC,100504,A,5442.9363,N,11318.4623,W,000.0,190.2,220819,017.7,E*6E
01DEA3,02265F,00C4A1,$GPRMC,100505,A,5442.9363,N,11318.4623,W,000.0,190.2,220819,017.7,E*6F
01DEA2,02265E,00C4A0,$GPRMC,100506,A,5442.9366,N,11318.4626,W,000.0,190.2,220819,017.7,E*6C
01DEA5,022663,00C4A1,$GPRMC,100507,A,5442.9368,N,11318.4627,W,000.0,190.2,220819,017.7,E*62
01DEA3,02265F,00C4A0,$GPRMC,100508,A,5442.9367,N,11318.4624,W,000.0,190.2,220819,017.7,E*61
01DEA2,02265E,00C49F,$GPRMC,100509,A,5442.9369,N,11318.4624,W,000.0,190.2,220819,017.7,E*6E
01DE9F,022659,00C49D,$GPRMC,100510,A,5442.9371,N,11318.4623,W,000.0,190.2,220819,017.7,E*68
01DE9B,022654,00C49B,$GPRMC,100511,A,5442.9373,N,11318.4623,W,000.0,190.2,220819,017.7,E*6B
01DEA4,022662,00C4A2,$GPRMC,100512,A,5442.9374,N,11318.4619,W,000.0,190.2,220819,017.7,E*66
01DEA4,022661,00C4A1,$GPRMC,100513,A,5442.9373,N,11318.4615,W,000.0,190.2,220819,017.7,E*6C
01DEA3,022661,00C4A2,$GPRMC,100514,A,5442.9373,N,11318.4617,W,000.0,190.2,220819,017.7,E*69
01DEA4,022662,00C4A1,$GPRMC,100515,A,5442.9374,N,11318.4617,W,000.0,190.2,220819,017.7,E*6F
01DEA6,022666,00C4A2,$GPRMC,100516,A,5442.9374,N,11318.4617,W,000.0,190.2,220819,017.7,E*6C
01DEA1,02265D,00C49E,$GPRMC,100517,A,5442.9375,N,11318.4617,W,000.0,190.2,220819,017.7,E*6C
01DEAA,02266A,00C4A5,$GPRMC,100518,A,5442.9375,N,11318.4616,W,000.0,190.2,220819,017.7,E*62
01DEA1,02265E,00C4A0,$GPRMC,100519,A,5442.9375,N,11318.4616,W,000.0,190.2,220819,017.7,E*63
01DEA3,022660,00C4A1,$GPRMC,100520,A,5442.9375,N,11318.4618,W,000.0,190.2,220819,017.7,E*67
01DEA2,02265F,00C49F,$GPRMC,100521,A,5442.9377,N,11318.4619,W,000.0,190.2,220819,017.7,E*65
01DEA1,02265D,00C49F,$GPRMC,100522,A,5442.9379,N,11318.4620,W,000.0,190.2,220819,017.7,E*62
01DEA2,022660,00C4A0,$GPRMC,100523,A,5442.9378,N,11318.4619,W,000.0,190.2,220819,017.7,E*68
01DEA3,022660,00C4A1,$GPRMC,100524,A,5442.9378,N,11318.4619,W,000.0,190.2,220819,017.7,E*6F
01DEA4,022661,00C4A1,$GPRMC,100525,A,5442.9379,N,11318.4620,W,000.0,190.2,220819,017.7,E*65
01DEA5,022662,00C4A1,$GPRMC,100526,A,5442.9378,N,11318.4621,W,000.0,190.2,220819,017.7,E*66
01DEA3,022661,00C4A1,$GPRMC,100527,A,5442.9380,N,11318.4622,W,000.0,190.2,220819,017.7,E*63
01DEA5,022662,00C4A2,$GPRMC,100528,A,5442.9380,N,11318.4623,W,000.0,190.2,220819,017.7,E*6D
01DEA5,022663,00C4A2,$GPRMC,100529,A,5442.9382,N,11318.4625,W,000.0,190.2,220819,017.7,E*68
01DEA2,02265D,00C4A0,$GPRMC,100530,A,5442.9383,N,11318.4627,W,000.0,190.2,220819,017.7,E*63
01DEA4,022663,00C4A2,$GPRMC,100531,A,5442.9383,N,11318.4628,W,000.0,190.2,220819,017.7,E*6D
01DEA3,022660,00C4A1,$GPRMC,100532,A,5442.9383,N,11318.4629,W,000.0,190.2,220819,017.7,E*6F
01DEA8,022668,00C4A4,$GPRMC,100533,A,5442.9382,N,11318.4630,W,000.0,190.2,220819,017.7,E*67
01DEA7,022666,00C4A4,$GPRMC,100534,A,5442.9380,N,11318.4632,W,000.0,190.2,220819,017.7,E*60
01DEA5,022663,00C4A2,$GPRMC,100535,A,5442.9379,N,11318.4632,W,000.0,190.2,220819,017.7,E*67
01DEA8,022667,00C4A4,$GPRMC,100536,A,5442.9378,N,11318.4633,W,000.0,190.2,220819,017.7,E*64
01DEA6,022664,00C4A2,$GPRMC,100537,A,5442.9378,N,11318.4634,W,000.0,190.2,220819,017.7,E*62
01DEA9,022668,00C4A4,$GPRMC,100538,A,5442.9378,N,11318.4634,W,000.0,190.2,220819,017.7,E*6D
01DEA9,02266A,00C4A4,$GPRMC,100539,A,5442.9378,N,11318.4634,W,000.0,190.2,220819,017.7,E*6C
01DEA4,022662,00C4A1,$GPRMC,100540,A,5442.9374,N,11318.4635,W,000.0,190.2,220819,017.7,E*6F
01DEA5,022664,00C4A1,$GPRMC,100541,A,5442.9372,N,11318.4634,W,000.0,190.2,220819,017.7,E*69
01DEA5,022664,00C4A2,$GPRMC,100542,A,5442.9368,N,11318.4634,W,000.0,190.2,220819,017.7,E*61
01DEA5,022665,00C4A2,$GPRMC,100543,A,5442.9365,N,11318.4634,W,000.0,190.2,220819,017.7,E*6D
01DEA8,022668,00C4A3,$GPRMC,100544,A,5442.9363,N,11318.4634,W,000.0,190.2,220819,017.7,E*6C
01DEA6,022666,00C4A3,$GPRMC,100545,A,5442.9360,N,11318.4634,W,000.0,190.2,220819,017.7,E*6E
01DEA7,022667,00C4A3,$GPRMC,100546,A,5442.9357,N,11318.4635,W,000.0,190.2,220819,017.7,E*68
01DEA7,022666,00C4A2,$GPRMC,100547,A,5442.9357,N,11318.4634,W,000.0,190.2,220819,017.7,E*68
01DEA6,022665,00C4A2,$GPRMC,100548,A,5442.9356,N,11318.4635,W,000.0,190.2,220819,017.7,E*67
01DEA6,022666,00C4A2,$GPRMC,100549,A,5442.9355,N,11318.4636,W,000.0,190.2,220819,017.7,E*66
01DEAA,02266B,00C4A5,$GPRMC,100550,A,5442.9354,N,11318.4637,W,000.0,190.2,220819,017.7,E*6E
01DEA8,022668,00C4A4,$GPRMC,100551,A,5442.9355,N,11318.4636,W,000.0,190.2,220819,017.7,E*6F
01DEA4,022664,00C4A2,$GPRMC,100552,A,5442.9353,N,11318.4637,W,000.0,190.2,220819,017.7,E*6B
01DEAA,02266B,00C4A5,$GPRMC,100553,A,5442.9351,N,11318.4637,W,000.0,190.2,220819,017.7,E*68
01DEA4,022662,00C4A1,$GPRMC,100554,A,5442.9349,N,11318.4637,W,000.0,190.2,220819,017.7,E*66
01DEA2,022661,00C4A0,$GPRMC,100555,A,5442.9350,N,11318.4635,W,000.0,190.2,220819,017.7,E*6D
01DEA7,022668,00C4A3,$GPRMC,100556,A,5442.9346,N,11318.4635,W,000.0,190.2,220819,017.7,E*69
01DEA7,022667,00C4A3,$GPRMC,100557,A,5442.9342,N,11318.4634,W,000.0,190.2,220819,017.7,E*6D
01DEA8,022669,00C4A4,$GPRMC,100558,A,5442.9339,N,11318.4635,W,000.0,190.2,220819,017.7,E*6F
01DEA4,022663,00C4A1,$GPRMC,100559,A,5442.9337,N,11318.4636,W,000.0,190.2,220819,017.7,E*63
01DEA4,022662,00C4A0,$GPRMC,100600,A,5442.9337,N,11318.4636,W,000.0,190.2,220819,017.7,E*6C
01DEA5,022664,00C4A1,$GPRMC,100601,A,5442.9336,N,11318.4638,W,000.0,190.2,220819,017.7,E*62
01DEA4,022662,00C4A0,$GPRMC,100602,A,5442.9337,N,11318.4637,W,000.0,190.2,220819,017.7,E*6F
01DEA4,022662,00C4A0,$GPRMC,100603,A,5442.9334,N,11318.4636,W,000.0,190.2,220819,017.7,E*6C
01DEA5,022664,00C4A1,$GPRMC,100604,A,5442.9334,N,11318.4638,W,000.0,190.2,220819,017.7,E*65
01DEA3,022660,00C4A0,$GPRMC,100605,A,5442.9330,N,11318.4637,W,000.0,190.2,220819,017.7,E*6F
01DEA5,022663,00C4A1,$GPRMC,100606,A,5442.9332,N,11318.4639,W,000.9,190.2,220819,017.7,E*69
01DEA9,022668,00C4A4,$GPRMC,100607,A,5442.9332,N,11318.4641,W,000.0,190.2,220819,017.7,E*6E
01DEA6,022664,00C4A1,$GPRMC,100608,A,5442.9331,N,11318.4641,W,000.0,190.2,220819,017.7,E*62
01DEA8,022669,00C4A3,$GPRMC,100609,A,5442.9331,N,11318.4642,W,000.0,190.2,220819,017.7,E*60
01DEA9,022668,00C4A3,$GPRMC,100610,A,5442.9329,N,11318.4641,W,000.0,190.2,220819,017.7,E*62
01DEA8,022668,00C4A3,$GPRMC,100611,A,5442.9327,N,11318.4641,W,000.0,190.2,220819,017.7,E*6D
01DEA4,022662,00C4A1,$GPRMC,100612,A,5442.9326,N,11318.4642,W,000.0,190.2,220819,017.7,E*6C
01DEA6,022664,00C4A1,$GPRMC,100613,A,5442.9325,N,11318.4641,W,000.0,190.2,220819,017.7,E*6D
01DEA8,022668,00C4A3,$GPRMC,100614,A,5442.9323,N,11318.4640,W,000.0,190.2,220819,017.7,E*6D
01DEA4,022660,00C4A0,$GPRMC,100615,A,5442.9321,N,11318.4641,W,000.0,190.2,220819,017.7,E*6F
01DEA8,022666,00C4A3,$GPRMC,100616,A,5442.9322,N,11318.4641,W,000.0,190.2,220819,017.7,E*6F
01DEA7,022664,00C4A1,$GPRMC,100617,A,5442.9321,N,11318.4641,W,000.0,190.2,220819,017.7,E*6D
01DEA7,022663,00C4A1,$GPRMC,100618,A,5442.9320,N,11318.4640,W,000.0,190.2,220819,017.7,E*62
01DEAA,022668,00C4A3,$GPRMC,100619,A,5442.9320,N,11318.4641,W,000.0,190.2,220819,017.7,E*62
01DEA9,022668,00C4A3,$GPRMC,100620,A,5442.9320,N,11318.4641,W,000.0,190.2,220819,017.7,E*68
01DEA7,022664,00C4A1,$GPRMC,100621,A,5442.9319,N,11318.4639,W,000.0,190.2,220819,017.7,E*6C
01DEA4,02265F,00C4A0,$GPRMC,100622,A,5442.9316,N,11318.4634,W,000.0,190.2,220819,017.7,E*6D
01DEA6,022662,00C4A1,$GPRMC,100623,A,5442.9316,N,11318.4634,W,000.0,190.2,220819,017.7,E*6C
01DEA7,022663,00C4A2,$GPRMC,100624,A,5442.9316,N,11318.4630,W,000.0,190.2,220819,017.7,E*6F
01DEA4,02265F,00C4A0,$GPRMC,100625,A,5442.9315,N,11318.4626,W,000.0,190.2,220819,017.7,E*6A
01DEA7,022664,00C4A3,$GPRMC,100626,A,5442.9315,N,11318.4625,W,000.0,190.2,220819,017.7,E*6A
01DEA3,02265F,00C49F,$GPRMC,100627,A,5442.9313,N,11318.4625,W,000.0,190.2,220819,017.7,E*6D
01DEA5,022661,00C4A1,$GPRMC,100628,A,5442.9308,N,11318.4620,W,000.0,190.2,220819,017.7,E*6D
01DEA5,022660,00C4A0,$GPRMC,100629,A,5442.9303,N,11318.4616,W,000.0,190.2,220819,017.7,E*62
01DEAA,022667,00C4A3,$GPRMC,100630,A,5442.9302,N,11318.4618,W,000.0,190.2,220819,017.7,E*65
01DEA7,022665,00C4A2,$GPRMC,100631,A,5442.9300,N,11318.4618,W,000.0,190.2,220819,017.7,E*66
01DEA5,022662,00C4A1,$GPRMC,100632,A,5442.9302,N,11318.4619,W,000.0,190.2,220819,017.7,E*66
01DEA4,022660,00C4A0,$GPRMC,100633,A,5442.9304,N,11318.4619,W,000.0,190.2,220819,017.7,E*61
01DEA6,022662,00C4A2,$GPRMC,100634,A,5442.9305,N,11318.4619,W,000.0,190.2,220819,017.7,E*67
01DEA3,02265D,00C4A0,$GPRMC,100635,A,5442.9306,N,11318.4619,W,000.0,190.2,220819,017.7,E*65
01DEA5,02265F,00C4A1,$GPRMC,100636,A,5442.9305,N,11318.4619,W,000.0,190.2,220819,017.7,E*65
01DEA3,02265D,00C49F,$GPRMC,100637,A,5442.9305,N,11318.4620,W,000.0,190.2,220819,017.7,E*6E
01DEA7,022665,00C4A3,$GPRMC,100638,A,5442.9303,N,11318.4619,W,000.0,190.2,220819,017.7,E*6D
01DEA5,022661,00C4A1,$GPRMC,100639,A,5442.9302,N,11318.4619,W,000.0,190.2,220819,017.7,E*6D
01DEA6,022661,00C4A1,$GPRMC,100640,A,5442.9304,N,11318.4620,W,000.0,190.2,220819,017.7,E*6F
01DEA6,022661,00C4A1,$GPRMC,100641,A,5442.9305,N,11318.4621,W,000.0,190.2,220819,017.7,E*6E
01DEA7,022663,00C4A1,$GPRMC,100642,A,5442.9303,N,11318.4621,W,000.0,190.2,220819,017.7,E*6B
01DEA3,02265E,00C49F,$GPRMC,100643,A,5442.9303,N,11318.4621,W,000.0,190.2,220819,017.7,E*6A
01DEAE,02266E,00C4A6,$GPRMC,100644,A,5442.9303,N,11318.4621,W,000.0,190.2,220819,017.7,E*6D
01DEA5,022660,00C4A1,$GPRMC,100645,A,5442.9303,N,11318.4621,W,000.0,190.2,220819,017.7,E*6C
01DEAC,02266B,00C4A5,$GPRMC,100646,A,5442.9303,N,11318.4619,W,000.0,190.2,220819,017.7,E*64
01DEA9,022666,00C4A3,$GPRMC,100647,A,5442.9305,N,11318.4618,W,000.0,190.2,220819,017.7,E*62
01DEAA,022667,00C4A3,$GPRMC,100648,A,5442.9310,N,11318.4616,W,000.0,190.2,220819,017.7,E*67
01DEAD,02266D,00C4A5,$GPRMC,100649,A,5442.9314,N,11318.4615,W,000.0,190.2,220819,017.7,E*61
01DEAA,022667,00C4A3,$GPRMC,100650,A,5442.9319,N,11318.4616,W,000.0,190.2,220819,017.7,E*67
01DEAC,02266A,00C4A4,$GPRMC,100651,A,5442.9324,N,11318.4614,W,000.0,190.2,220819,017.7,E*6A
01DEAE,02266D,00C4A5,$GPRMC,100652,A,5442.9328,N,11318.4612,W,000.0,190.2,220819,017.7,E*63
01DEAA,022667,00C4A3,$GPRMC,100653,A,5442.9332,N,11318.4610,W,000.0,190.2,220819,017.7,E*6B
01DEAC,02266A,00C4A4,$GPRMC,100654,A,5442.9335,N,11318.4609,W,000.0,190.2,220819,017.7,E*63
01DEAB,02266A,00C4A4,$GPRMC,100655,A,5442.9338,N,11318.4608,W,000.0,190.2,220819,017.7,E*6E
01DEAB,022669,00C4A4,$GPRMC,100656,A,5442.9341,N,11318.4607,W,000.0,190.2,220819,017.7,E*6C
01DEA7,022664,00C4A2,$GPRMC,100657,A,5442.9344,N,11318.4606,W,000.0,190.2,220819,017.7,E*69
01DEAB,022668,00C4A3,$GPRMC,100658,A,5442.9347,N,11318.4604,W,000.0,190.2,220819,017.7,E*67
01DEA4,022660,00C4A0,$GPRMC,100659,A,5442.9349,N,11318.4603,W,000.0,190.2,220819,017.7,E*6F
01DEAD,02266C,00C4A5,$GPRMC,100700,A,5442.9352,N,11318.4601,W,000.0,190.2,220819,017.7,E*6A
01DEAB,022669,00C4A4,$GPRMC,100701,A,5442.9355,N,11318.4599,W,000.0,190.2,220819,017.7,E*6E
01DEAB,022669,00C4A4,$GPRMC,100702,A,5442.9359,N,11318.4593,W,000.0,190.2,220819,017.7,E*6B
01DEA9,022667,00C4A3,$GPRMC,100703,A,5442.9363,N,11318.4588,W,000.0,190.2,220819,017.7,E*69
01DEA9,022668,00C4A3,$GPRMC,100704,A,5442.9367,N,11318.4586,W,000.0,190.2,220819,017.7,E*64
01DEAC,02266C,00C4A5,$GPRMC,100705,A,5442.9372,N,11318.4584,W,000.0,190.2,220819,017.7,E*63
01DEAA,022669,00C4A4,$GPRMC,100706,A,5442.9376,N,11318.4584,W,000.0,190.2,220819,017.7,E*64
01DEAB,02266B,00C4A5,$GPRMC,100707,A,5442.9379,N,11318.4583,W,000.0,190.2,220819,017.7,E*6D
01DEA6,022665,00C4A2,$GPRMC,100708,A,5442.9383,N,11318.4583,W,000.0,190.2,220819,017.7,E*67
01DEAB,02266A,00C4A4,$GPRMC,100709,A,5442.9387,N,11318.4582,W,000.0,190.2,220819,017.7,E*63
01DEAB,02266B,00C4A4,$GPRMC,100710,A,5442.9388,N,11318.4581,W,000.0,190.2,220819,017.7,E*67
01DEAB,02266B,00C4A5,$GPRMC,100711,A,5442.9390,N,11318.4581,W,000.0,190.2,220819,017.7,E*6F
01DEAD,02266D,00C4A6,$GPRMC,100712,A,5442.9389,N,11318.4582,W,000.0,190.2,220819,017.7,E*67
01DEA9,022669,00C4A3,$GPRMC,100713,A,5442.9388,N,11318.4582,W,000.0,190.2,220819,017.7,E*67
01DEAA,022669,00C4A4,$GPRMC,100714,A,5442.9386,N,11318.4584,W,000.0,190.2,220819,017.7,E*68
01DEAD,02266E,00C4A6,$GPRMC,100715,A,5442.9386,N,11318.4581,W,000.0,190.2,220819,017.7,E*6C
01DEAC,02266D,00C4A5,$GPRMC,100716,A,5442.9386,N,11318.4578,W,000.0,190.2,220819,017.7,E*69
01DEAC,02266C,00C4A5,$GPRMC,100717,A,5442.9388,N,11318.4575,W,000.0,190.2,220819,017.7,E*6B
01DEAC,02266E,00C4A6,$GPRMC,100718,A,5442.9390,N,11318.4573,W,000.0,190.2,220819,017.7,E*6B
01DEAA,022669,00C4A4,$GPRMC,100719,A,5442.9392,N,11318.4572,W,000.0,190.2,220819,017.7,E*69
01DEAA,02266A,00C4A4,$GPRMC,100720,A,5442.9395,N,11318.4572,W,000.0,190.2,220819,017.7,E*64
01DEA9,02266A,00C4A4,$GPRMC,100721,A,5442.9399,N,11318.4572,W,000.0,190.2,220819,017.7,E*69
01DEAB,02266C,00C4A5,$GPRMC,100722,A,5442.9403,N,11318.4572,W,000.0,190.2,220819,017.7,E*6E
01DEAD,02266F,00C4A6,$GPRMC,100723,A,5442.9408,N,11318.4572,W,000.0,190.2,220819,017.7,E*64
01DEAC,02266C,00C4A5,$GPRMC,100724,A,5442.9412,N,11318.4573,W,000.0,190.2,220819,017.7,E*69
01DEA8,022666,00C4A3,$GPRMC,100725,A,5442.9417,N,11318.4574,W,000.0,190.2,220819,017.7,E*6A
01DEAE,02266F,00C4A7,$GPRMC,100726,A,5442.9422,N,11318.4575,W,000.0,190.2,220819,017.7,E*6E
01DEA8,022665,00C4A3,$GPRMC,100727,A,5442.9426,N,11318.4576,W,000.0,190.2,220819,017.7,E*68
01DEA5,022663,00C4A2,$GPRMC,100728,A,5442.9429,N,11318.4579,W,000.0,190.2,220819,017.7,E*67
01DEA4,022661,00C4A2,$GPRMC,100729,A,5442.9432,N,11318.4581,W,000.0,190.2,220819,017.7,E*6B
01DEA7,022665,00C4A3,$GPRMC,100730,A,5442.9433,N,11318.4583,W,000.0,190.2,220819,017.7,E*60
01DEA7,022665,00C4A3,$GPRMC,100731,A,5442.9431,N,11318.4584,W,000.0,190.2,220819,017.7,E*64
01DEAB,02266C,00C4A5,$GPRMC,100732,A,5442.9428,N,11318.4584,W,000.0,190.2,220819,017.7,E*6F
01DEA7,022665,00C4A3,$GPRMC,100733,A,5442.9425,N,11318.4585,W,000.0,190.2,220819,017.7,E*62
01DEAB,02266B,00C4A6,$GPRMC,100734,A,5442.9424,N,11318.4584,W,000.0,190.2,220819,017.7,E*65
01DEA8,022668,00C4A4,$GPRMC,100735,A,5442.9424,N,11318.4583,W,000.0,190.2,220819,017.7,E*63
01DEAB,02266C,00C4A6,$GPRMC,100736,A,5442.9426,N,11318.4580,W,000.0,190.2,220819,017.7,E*61
01DEAB,02266D,00C4A6,$GPRMC,100737,A,5442.9430,N,11318.4578,W,000.0,190.2,220819,017.7,E*60
01DEAD,02266E,00C4A6,$GPRMC,100738,A,5442.9433,N,11318.4575,W,000.0,190.2,220819,017.7,E*61
01DEA9,022669,00C4A4,$GPRMC,100739,A,5442.9436,N,11318.4574,W,000.0,190.2,220819,017.7,E*64
01DEAB,02266C,00C4A6,$GPRMC,100740,A,5442.9438,N,11318.4573,W,000.0,190.2,220819,017.7,E*63
01DEA6,022664,00C4A3,$GPRMC,100741,A,5442.9440,N,11318.4573,W,000.0,190.2,220819,017.7,E*6D
01DEA8,022668,00C4A5,$GPRMC,100742,A,5442.9440,N,11318.4573,W,000.0,190.2,220819,017.7,E*6E
01DEA5,022666,00C4A3,$GPRMC,100743,A,5442.9439,N,11318.4574,W,000.0,190.2,220819,017.7,E*66
01DEA8,022668,00C4A3,$GPRMC,100744,A,5442.9439,N,11318.4574,W,000.0,190.2,220819,017.7,E*61
01DEAB,02266C,00C4A6,$GPRMC,100745,A,5442.9439,N,11318.4574,W,000.0,190.2,220819,017.7,E*60
01DEA8,02266A,00C4A4,$GPRMC,100746,A,5442.9438,N,11318.4573,W,000.0,190.2,220819,017.7,E*65
01DEA8,022669,00C4A4,$GPRMC,100747,A,5442.9438,N,11318.4572,W,000.0,190.2,220819,017.7,E*65
01DEAC,022670,00C4A8,$GPRMC,100748,A,5442.9436,N,11318.4571,W,000.0,190.2,220819,017.7,E*67
01DEA3,022663,00C4A2,$GPRMC,100749,A,5442.9435,N,11318.4569,W,000.0,190.2,220819,017.7,E*6C
01DEA8,02266C,00C4A5,$GPRMC,100750,A,5442.9432,N,11318.4572,W,000.0,190.2,220819,017.7,E*69
01DEAA,02266B,00C4A5,$GPRMC,100751,A,5442.9428,N,11318.4574,W,000.0,190.2,220819,017.7,E*65
01DEAA,02266C,00C4A5,$GPRMC,100752,A,5442.9425,N,11318.4577,W,000.0,190.2,220819,017.7,E*68
01DEA8,02266A,00C4A5,$GPRMC,100753,A,5442.9424,N,11318.4575,W,000.0,190.2,220819,017.7,E*6A
01DEA9,02266B,00C4A5,$GPRMC,100754,A,5442.9424,N,11318.4573,W,000.0,190.2,220819,017.7,E*6B
01DEA7,022669,00C4A4,$GPRMC,100755,A,5442.9422,N,11318.4571,W,000.0,190.2,220819,017.7,E*6E
01DEA6,022669,00C4A5,$GPRMC,100756,A,5442.9424,N,11318.4569,W,000.0,190.2,220819,017.7,E*62
01DEA7,02266A,00C4A5,$GPRMC,100757,A,5442.9424,N,11318.4572,W,000.0,190.2,220819,017.7,E*69
01DEA5,022667,00C4A3,$GPRMC,100758,A,5442.9425,N,11318.4575,W,000.0,190.2,220819,017.7,E*60
01DEA3,022665,00C4A2,$GPRMC,100759,A,5442.9428,N,11318.4576,W,000.0,190.2,220819,017.7,E*6F
01DEA5,022669,00C4A4,$GPRMC,100800,A,5442.9431,N,11318.4575,W,000.0,190.2,220819,017.7,E*67
01DEA6,022668,00C4A4,$GPRMC,100801,A,5442.9434,N,11318.4574,W,000.0,190.2,220819,017.7,E*62
01DEA6,02266A,00C4A4,$GPRMC,100802,A,5442.9437,N,11318.4573,W,000.0,190.2,220819,017.7,E*65
01DEA7,02266C,00C4A5,$GPRMC,100803,A,5442.9440,N,11318.4572,W,000.0,190.2,220819,017.7,E*65
01DEA4,022667,00C4A3,$GPRMC,100804,A,5442.9443,N,11318.4575,W,000.0,190.2,220819,017.7,E*66
01DEA2,022664,00C4A1,$GPRMC,100805,A,5442.9446,N,11318.4577,W,000.0,190.2,220819,017.7,E*60
01DEA7,02266D,00C4A5,$GPRMC,100806,A,5442.9449,N,11318.4573,W,000.0,190.2,220819,017.7,E*68
01DEA1,022663,00C4A2,$GPRMC,100807,A,5442.9453,N,11318.4576,W,000.0,190.2,220819,017.7,E*67
01DEA6,02266C,00C4A5,$GPRMC,100808,A,5442.9456,N,11318.4578,W,000.0,190.2,220819,017.7,E*63
01DEA4,022667,00C4A4,$GPRMC,100809,A,5442.9460,N,11318.4580,W,000.0,190.2,220819,017.7,E*60
01DEA3,022667,00C4A3,$GPRMC,100810,A,5442.9464,N,11318.4582,W,000.0,190.2,220819,017.7,E*6E
01DEA3,022665,00C4A3,$GPRMC,100811,A,5442.9467,N,11318.4585,W,000.0,190.2,220819,017.7,E*6B
01DEA5,022669,00C4A4,$GPRMC,100812,A,5442.9470,N,11318.4587,W,000.0,190.2,220819,017.7,E*6C
01DEA5,02266B,00C4A5,$GPRMC,100813,A,5442.9472,N,11318.4589,W,000.0,190.2,220819,017.7,E*61
01DEA4,022667,00C4A4,$GPRMC,100814,A,5442.9473,N,11318.4591,W,000.0,190.2,220819,017.7,E*6E
01DEA4,022667,00C4A4,$GPRMC,100815,A,5442.9474,N,11318.4593,W,000.0,190.2,220819,017.7,E*6A
01DEA4,022669,00C4A4,$GPRMC,100816,A,5442.9475,N,11318.4596,W,000.0,190.2,220819,017.7,E*6D
01DEA2,022664,00C4A3,$GPRMC,100817,A,5442.9477,N,11318.4600,W,000.0,190.2,220819,017.7,E*62
01DEA3,022667,00C4A2,$GPRMC,100818,A,5442.9477,N,11318.4604,W,000.0,190.2,220819,017.7,E*69
01DEA3,022666,00C4A3,$GPRMC,100819,A,5442.9478,N,11318.4608,W,000.0,190.2,220819,017.7,E*6B
01DEA4,022667,00C4A3,$GPRMC,100820,A,5442.9479,N,11318.4612,W,000.0,190.2,220819,017.7,E*6B
01DEA2,022664,00C4A2,$GPRMC,100821,A,5442.9480,N,11318.4617,W,000.0,190.2,220819,017.7,E*69
01DEA5,022669,00C4A5,$GPRMC,100822,A,5442.9481,N,11318.4620,W,000.0,190.2,220819,017.7,E*6F
01DEA6,022668,00C4A4,$GPRMC,100823,A,5442.9481,N,11318.4623,W,000.0,190.2,220819,017.7,E*6D
01DEA3,022665,00C4A3,$GPRMC,100824,A,5442.9481,N,11318.4626,W,000.0,190.2,220819,017.7,E*6F
01DEA7,02266C,00C4A5,$GPRMC,100825,A,5442.9481,N,11318.4630,W,000.0,190.2,220819,017.7,E*69
01DEAB,022671,00C4A7,$GPRMC,100826,A,5442.9480,N,11318.4632,W,000.0,190.2,220819,017.7,E*69
01DEA9,02266E,00C4A5,$GPRMC,100827,A,5442.9479,N,11318.4633,W,000.0,190.2,220819,017.7,E*6F
01DEA9,02266E,00C4A6,$GPRMC,100828,A,5442.9479,N,11318.4634,W,000.0,190.2,220819,017.7,E*67
01DEA9,02266C,00C4A5,$GPRMC,100829,A,5442.9479,N,11318.4636,W,000.0,190.2,220819,017.7,E*64
01DEAA,02266E,00C4A6,$GPRMC,100830,A,5442.9479,N,11318.4638,W,000.0,190.2,220819,017.7,E*62
01DEA9,02266E,00C4A5,$GPRMC,100831,A,5442.9480,N,11318.4638,W,000.0,190.2,220819,017.7,E*65
01DEAB,022672,00C4A7,$GPRMC,100832,A,5442.9483,N,11318.4637,W,000.0,190.2,220819,017.7,E*6A
01DEA7,02266A,00C4A4,$GPRMC,100833,A,5442.9485,N,11318.4636,W,000.0,190.2,220819,017.7,E*6C
01DEA7,02266B,00C4A4,$GPRMC,100834,A,5442.9488,N,11318.4634,W,000.0,190.2,220819,017.7,E*64
01DEAA,02266F,00C4A7,$GPRMC,100835,A,5442.9490,N,11318.4632,W,000.0,190.2,220819,017.7,E*6A
01DEA8,02266C,00C4A5,$GPRMC,100836,A,5442.9491,N,11318.4630,W,000.0,190.2,220819,017.7,E*6A
01DEA8,02266C,00C4A5,$GPRMC,100837,A,5442.9492,N,11318.4628,W,000.0,190.2,220819,017.7,E*61
01DEA9,02266F,00C4A7,$GPRMC,100838,A,5442.9491,N,11318.4627,W,000.0,190.2,220819,017.7,E*62
01DEA7,02266B,00C4A5,$GPRMC,100839,A,5442.9489,N,11318.4625,W,000.0,190.2,220819,017.7,E*68
01DEA7,02266B,00C4A4,$GPRMC,100840,A,5442.9486,N,11318.4624,W,000.0,190.2,220819,017.7,E*68
01DEAB,022672,00C4A7,$GPRMC,100841,A,5442.9483,N,11318.4623,W,000.0,190.2,220819,017.7,E*6B
01DEA7,02266D,00C4A5,$GPRMC,100842,A,5442.9480,N,11318.4623,W,000.0,190.2,220819,017.7,E*6B
01DEA9,02266F,00C4A7,$GPRMC,100843,A,5442.9476,N,11318.4622,W,000.0,190.2,220819,017.7,E*62
01DEA7,02266B,00C4A4,$GPRMC,100844,A,5442.9477,N,11318.4622,W,000.0,190.2,220819,017.7,E*64
01DEA4,022666,00C4A3,$GPRMC,100845,A,5442.9473,N,11318.4621,W,000.0,190.2,220819,017.7,E*62
01DEA6,02266B,00C4A5,$GPRMC,100846,A,5442.9468,N,11318.4621,W,000.0,190.2,220819,017.7,E*6B
01DEA6,022669,00C4A4,$GPRMC,100847,A,5442.9465,N,11318.4620,W,000.0,190.2,220819,017.7,E*66
01DEA7,02266D,00C4A5,$GPRMC,100848,A,5442.9461,N,11318.4620,W,000.0,190.2,220819,017.7,E*6D
01DEA7,02266B,00C4A5,$GPRMC,100849,A,5442.9459,N,11318.4619,W,000.0,190.2,220819,017.7,E*6D
01DEA7,02266A,00C4A4,$GPRMC,100850,A,5442.9456,N,11318.4618,W,000.0,190.2,220819,017.7,E*6B
01DEA5,022667,00C4A3,$GPRMC,100851,A,5442.9455,N,11318.4618,W,000.0,190.2,220819,017.7,E*69
01DEA5,022668,00C4A3,$GPRMC,100852,A,5442.9454,N,11318.4617,W,000.0,190.2,220819,017.7,E*64
01DEA5,022668,00C4A3,$GPRMC,100853,A,5442.9453,N,11318.4617,W,000.0,190.2,220819,017.7,E*62
01DEA9,022670,00C4A6,$GPRMC,100854,A,5442.9452,N,11318.4616,W,000.0,190.2,220819,017.7,E*65
01DEA1,022663,00C4A2,$GPRMC,100855,A,5442.9451,N,11318.4616,W,000.0,190.2,220819,017.7,E*67
01DEA4,022667,00C4A3,$GPRMC,100856,A,5442.9451,N,11318.4616,W,000.0,190.2,220819,017.7,E*64
01DEA7,02266D,00C4A5,$GPRMC,100857,A,5442.9450,N,11318.4616,W,000.0,190.2,220819,017.7,E*64
01DEA8,02266E,00C4A6,$GPRMC,100858,A,5442.9450,N,11318.4617,W,000.0,190.2,220819,017.7,E*6A
01DEA7,02266B,00C4A5,$GPRMC,100859,A,5442.9450,N,11318.4618,W,000.0,190.2,220819,017.7,E*64
01DEA9,022670,00C4A6,$GPRMC,100900,A,5442.9448,N,11318.4620,W,000.0,190.2,220819,017.7,E*6B
01DEA7,02266C,00C4A5,$GPRMC,100901,A,5442.9445,N,11318.4623,W,000.0,190.2,220819,017.7,E*64
01DEA7,02266C,00C4A5,$GPRMC,100902,A,5442.9445,N,11318.4623,W,000.0,190.2,220819,017.7,E*67
01DEA6,02266B,00C4A4,$GPRMC,100903,A,5442.9444,N,11318.4623,W,000.0,190.2,220819,017.7,E*67
01DEA6,02266C,00C4A4,$GPRMC,100904,A,5442.9442,N,11318.4624,W,000.0,190.2,220819,017.7,E*61
01DEA5,022669,00C4A3,$GPRMC,100905,A,5442.9439,N,11318.4624,W,000.0,190.2,220819,017.7,E*6C
01DEA6,02266A,00C4A4,$GPRMC,100906,A,5442.9437,N,11318.4624,W,000.0,190.2,220819,017.7,E*61
01DEA4,022668,00C4A3,$GPRMC,100907,A,5442.9435,N,11318.4623,W,000.0,190.2,220819,017.7,E*65
01DEA5,022668,00C4A4,$GPRMC,100908,A,5442.9433,N,11318.4623,W,000.0,190.2,220819,017.7,E*6C
01DEA5,022669,00C4A4,$GPRMC,100909,A,5442.9433,N,11318.4623,W,000.0,190.2,220819,017.7,E*6D
01DEAA,022671,00C4A7,$GPRMC,100910,A,5442.9433,N,11318.4622,W,000.0,190.2,220819,017.7,E*64
01DEA6,02266A,00C4A4,$GPRMC,100911,A,5442.9433,N,11318.4622,W,000.0,190.2,220819,017.7,E*65
01DEAA,022671,00C4A7,$GPRMC,100912,A,5442.9434,N,11318.4623,W,000.0,190.2,220819,017.7,E*60
01DEA7,02266A,00C4A5,$GPRMC,100913,A,5442.9436,N,11318.4622,W,000.0,190.2,220819,017.7,E*62
01DEAB,022673,00C4A7,$GPRMC,100914,A,5442.9437,N,11318.4623,W,000.0,190.2,220819,017.7,E*65
01DEA8,02266B,00C4A5,$GPRMC,100915,A,5442.9438,N,11318.4623,W,000.0,190.2,220819,017.7,E*6B
01DEA9,02266D,00C4A5,$GPRMC,100916,A,5442.9439,N,11318.4624,W,000.0,190.2,220819,017.7,E*6E
01DEA9,02266F,00C4A5,$GPRMC,100917,A,5442.9440,N,11318.4625,W,000.0,190.2,220819,017.7,E*60
01DEA9,02266E,00C4A5,$GPRMC,100918,A,5442.9440,N,11318.4625,W,000.0,190.2,220819,017.7,E*6F
01DEA8,02266C,00C4A4,$GPRMC,100919,A,5442.9440,N,11318.4624,W,000.0,190.2,220819,017.7,E*6F
01DEA5,022669,00C4A2,$GPRMC,100920,A,5442.9440,N,11318.4623,W,000.0,190.2,220819,017.7,E*62
01DEA8,02266D,00C4A5,$GPRMC,100921,A,5442.9439,N,11318.4623,W,000.0,190.2,220819,017.7,E*6D
01DEA8,02266C,00C4A5,$GPRMC,100922,A,5442.9438,N,11318.4622,W,000.0,190.2,220819,017.7,E*6E
01DEA3,022664,00C4A2,$GPRMC,100923,A,5442.9437,N,11318.4622,W,000.0,190.2,220819,017.7,E*60
01DEA6,022669,00C4A3,$GPRMC,100924,A,5442.9436,N,11318.4622,W,000.0,190.2,220819,017.7,E*66
01DEA4,022667,00C4A1,$GPRMC,100925,A,5442.9436,N,11318.4621,W,000.0,190.2,220819,017.7,E*64
01DEA5,022668,00C4A2,$GPRMC,100926,A,5442.9437,N,11318.4622,W,000.0,190.2,220819,017.7,E*65
01DEA4,022667,00C4A2,$GPRMC,100927,A,5442.9437,N,11318.4622,W,000.0,190.2,220819,017.7,E*64
01DEA7,02266A,00C4A4,$GPRMC,100928,A,5442.9435,N,11318.4621,W,000.0,190.2,220819,017.7,E*6A
01DEA7,02266A,00C4A3,$GPRMC,100929,A,5442.9434,N,11318.4620,W,000.0,190.2,220819,017.7,E*6B
01DEA4,022666,00C4A1,$GPRMC,100930,A,5442.9432,N,11318.4620,W,000.0,190.2,220819,017.7,E*65
01DEAC,022673,00C4A6,$GPRMC,100931,A,5442.9431,N,11318.4620,W,000.0,190.2,220819,017.7,E*67
01DEA5,022667,00C4A2,$GPRMC,100932,A,5442.9430,N,11318.4620,W,000.0,190.2,220819,017.7,E*65
01DEA6,022669,00C4A2,$GPRMC,100933,A,5442.9428,N,11318.4620,W,000.0,190.2,220819,017.7,E*6D
01DEA5,022667,00C4A2,$GPRMC,100934,A,5442.9429,N,11318.4621,W,000.0,190.2,220819,017.7,E*6A
01DEAB,022670,00C4A6,$GPRMC,100935,A,5442.9429,N,11318.4622,W,000.0,190.2,220819,017.7,E*68
01DEA4,022667,00C4A2,$GPRMC,100936,A,5442.9427,N,11318.4624,W,000.0,190.2,220819,017.7,E*63
01DEA8,02266C,00C4A4,$GPRMC,100937,A,5442.9428,N,11318.4625,W,000.0,190.2,220819,017.7,E*6C
01DEA2,022663,00C4A0,$GPRMC,100938,A,5442.9428,N,11318.4627,W,000.0,190.2,220819,017.7,E*61
01DEA4,022667,00C4A1,$GPRMC,100939,A,5442.9425,N,11318.4630,W,000.0,190.2,220819,017.7,E*6B
01DEA4,022665,00C4A2,$GPRMC,100940,A,5442.9420,N,11318.4633,W,000.0,190.2,220819,017.7,E*63
01DEA4,022665,00C4A2,$GPRMC,100941,A,5442.9417,N,11318.4635,W,000.0,190.2,220819,017.7,E*60
01DEA5,022667,00C4A2,$GPRMC,100942,A,5442.9415,N,11318.4637,W,000.0,190.2,220819,017.7,E*63
01DEA7,022669,00C4A3,$GPRMC,100943,A,5442.9414,N,11318.4639,W,000.0,190.2,220819,017.7,E*6D
01DEA4,022666,00C4A2,$GPRMC,100944,A,5442.9413,N,11318.4640,W,000.0,190.2,220819,017.7,E*63
01DEA6,022667,00C4A2,$GPRMC,100945,A,5442.9412,N,11318.4641,W,000.0,190.2,220819,017.7,E*62
01DEA6,022669,00C4A2,$GPRMC,100946,A,5442.9411,N,11318.4642,W,000.0,190.2,220819,017.7,E*61
01DEAD,022672,00C4A7,$GPRMC,100947,A,5442.9410,N,11318.4642,W,000.0,190.2,220819,017.7,E*61
01DEA5,022667,00C4A3,$GPRMC,100948,A,5442.9410,N,11318.4642,W,000.0,190.2,220819,017.7,E*6E
01DEA9,02266E,00C4A5,$GPRMC,100949,A,5442.9408,N,11318.4643,W,000.0,190.2,220819,017.7,E*67
01DEA8,02266B,00C4A4,$GPRMC,100950,A,5442.9407,N,11318.4644,W,000.0,190.2,220819,017.7,E*67
01DEAA,02266F,00C4A6,$GPRMC,100951,A,5442.9405,N,11318.4644,W,000.0,190.2,220819,017.7,E*64
01DEA7,02266A,00C4A3,$GPRMC,100952,A,5442.9405,N,11318.4644,W,000.0,190.2,220819,017.7,E*67
01DEA9,02266D,00C4A4,$GPRMC,100953,A,5442.9404,N,11318.4646,W,000.0,190.2,220819,017.7,E*65
01DEA8,02266C,00C4A4,$GPRMC,100954,A,5442.9403,N,11318.4647,W,000.0,190.2,220819,017.7,E*64
01DEA8,02266B,00C4A4,$GPRMC,100955,A,5442.9404,N,11318.4647,W,000.0,190.2,220819,017.7,E*62
01DEA7,02266B,00C4A3,$GPRMC,100956,A,5442.9404,N,11318.4647,W,000.0,190.2,220819,017.7,E*61
01DEA9,02266D,00C4A4,$GPRMC,100957,A,5442.9405,N,11318.4647,W,000.0,190.2,220819,017.7,E*61
01DEA6,022668,00C4A3,$GPRMC,100958,A,5442.9406,N,11318.4647,W,000.0,190.2,220819,017.7,E*6D
01DEA9,02266C,00C4A4,$GPRMC,100959,A,5442.9405,N,11318.4647,W,000.0,190.2,220819,017.7,E*6F
01DEA9,02266B,00C4A3,$GPRMC,101000,A,5442.9405,N,11318.4647,W,000.0,190.2,220819,017.7,E*6B
01DEAA,02266D,00C4A4,$GPRMC,101001,A,5442.9405,N,11318.4647,W,000.0,190.2,220819,017.7,E*6A
01DEA9,02266A,00C4A3,$GPRMC,101002,A,5442.9404,N,11318.4647,W,000.0,190.2,220819,017.7,E*68
01DEAD,022670,00C4A7,$GPRMC,101003,A,5442.9403,N,11318.4647,W,000.0,190.2,220819,017.7,E*6E
01DEAA,02266C,00C4A5,$GPRMC,101004,A,5442.9403,N,11318.4647,W,000.0,190.2,220819,017.7,E*69
01DEAC,02266E,00C4A5,$GPRMC,101005,A,5442.9402,N,11318.4647,W,000.0,190.2,220819,017.7,E*69
01DEA7,02266A,00C4A3,$GPRMC,101006,A,5442.9403,N,11318.4645,W,000.0,190.2,220819,017.7,E*69
01DEA9,02266C,00C4A4,$GPRMC,101007,A,5442.9402,N,11318.4645,W,000.0,190.2,220819,017.7,E*69
01DEA9,02266B,00C4A4,$GPRMC,101008,A,5442.9401,N,11318.4644,W,000.0,190.2,220819,017.7,E*64
01DEAC,022670,00C4A6,$GPRMC,101009,A,5442.9401,N,11318.4644,W,000.0,190.2,220819,017.7,E*65
01DEA8,02266B,00C4A4,$GPRMC,101010,A,5442.9400,N,11318.4643,W,000.0,190.2,220819,017.7,E*6B
01DEAA,02266C,00C4A4,$GPRMC,101011,A,5442.9400,N,11318.4642,W,000.0,190.2,220819,017.7,E*6B
01DEA9,02266C,00C4A4,$GPRMC,101012,A,5442.9399,N,11318.4641,W,000.0,190.2,220819,017.7,E*6C
01DEA8,02266A,00C4A3,$GPRMC,101013,A,5442.9398,N,11318.4640,W,000.0,190.2,220819,017.7,E*6D
01DEAA,02266D,00C4A4,$GPRMC,101014,A,5442.9398,N,11318.4639,W,000.0,190.2,220819,017.7,E*64
01DEAB,02266E,00C4A4,$GPRMC,101015,A,5442.9397,N,11318.4638,W,000.0,190.2,220819,017.7,E*6B
01DEAA,02266D,00C4A4,$GPRMC,101016,A,5442.9397,N,11318.4637,W,000.0,190.2,220819,017.7,E*67
01DEA9,02266D,00C4A4,$GPRMC,101017,A,5442.9396,N,11318.4636,W,000.0,190.2,220819,017.7,E*66
01DEAA,02266C,00C4A4,$GPRMC,101018,A,5442.9396,N,11318.4635,W,000.0,190.2,220819,017.7,E*6A
01DEAA,02266D,00C4A5,$GPRMC,101019,A,5442.9396,N,11318.4634,W,000.0,190.2,220819,017.7,E*6A
01DEA9,02266B,00C4A4,$GPRMC,101020,A,5442.9395,N,11318.4633,W,000.0,190.2,220819,017.7,E*64
01DEAA,02266E,00C4A4,$GPRMC,101021,A,5442.9395,N,11318.4633,W,000.0,190.2,220819,017.7,E*65
01DEAA,02266C,00C4A3,$GPRMC,101022,A,5442.9395,N,11318.4633,W,000.0,190.2,220819,017.7,E*66
01DEAB,02266D,00C4A4,$GPRMC,101023,A,5442.9395,N,11318.4633,W,000.0,190.2,220819,017.7,E*67
01DEAA,02266B,00C4A4,$GPRMC,101024,A,5442.9396,N,11318.4633,W,000.0,190.2,220819,017.7,E*63
01DEAB,02266F,00C4A5,$GPRMC,101025,A,5442.9396,N,11318.4634,W,000.0,190.2,220819,017.7,E*65
01DEAB,02266E,00C4A5,$GPRMC,101026,A,5442.9397,N,11318.4634,W,000.0,190.2,220819,017.7,E*67
01DEAA,02266C,00C4A3,$GPRMC,101027,A,5442.9397,N,11318.4636,W,000.0,190.2,220819,017.7,E*64
01DEAB,02266C,00C4A4,$GPRMC,101028,A,5442.9399,N,11318.4637,W,000.0,190.2,220819,017.7,E*64
01DEAB,02266D,00C4A4,$GPRMC,101029,A,5442.9400,N,11318.4639,W,000.0,190.2,220819,017.7,E*6C
01DEA8,022669,00C4A2,$GPRMC,101030,A,5442.9401,N,11318.4641,W,000.0,190.2,220819,017.7,E*6A
01DEAA,02266C,00C4A4,$GPRMC,101031,A,5442.9403,N,11318.4642,W,000.0,190.2,220819,017.7,E*6A
01DEA9,02266A,00C4A3,$GPRMC,101032,A,5442.9404,N,11318.4644,W,000.0,190.2,220819,017.7,E*68
01DEAC,02266E,00C4A5,$GPRMC,101033,A,5442.9406,N,11318.4646,W,000.0,190.2,220819,017.7,E*69
01DEA9,02266B,00C4A3,$GPRMC,101034,A,5442.9407,N,11318.4648,W,000.0,190.2,220819,017.7,E*61
01DEAC,022670,00C4A5,$GPRMC,101035,A,5442.9408,N,11318.4650,W,000.0,190.2,220819,017.7,E*66
01DEAA,02266B,00C4A3,$GPRMC,101036,A,5442.9413,N,11318.4647,W,000.0,190.2,220819,017.7,E*69
01DEAC,02266F,00C4A4,$GPRMC,101037,A,5442.9414,N,11318.4648,W,000.0,190.2,220819,017.7,E*60
01DEAC,02266F,00C4A4,$GPRMC,101038,A,5442.9415,N,11318.4648,W,000.0,190.2,220819,017.7,E*6E
01DEAD,022670,00C4A4,$GPRMC,101039,A,5442.9417,N,11318.4648,W,000.0,190.2,220819,017.7,E*6D
01DEAC,02266F,00C4A4,$GPRMC,101040,A,5442.9418,N,11318.4648,W,000.0,190.2,220819,017.7,E*6C
01DEAB,022670,00C4A4,$GPRMC,101041,A,5442.9420,N,11318.4648,W,000.0,190.2,220819,017.7,E*66
01DEAA,02266C,00C4A3,$GPRMC,101042,A,5442.9421,N,11318.4648,W,000.0,190.2,220819,017.7,E*64
01DEA9,02266C,00C4A3,$GPRMC,101043,A,5442.9423,N,11318.4649,W,000.0,190.2,220819,017.7,E*66
01DEAB,02266C,00C4A3,$GPRMC,101044,A,5442.9425,N,11318.4649,W,000.0,190.2,220819,017.7,E*67
01DEAA,02266D,00C4A3,$GPRMC,101045,A,5442.9427,N,11318.4651,W,000.0,190.2,220819,017.7,E*6D
01DEAC,02266F,00C4A4,$GPRMC,101046,A,5442.9430,N,11318.4652,W,000.0,190.2,220819,017.7,E*6B
