,A,5442.9393,N,11318.4641,W,000.0,185.7,220819,017.7,E*66
01DE63,02262E,00C4A6,$GPRMC,085954,A,5442.9392,N,11318.4639,W,000.0,185.7,220819,017.7,E*6F
01DE62,02262E,00C4A6,$GPRMC,085955,A,5442.9392,N,11318.4638,W,000.0,185.7,220819,017.7,E*6F
01DE62,02262E,00C4A5,$GPRMC,085956,A,5442.9392,N,11318.4636,W,000.0,185.7,220819,017.7,E*62
01DE5F,02262A,00C4A4,$GPRMC,085957,A,5442.9392,N,11318.4635,W,000.0,185.7,220819,017.7,E*60
01DE64,022631,00C4A7,$GPRMC,085958,A,5442.9393,N,11318.4633,W,000.0,185.7,220819,017.7,E*68
01DE61,02262C,00C4A5,$GPRMC,085959,A,5442.9389,N,11318.4630,W,000.0,185.7,220819,017.7,E*61
01DE5F,022629,00C4A4,$GPRMC,090000,A,5442.9386,N,11318.4626,W,000.0,185.7,220819,017.7,E*68
01DE61,02262D,00C4A6,$GPRMC,090001,A,5442.9383,N,11318.4625,W,000.0,185.7,220819,017.7,E*6F
01DE60,02262E,00C4A5,$GPRMC,090002,A,5442.9385,N,11318.4623,W,000.0,185.7,220819,017.7,E*6C
01DE5D,022627,00C4A3,$GPRMC,090003,A,5442.9388,N,11318.4626,W,000.0,185.7,220819,017.7,E*65
01DE63,022631,00C4A6,$GPRMC,090004,A,5442.9393,N,11318.4631,W,000.0,185.7,220819,017.7,E*6E
01DE5E,022628,00C4A4,$GPRMC,090005,A,5442.9398,N,11318.4636,W,000.0,185.7,220819,017.7,E*63
01DE62,02262F,00C4A6,$GPRMC,090006,A,5442.9395,N,11318.4632,W,000.0,185.7,220819,017.7,E*69
01DE5E,022628,00C4A3,$GPRMC,090007,A,5442.9393,N,11318.4631,W,000.0,185.7,220819,017.7,E*6D
01DE61,02262D,00C4A6,$GPRMC,090008,A,5442.9394,N,11318.4632,W,000.0,185.7,220819,017.7,E*66
01DE63,022630,00C4A7,$GPRMC,090009,A,5442.9392,N,11318.4631,W,000.0,185.7,220819,017.7,E*62
01DE61,02262D,00C4A6,$GPRMC,090010,A,5442.9389,N,11318.4630,W,000.0,185.7,220819,017.7,E*61
01DE61,02262D,00C4A5,$GPRMC,090011,A,5442.9389,N,11318.4631,W,000.0,185.7,220819,017.7,E*61
01DE61,02262D,00C4A5,$GPRMC,090012,A,5442.9389,N,11318.4631,W,000.0,185.7,220819,017.7,E*62
01DE5F,02262C,00C4A4,$GPRMC,090013,A,5442.9388,N,11318.4632,W,000.0,185.7,220819,017.7,E*61
01DE60,02262D,00C4A5,$GPRMC,090014,A,5442.9387,N,11318.4630,W,000.0,185.7,220819,017.7,E*6B
01DE5D,022627,00C4A3,$GPRMC,090015,A,5442.9385,N,11318.4628,W,000.0,185.7,220819,017.7,E*61
01DE61,02262F,00C4A6,$GPRMC,090016,A,5442.9385,N,11318.4627,W,000.0,185.7,220819,017.7,E*6D
01DE5E,02262A,00C4A4,$GPRMC,090017,A,5442.9382,N,11318.4623,W,000.0,185.7,220819,017.7,E*6F
01DE5C,022628,00C4A3,$GPRMC,090018,A,5442.9380,N,11318.4619,W,000.0,185.7,220819,017.7,E*6B
01DE5D,022629,00C4A4,$GPRMC,090019,A,5442.9378,N,11318.4614,W,000.0,185.7,220819,017.7,E*60
01DE63,022632,00C4A7,$GPRMC,090020,A,5442.9375,N,11318.4610,W,000.0,185.7,220819,017.7,E*63
01DE5B,022625,00C4A2,$GPRMC,090021,A,5442.9372,N,11318.4604,W,000.0,185.7,220819,017.7,E*60
01DE62,022630,00C4A7,$GPRMC,090022,A,5442.9368,N,11318.4596,W,000.0,185.7,220819,017.7,E*60
01DE5D,022629,00C4A4,$GPRMC,090023,A,5442.9364,N,11318.4590,W,000.0,185.7,220819,017.7,E*6B
01DE5D,02262A,00C4A4,$GPRMC,090024,A,5442.9362,N,11318.4586,W,000.0,185.7,220819,017.7,E*6D
01DE5A,022625,00C4A2,$GPRMC,090025,A,5442.9359,N,11318.4583,W,000.0,185.7,220819,017.7,E*61
01DE60,02262F,00C4A6,$GPRMC,090026,A,5442.9358,N,11318.4580,W,000.0,185.7,220819,017.7,E*60
01DE5D,022628,00C4A4,$GPRMC,090027,A,5442.9361,N,11318.4584,W,000.0,185.7,220819,017.7,E*6F
01DE5D,022629,00C4A3,$GPRMC,090028,A,5442.9359,N,11318.4581,W,000.0,185.7,220819,017.7,E*6E
01DE5F,02262E,00C4A5,$GPRMC,090029,A,5442.9359,N,11318.4582,W,000.0,185.7,220819,017.7,E*6C
01DE60,02262E,00C4A6,$GPRMC,090030,A,5442.9358,N,11318.4581,W,000.0,185.7,220819,017.7,E*66
01DE5C,022629,00C4A3,$GPRMC,090031,A,5442.9356,N,11318.4580,W,000.0,185.7,220819,017.7,E*68
01DE5B,022628,00C4A3,$GPRMC,090032,A,5442.9359,N,11318.4583,W,000.0,185.7,220819,017.7,E*67
01DE5B,022627,00C4A3,$GPRMC,090033,A,5442.9357,N,11318.4582,W,000.0,185.7,220819,017.7,E*69
01DE61,02262E,00C4A6,$GPRMC,090034,A,5442.9356,N,11318.4580,W,000.0,185.7,220819,017.7,E*6D
01DE5E,02262A,00C4A3,$GPRMC,090035,A,5442.9353,N,11318.4578,W,000.0,185.7,220819,017.7,E*6E
01DE5F,02262C,00C4A4,$GPRMC,090036,A,5442.9350,N,11318.4575,W,000.0,185.7,220819,017.7,E*63
01DE5E,02262C,00C4A4,$GPRMC,090037,A,5442.9348,N,11318.4573,W,000.0,185.7,220819,017.7,E*6D
01DE62,022630,00C4A6,$GPRMC,090038,A,5442.9349,N,11318.4575,W,000.0,185.7,220819,017.7,E*65
01DE5E,02262A,00C4A3,$GPRMC,090039,A,5442.9349,N,11318.4576,W,000.0,185.7,220819,017.7,E*67
01DE5F,02262C,00C4A4,$GPRMC,090040,A,5442.9349,N,11318.4576,W,000.0,185.7,220819,017.7,E*69
01DE5F,02262C,00C4A4,$GPRMC,090041,A,5442.9350,N,11318.4578,W,000.0,185.7,220819,017.7,E*6E
01DE60,02262E,00C4A4,$GPRMC,090042,A,5442.9351,N,11318.4579,W,000.0,185.7,220819,017.7,E*6D
01DE5D,022629,00C4A2,$GPRMC,090043,A,5442.9351,N,11318.4579,W,000.0,185.7,220819,017.7,E*6C
01DE61,02262E,00C4A5,$GPRMC,090044,A,5442.9352,N,11318.4581,W,000.0,185.7,220819,017.7,E*6F
01DE62,022631,00C4A5,$GPRMC,090045,A,5442.9353,N,11318.4581,W,000.0,185.7,220819,017.7,E*6F
01DE60,02262D,00C4A4,$GPRMC,090046,A,5442.9355,N,11318.4583,W,000.0,185.7,220819,017.7,E*68
01DE5F,02262E,00C4A5,$GPRMC,090047,A,5442.9355,N,11318.4583,W,000.0,185.7,220819,017.7,E*69
01DE63,022633,00C4A7,$GPRMC,090048,A,5442.9355,N,11318.4583,W,000.0,185.7,220819,017.7,E*66
01DE5D,02262A,00C4A3,$GPRMC,090049,A,5442.9350,N,11318.4578,W,000.0,185.7,220819,017.7,E*66
01DE63,022631,00C4A7,$GPRMC,090050,A,5442.9346,N,11318.4574,W,000.0,185.7,220819,017.7,E*65
01DE60,02262E,00C4A4,$GPRMC,090051,A,5442.9345,N,11318.4574,W,000.0,185.7,220819,017.7,E*67
01DE62,022632,00C4A5,$GPRMC,090052,A,5442.9339,N,11318.4569,W,000.0,185.7,220819,017.7,E*63
01DE63,022634,00C4A7,$GPRMC,090053,A,5442.9334,N,11318.4565,W,000.0,185.7,220819,017.7,E*63
01DE62,022631,00C4A5,$GPRMC,090054,A,5442.9329,N,11318.4561,W,000.0,185.7,220819,017.7,E*6C
01DE61,022630,00C4A4,$GPRMC,090055,A,5442.9325,N,11318.4558,W,000.0,185.7,220819,017.7,E*6B
01DE5F,02262C,00C4A3,$GPRMC,090056,A,5442.9333,N,11318.4566,W,000.0,185.7,220819,017.7,E*62
01DE5D,02262D,00C4A3,$GPRMC,090057,A,5442.9334,N,11318.4569,W,000.0,185.7,220819,017.7,E*6B
01DE5E,02262D,00C4A4,$GPRMC,090058,A,5442.9335,N,11318.4572,W,000.0,185.7,220819,017.7,E*6F
01DE60,022630,00C4A5,$GPRMC,090059,A,5442.9336,N,11318.4575,W,000.0,185.7,220819,017.7,E*6A
01DE60,022630,00C4A4,$GPRMC,090100,A,5442.9337,N,11318.4577,W,000.0,185.7,220819,017.7,E*64
01DE5F,022630,00C4A4,$GPRMC,090101,A,5442.9337,N,11318.4578,W,000.0,185.7,220819,017.7,E*6A
01DE62,022634,00C4A6,$GPRMC,090102,A,5442.9336,N,11318.4579,W,000.0,185.7,220819,017.7,E*69
01DE62,022634,00C4A6,$GPRMC,090103,A,5442.9335,N,11318.4579,W,000.0,185.7,220819,017.7,E*6B
01DE60,022630,00C4A4,$GPRMC,090104,A,5442.9331,N,11318.4574,W,000.0,185.7,220819,017.7,E*65
01DE62,022635,00C4A6,$GPRMC,090105,A,5442.9327,N,11318.4570,W,000.0,185.7,220819,017.7,E*67
01DE5B,022629,00C4A1,$GPRMC,090106,A,5442.9324,N,11318.4565,W,000.0,185.7,220819,017.7,E*63
01DE60,022630,00C4A4,$GPRMC,090107,A,5442.9324,N,11318.4566,W,000.0,185.7,220819,017.7,E*61
01DE63,022635,00C4A7,$GPRMC,090108,A,5442.9321,N,11318.4562,W,000.0,185.7,220819,017.7,E*6F
01DE61,022633,00C4A5,$GPRMC,090109,A,5442.9317,N,11318.4558,W,000.0,185.7,220819,017.7,E*62
01DE60,022631,00C4A4,$GPRMC,090110,A,5442.9325,N,11318.4567,W,000.0,185.7,220819,017.7,E*67
01DE5F,02262F,00C4A3,$GPRMC,090111,A,5442.9326,N,11318.4568,W,000.0,185.7,220819,017.7,E*6A
01DE5D,02262E,00C4A3,$GPRMC,090112,A,5442.9328,N,11318.4570,W,000.0,185.7,220819,017.7,E*6E
01DE5D,02262E,00C4A3,$GPRMC,090113,A,5442.9328,N,11318.4570,W,000.0,185.7,220819,017.7,E*6F
01DE63,022638,00C4A7,$GPRMC,090114,A,5442.9328,N,11318.4570,W,000.0,185.7,220819,017.7,E*68
01DE5C,02262B,00C4A2,$GPRMC,090115,A,5442.9336,N,11318.4579,W,000.0,185.7,220819,017.7,E*6F
01DE62,022636,00C4A7,$GPRMC,090116,A,5442.9337,N,11318.4585,W,000.0,185.7,220819,017.7,E*6E
01DE65,02263A,00C4A8,$GPRMC,090117,A,5442.9335,N,11318.4589,W,000.0,185.7,220819,017.7,E*61
01DE61,022634,00C4A5,$GPRMC,090118,A,5442.9337,N,11318.4593,W,000.0,185.7,220819,017.7,E*67
01DE62,022633,00C4A5,$GPRMC,090119,A,5442.9338,N,11318.4597,W,000.0,185.7,220819,017.7,E*6D
01DE64,022637,00C4A7,$GPRMC,090120,A,5442.9338,N,11318.4600,W,000.0,185.7,220819,017.7,E*6A
01DE63,022635,00C4A7,$GPRMC,090121,A,5442.9339,N,11318.4603,W,000.0,185.7,220819,017.7,E*69
01DE62,022635,00C4A6,$GPRMC,090122,A,5442.9340,N,11318.4606,W,000.0,185.7,220819,017.7,E*61
01DE64,022639,00C4A7,$GPRMC,090123,A,5442.9341,N,11318.4609,W,000.0,185.7,220819,017.7,E*6E
01DE63,022635,00C4A6,$GPRMC,090124,A,5442.9341,N,11318.4611,W,000.0,185.7,220819,017.7,E*60
01DE64,022638,00C4A7,$GPRMC,090125,A,5442.9341,N,11318.4612,W,000.0,185.7,220819,017.7,E*62
01DE5F,02262F,00C4A3,$GPRMC,090126,A,5442.9346,N,11318.4616,W,000.0,185.7,220819,017.7,E*62
01DE65,022639,00C4A7,$GPRMC,090127,A,5442.9346,N,11318.4617,W,000.0,185.7,220819,017.7,E*62
01DE5F,02262F,00C4A3,$GPRMC,090128,A,5442.9346,N,11318.4619,W,000.0,185.7,220819,017.7,E*63
01DE5E,02262E,00C4A3,$GPRMC,090129,A,5442.9342,N,11318.4617,W,000.0,185.7,220819,017.7,E*68
01DE65,022639,00C4A7,$GPRMC,090130,A,5442.9340,N,11318.4617,W,000.0,185.7,220819,017.7,E*62
01DE63,022635,00C4A6,$GPRMC,090131,A,5442.9340,N,11318.4618,W,000.0,185.7,220819,017.7,E*6C
01DE63,022637,00C4A6,$GPRMC,090132,A,5442.9340,N,11318.4618,W,000.0,185.7,220819,017.7,E*6F
01DE64,022638,00C4A6,$GPRMC,090133,A,5442.9339,N,11318.4619,W,000.0,185.7,220819,017.7,E*61
01DE5F,022630,00C4A3,$GPRMC,090134,A,5442.9338,N,11318.4619,W,000.0,185.7,220819,017.7,E*67
01DE65,02263A,00C4A7,$GPRMC,090135,A,5442.9337,N,11318.4619,W,000.0,185.7,220819,017.7,E*69
01DE62,022635,00C4A5,$GPRMC,090136,A,5442.9336,N,11318.4620,W,000.0,185.7,220819,017.7,E*61
01DE64,022638,00C4A6,$GPRMC,090137,A,5442.9336,N,11318.4620,W,000.0,185.7,220819,017.7,E*60
01DE63,022636,00C4A5,$GPRMC,090138,A,5442.9335,N,11318.4620,W,000.0,185.7,220819,017.7,E*6C
01DE5E,022630,00C4A3,$GPRMC,090139,A,5442.9334,N,11318.4620,W,000.0,185.7,220819,017.7,E*6C
01DE64,022639,00C4A6,$GPRMC,090140,A,5442.9334,N,11318.4621,W,000.0,185.7,220819,017.7,E*63
01DE61,022634,00C4A4,$GPRMC,090141,A,5442.9334,N,11318.4622,W,000.0,185.7,220819,017.7,E*61
01DE62,022635,00C4A4,$GPRMC,090142,A,5442.9334,N,11318.4623,W,000.0,185.7,220819,017.7,E*63
01DE60,022633,00C4A4,$GPRMC,090143,A,5442.9332,N,11318.4623,W,000.0,185.7,220819,017.7,E*64
01DE68,02263E,00C4A8,$GPRMC,090144,A,5442.9332,N,11318.4624,W,000.0,185.7,220819,017.7,E*64
01DE63,022637,00C4A5,$GPRMC,090145,A,5442.9330,N,11318.4623,W,000.0,185.7,220819,017.7,E*60
01DE63,022636,00C4A5,$GPRMC,090146,A,5442.9329,N,11318.4622,W,000.0,185.7,220819,017.7,E*6A
01DE64,022639,00C4A7,$GPRMC,090147,A,5442.9328,N,11318.4622,W,000.0,185.7,220819,017.7,E*6A
01DE63,022636,00C4A6,$GPRMC,090148,A,5442.9326,N,11318.4621,W,000.0,185.7,220819,017.7,E*68
01DE65,022638,00C4A6,$GPRMC,090149,A,5442.9324,N,11318.4620,W,000.0,185.7,220819,017.7,E*6A
01DE64,022637,00C4A5,$GPRMC,090150,A,5442.9323,N,11318.4619,W,000.0,185.7,220819,017.7,E*6F
01DE67,02263C,00C4A7,$GPRMC,090151,A,5442.9322,N,11318.4619,W,000.0,185.7,220819,017.7,E*6F
01DE63,022635,00C4A4,$GPRMC,090152,A,5442.9321,N,11318.4619,W,000.0,185.7,220819,017.7,E*6F
01DE62,022635,00C4A4,$GPRMC,090153,A,5442.9320,N,11318.4619,W,000.0,185.7,220819,017.7,E*6F
01DE65,022637,00C4A6,$GPRMC,090154,A,5442.9320,N,11318.4619,W,000.0,185.7,220819,017.7,E*68
01DE63,022635,00C4A5,$GPRMC,090155,A,5442.9318,N,11318.4618,W,000.0,185.7,220819,017.7,E*63
01DE63,022635,00C4A5,$GPRMC,090156,A,5442.9318,N,11318.4618,W,000.0,185.7,220819,017.7,E*60
01DE61,022631,00C4A3,$GPRMC,090157,A,5442.9318,N,11318.4619,W,000.0,185.7,220819,017.7,E*60
01DE62,022633,00C4A3,$GPRMC,090158,A,5442.9318,N,11318.4620,W,000.0,185.7,220819,017.7,E*65
01DE66,022637,00C4A5,$GPRMC,090159,A,5442.9319,N,11318.4621,W,000.0,185.7,220819,017.7,E*64
01DE68,022639,00C4A6,$GPRMC,090200,A,5442.9319,N,11318.4622,W,000.0,185.7,220819,017.7,E*68
01DE67,02263A,00C4A6,$GPRMC,090201,A,5442.9319,N,11318.4623,W,000.0,185.7,220819,017.7,E*68
01DE61,022631,00C4A2,$GPRMC,090202,A,5442.9320,N,11318.4624,W,000.0,185.7,220819,017.7,E*66
01DE64,022634,00C4A4,$GPRMC,090203,A,5442.9323,N,11318.4627,W,000.0,185.7,220819,017.7,E*67
01DE63,022633,00C4A3,$GPRMC,090204,A,5442.9323,N,11318.4628,W,000.0,185.7,220819,017.7,E*6F
01DE67,02263A,00C4A7,$GPRMC,090205,A,5442.9324,N,11318.4629,W,000.0,185.7,220819,017.7,E*68
01DE63,022633,00C4A3,$GPRMC,090206,A,5442.9324,N,11318.4629,W,000.0,185.7,220819,017.7,E*6B
01DE66,022639,00C4A5,$GPRMC,090207,A,5442.9325,N,11318.4630,W,000.0,185.7,220819,017.7,E*63
01DE63,022635,00C4A4,$GPRMC,090208,A,5442.9329,N,11318.4633,W,000.0,185.7,220819,017.7,E*63
01DE61,022632,00C4A3,$GPRMC,090209,A,5442.9329,N,11318.4633,W,000.0,185.7,220819,017.7,E*62
01DE65,022637,00C4A5,$GPRMC,090210,A,5442.9329,N,11318.4632,W,000.0,185.7,220819,017.7,E*6B
01DE63,022635,00C4A4,$GPRMC,090211,A,5442.9330,N,11318.4633,W,000.0,185.7,220819,017.7,E*63
01DE66,022638,00C4A5,$GPRMC,090212,A,5442.9330,N,11318.4633,W,000.0,185.7,220819,017.7,E*60
01DE64,022636,00C4A4,$GPRMC,090213,A,5442.9330,N,11318.4633,W,000.0,185.7,220819,017.7,E*61
01DE64,022638,00C4A5,$GPRMC,090214,A,5442.9331,N,11318.4634,W,000.0,185.7,220819,017.7,E*60
01DE63,022636,00C4A4,$GPRMC,090215,A,5442.9331,N,11318.4634,W,000.0,185.7,220819,017.7,E*61
01DE69,02263E,00C4A8,$GPRMC,090216,A,5442.9334,N,11318.4634,W,000.0,185.7,220819,017.7,E*67
01DE61,022634,00C4A4,$GPRMC,090217,A,5442.9336,N,11318.4635,W,000.0,185.7,220819,017.7,E*65
01DE62,022636,00C4A4,$GPRMC,090218,A,5442.9339,N,11318.4637,W,000.0,185.7,220819,017.7,E*67
01DE63,022635,00C4A4,$GPRMC,090219,A,5442.9341,N,11318.4640,W,000.0,185.7,220819,017.7,E*69
01DE65,02263A,00C4A5,$GPRMC,090220,A,5442.9342,N,11318.4643,W,000.0,185.7,220819,017.7,E*63
01DE62,022635,00C4A4,$GPRMC,090221,A,5442.9345,N,11318.4645,W,000.0,185.7,220819,017.7,E*63
01DE5F,022631,00C4A2,$GPRMC,090222,A,5442.9349,N,11318.4647,W,000.0,185.7,220819,017.7,E*6E
01DE62,022636,00C4A4,$GPRMC,090223,A,5442.9351,N,11318.4649,W,000.0,185.7,220819,017.7,E*68
01DE5D,02262D,00C4A1,$GPRMC,090224,A,5442.9352,N,11318.4650,W,000.0,185.7,220819,017.7,E*64
01DE65,02263A,00C4A6,$GPRMC,090225,A,5442.9353,N,11318.4651,W,000.0,185.7,220819,017.7,E*65
01DE63,022637,00C4A5,$GPRMC,090226,A,5442.9353,N,11318.4651,W,000.0,185.7,220819,017.7,E*66
01DE63,022637,00C4A4,$GPRMC,090227,A,5442.9353,N,11318.4652,W,000.0,185.7,220819,017.7,E*64
01DE65,02263A,00C4A5,$GPRMC,090228,A,5442.9354,N,11318.4654,W,000.0,185.7,220819,017.7,E*6A
01DE64,022637,00C4A4,$GPRMC,090229,A,5442.9357,N,11318.4657,W,000.0,185.7,220819,017.7,E*6B
01DE66,02263A,00C4A6,$GPRMC,090230,A,5442.9357,N,11318.4659,W,000.0,185.7,220819,017.7,E*6D
01DE62,022636,00C4A4,$GPRMC,090231,A,5442.9358,N,11318.4660,W,000.0,185.7,220819,017.7,E*69
01DE69,022640,00C4A9,$GPRMC,090232,A,5442.9358,N,11318.4662,W,000.0,185.7,220819,017.7,E*68
01DE63,022638,00C4A5,$GPRMC,090233,A,5442.9357,N,11318.4661,W,000.0,185.7,220819,017.7,E*65
01DE63,022638,00C4A5,$GPRMC,090234,A,5442.9356,N,11318.4660,W,000.0,185.7,220819,017.7,E*62
01DE64,022639,00C4A5,$GPRMC,090235,A,5442.9355,N,11318.4659,W,000.0,185.7,220819,017.7,E*6A
01DE65,02263A,00C4A6,$GPRMC,090236,A,5442.9356,N,11318.4659,W,000.0,185.7,220819,017.7,E*6A
01DE69,022640,00C4A8,$GPRMC,090237,A,5442.9356,N,11318.4659,W,000.0,185.7,220819,017.7,E*6B
01DE65,02263A,00C4A5,$GPRMC,090238,A,5442.9358,N,11318.4659,W,000.0,185.7,220819,017.7,E*6A
01DE66,02263D,00C4A6,$GPRMC,090239,A,5442.9359,N,11318.4659,W,000.0,185.7,220819,017.7,E*6A
01DE66,02263D,00C4A7,$GPRMC,090240,A,5442.9359,N,11318.4658,W,000.0,185.7,220819,017.7,E*65
01DE64,022639,00C4A5,$GPRMC,090241,A,5442.9358,N,11318.4655,W,000.0,185.7,220819,017.7,E*68
01DE69,022641,00C4A8,$GPRMC,090242,A,5442.9357,N,11318.4653,W,000.0,185.7,220819,017.7,E*62
01DE66,02263A,00C4A5,$GPRMC,090243,A,5442.9358,N,11318.4651,W,000.0,185.7,220819,017.7,E*6E
01DE68,02263E,00C4A6,$GPRMC,090244,A,5442.9358,N,11318.4650,W,000.0,185.7,220819,017.7,E*68
01DE68,02263E,00C4A7,$GPRMC,090245,A,5442.9358,N,11318.4649,W,000.0,185.7,220819,017.7,E*61
01DE68,02263E,00C4A6,$GPRMC,090246,A,5442.9359,N,11318.4649,W,000.0,185.7,220819,017.7,E*63
01DE66,02263B,00C4A5,$GPRMC,090247,A,5442.9359,N,11318.4649,W,000.0,185.7,220819,017.7,E*62
01DE66,02263B,00C4A5,$GPRMC,090248,A,5442.9360,N,11318.4649,W,000.0,185.7,220819,017.7,E*67
01DE67,02263D,00C4A6,$GPRMC,090249,A,5442.9360,N,11318.4649,W,000.0,185.7,220819,017.7,E*66
01DE68,02263F,00C4A7,$GPRMC,090250,A,5442.9359,N,11318.4649,W,000.0,185.7,220819,017.7,E*64
01DE66,02263C,00C4A5,$GPRMC,090251,A,5442.9358,N,11318.4647,W,000.0,185.7,220819,017.7,E*6A
01DE63,022638,00C4A3,$GPRMC,090252,A,5442.9357,N,11318.4647,W,000.0,185.7,220819,017.7,E*66
01DE6A,022642,00C4A8,$GPRMC,090253,A,5442.9356,N,11318.4646,W,000.0,185.7,220819,017.7,E*67
01DE6A,022642,00C4A8,$GPRMC,090254,A,5442.9356,N,11318.4646,W,000.0,185.7,220819,017.7,E*60
01DE66,02263C,00C4A6,$GPRMC,090255,A,5442.9355,N,11318.4646,W,000.0,185.7,220819,017.7,E*62
01DE69,02263F,00C4A7,$GPRMC,090256,A,5442.9355,N,11318.4647,W,000.0,185.7,220819,017.7,E*60
01DE69,022641,00C4A8,$GPRMC,090257,A,5442.9354,N,11318.4646,W,000.0,185.7,220819,017.7,E*61
01DE68,02263D,00C4A6,$GPRMC,090258,A,5442.9356,N,11318.4646,W,000.0,185.7,220819,017.7,E*6C
01DE68,02263E,00C4A6,$GPRMC,090259,A,5442.9358,N,11318.4646,W,000.0,185.7,220819,017.7,E*63
01DE67,02263D,00C4A6,$GPRMC,090300,A,5442.9360,N,11318.4646,W,000.0,185.7,220819,017.7,E*65
01DE6C,022642,00C4A9,$GPRMC,090301,A,5442.9361,N,11318.4646,W,000.0,185.7,220819,017.7,E*65
01DE68,02263D,00C4A6,$GPRMC,090302,A,5442.9360,N,11318.4645,W,000.0,185.7,220819,017.7,E*64
01DE65,022639,00C4A5,$GPRMC,090303,A,5442.9361,N,11318.4645,W,000.0,185.7,220819,017.7,E*64
01DE66,02263D,00C4A5,$GPRMC,090304,A,5442.9361,N,11318.4645,W,000.0,185.7,220819,017.7,E*63
01DE6B,022641,00C4A7,$GPRMC,090305,A,5442.9359,N,11318.4645,W,000.0,185.7,220819,017.7,E*69
01DE65,02263B,00C4A5,$GPRMC,090306,A,5442.9361,N,11318.4651,W,000.0,185.7,220819,017.7,E*64
01DE6B,022641,00C4A8,$GPRMC,090307,A,5442.9363,N,11318.4657,W,000.0,185.7,220819,017.7,E*61
01DE6B,022641,00C4A8,$GPRMC,090308,A,5442.9363,N,11318.4661,W,000.0,185.7,220819,017.7,E*6B
01DE69,02263E,00C4A7,$GPRMC,090309,A,5442.9361,N,11318.4662,W,000.0,185.7,220819,017.7,E*6B
01DE6A,022641,00C4A8,$GPRMC,090310,A,5442.9360,N,11318.4663,W,000.0,185.7,220819,017.7,E*63
01DE68,02263E,00C4A7,$GPRMC,090311,A,5442.9361,N,11318.4664,W,000.0,185.7,220819,017.7,E*64
01DE69,022640,00C4A7,$GPRMC,090312,A,5442.9376,N,11318.4667,W,000.0,185.7,220819,017.7,E*62
01DE68,02263E,00C4A6,$GPRMC,090313,A,5442.9390,N,11318.4671,W,000.0,185.7,220819,017.7,E*6C
01DE6A,022643,00C4A8,$GPRMC,090314,A,5442.9402,N,11318.4675,W,000.0,185.7,220819,017.7,E*63
01DE69,022641,00C4A7,$GPRMC,090315,A,5442.9409,N,11318.4684,W,000.0,185.7,220819,017.7,E*67
01DE67,02263F,00C4A5,$GPRMC,090316,A,5442.9415,N,11318.4693,W,000.0,185.7,220819,017.7,E*6F
01DE64,022639,00C4A3,$GPRMC,090317,A,5442.9416,N,11318.4693,W,000.0,185.7,220819,017.7,E*6D
01DE65,02263C,00C4A4,$GPRMC,090318,A,5442.9418,N,11318.4693,W,000.0,185.7,220819,017.7,E*6C
01DE69,022641,00C4A7,$GPRMC,090319,A,5442.9419,N,11318.4691,W,000.0,185.7,220819,017.7,E*6E
01DE67,022641,00C4A6,$GPRMC,090320,A,5442.9422,N,11318.4692,W,000.0,185.7,220819,017.7,E*6F
01DE69,022642,00C4A6,$GPRMC,090321,A,5442.9423,N,11318.4693,W,000.0,185.7,220819,017.7,E*6E
01DE69,022642,00C4A6,$GPRMC,090322,A,5442.9425,N,11318.4693,W,000.0,185.7,220819,017.7,E*6B
01DE66,02263F,00C4A5,$GPRMC,090323,A,5442.9426,N,11318.4693,W,000.0,185.7,220819,017.7,E*69
01DE64,02263A,00C4A4,$GPRMC,090324,A,5442.9422,N,11318.4693,W,000.0,185.7,220819,017.7,E*6A
01DE67,02263F,00C4A6,$GPRMC,090325,A,5442.9423,N,11318.4692,W,000.0,185.7,220819,017.7,E*6B
01DE69,022645,00C4A7,$GPRMC,090326,A,5442.9425,N,11318.4691,W,000.0,185.7,220819,017.7,E*6D
01DE67,02263F,00C4A5,$GPRMC,090327,A,5442.9425,N,11318.4691,W,000.0,185.7,220819,017.7,E*6C
01DE68,022642,00C4A6,$GPRMC,090328,A,5442.9427,N,11318.4690,W,000.0,185.7,220819,017.7,E*60
01DE69,022641,00C4A6,$GPRMC,090329,A,5442.9428,N,11318.4689,W,000.0,185.7,220819,017.7,E*66
01DE69,022644,00C4A6,$GPRMC,090330,A,5442.9429,N,11318.4688,W,000.0,185.7,220819,017.7,E*6E
01DE69,022643,00C4A6,$GPRMC,090331,A,5442.9429,N,11318.4687,W,000.0,185.7,220819,017.7,E*60
01DE67,022642,00C4A5,$GPRMC,090332,A,5442.9430,N,11318.4685,W,000.0,185.7,220819,017.7,E*69
01DE68,022642,00C4A6,$GPRMC,090333,A,5442.9429,N,11318.4684,W,000.0,185.7,220819,017.7,E*61
01DE68,022644,00C4A6,$GPRMC,090334,A,5442.9429,N,11318.4683,W,000.0,185.7,220819,017.7,E*61
01DE66,022640,00C4A5,$GPRMC,090335,A,5442.9429,N,11318.4682,W,000.0,185.7,220819,017.7,E*61
01DE6A,022647,00C4A8,$GPRMC,090336,A,5442.9429,N,11318.4682,W,000.0,185.7,220819,017.7,E*62
01DE6B,022648,00C4A8,$GPRMC,090337,A,5442.9429,N,11318.4680,W,000.0,185.7,220819,017.7,E*61
01DE69,022644,00C4A6,$GPRMC,090338,A,5442.9429,N,11318.4680,W,000.0,185.7,220819,017.7,E*6E
01DE67,022642,00C4A6,$GPRMC,090339,A,5442.9429,N,11318.4679,W,000.0,185.7,220819,017.7,E*69
01DE69,022646,00C4A6,$GPRMC,090340,A,5442.9429,N,11318.4678,W,000.0,185.7,220819,017.7,E*66
01DE6B,022646,00C4A7,$GPRMC,090341,A,5442.9430,N,11318.4677,W,000.0,185.7,220819,017.7,E*60
01DE65,02263F,00C4A4,$GPRMC,090342,A,5442.9430,N,11318.4676,W,000.0,185.7,220819,017.7,E*62
01DE6C,022648,00C4A8,$GPRMC,090343,A,5442.9431,N,11318.4676,W,000.0,185.7,220819,017.7,E*62
01DE6C,022649,00C4A8,$GPRMC,090344,A,5442.9433,N,11318.4675,W,000.0,185.7,220819,017.7,E*64
01DE68,022645,00C4A6,$GPRMC,090345,A,5442.9433,N,11318.4675,W,000.0,185.7,220819,017.7,E*65
01DE66,022641,00C4A5,$GPRMC,090346,A,5442.9433,N,11318.4675,W,000.0,185.7,220819,017.7,E*66
01DE6A,022647,00C4A7,$GPRMC,090347,A,5442.9434,N,11318.4675,W,000.0,185.7,220819,017.7,E*60
01DE6C,02264A,00C4A9,$GPRMC,090348,A,5442.9434,N,11318.4676,W,000.0,185.7,220819,017.7,E*6C
01DE68,022644,00C4A6,$GPRMC,090349,A,5442.9434,N,11318.4677,W,000.0,185.7,220819,017.7,E*6C
01DE69,022645,00C4A6,$GPRMC,090350,A,5442.9435,N,11318.4679,W,000.0,185.7,220819,017.7,E*6B
01DE67,022642,00C4A5,$GPRMC,090351,A,5442.9436,N,11318.4682,W,000.0,185.7,220819,017.7,E*6D
01DE6C,02264B,00C4A9,$GPRMC,090352,A,5442.9437,N,11318.4684,W,000.0,185.7,220819,017.7,E*69
01DE68,022644,00C4A7,$GPRMC,090353,A,5442.9438,N,11318.4685,W,000.0,185.7,220819,017.7,E*66
01DE69,022647,00C4A7,$GPRMC,090354,A,5442.9439,N,11318.4687,W,000.0,185.7,220819,017.7,E*62
01DE6B,022647,00C4A8,$GPRMC,090355,A,5442.9440,N,11318.4689,W,000.0,185.7,220819,017.7,E*63
01DE6C,02264A,00C4A9,$GPRMC,090356,A,5442.9441,N,11318.4690,W,000.0,185.7,220819,017.7,E*69
01DE65,022640,00C4A4,$GPRMC,090357,A,5442.9442,N,11318.4691,W,000.0,185.7,220819,017.7,E*6A
01DE68,022644,00C4A6,$GPRMC,090358,A,5442.9442,N,11318.4691,W,000.0,185.7,220819,017.7,E*65
01DE69,022646,00C4A6,$GPRMC,090359,A,5442.9442,N,11318.4692,W,000.0,185.7,220819,017.7,E*67
01DE67,022643,00C4A5,$GPRMC,090400,A,5442.9442,N,11318.4692,W,000.0,185.7,220819,017.7,E*6C
01DE66,022642,00C4A5,$GPRMC,090401,A,5442.9442,N,11318.4692,W,000.0,185.7,220819,017.7,E*6D
01DE66,022642,00C4A4,$GPRMC,090402,A,5442.9442,N,11318.4692,W,000.0,185.7,220819,017.7,E*6E
01DE65,022640,00C4A4,$GPRMC,090403,A,5442.9445,N,11318.4686,W,000.0,185.7,220819,017.7,E*6D
01DE66,022642,00C4A5,$GPRMC,090404,A,5442.9452,N,11318.4676,W,000.0,185.7,220819,017.7,E*63
01DE65,022641,00C4A4,$GPRMC,090405,A,5442.9459,N,11318.4664,W,000.0,185.7,220819,017.7,E*6A
01DE69,022647,00C4A7,$GPRMC,090406,A,5442.9465,N,11318.4653,W,000.0,185.7,220819,017.7,E*62
01DE68,022643,00C4A6,$GPRMC,090407,A,5442.9465,N,11318.4642,W,000.0,185.7,220819,017.7,E*63
01DE65,022640,00C4A4,$GPRMC,090408,A,5442.9472,N,11318.4632,W,000.0,185.7,220819,017.7,E*6D
01DE69,022646,00C4A7,$GPRMC,090409,A,5442.9479,N,11318.4623,W,000.0,185.7,220819,017.7,E*67
01DE68,022645,00C4A6,$GPRMC,090410,A,5442.9479,N,11318.4623,W,000.0,185.7,220819,017.7,E*6F
01DE69,022647,00C4A6,$GPRMC,090411,A,5442.9478,N,11318.4619,W,000.0,185.7,220819,017.7,E*66
01DE6A,022648,00C4A7,$GPRMC,090412,A,5442.9477,N,11318.4616,W,000.0,185.7,220819,017.7,E*65
01DE69,022647,00C4A7,$GPRMC,090413,A,5442.9476,N,11318.4613,W,000.0,185.7,220819,017.7,E*60
01DE67,022645,00C4A6,$GPRMC,090414,A,5442.9483,N,11318.4605,W,000.0,185.7,220819,017.7,E*6A
01DE68,022646,00C4A6,$GPRMC,090415,A,5442.9481,N,11318.4603,W,000.0,185.7,220819,017.7,E*6F
01DE6B,02264A,00C4A8,$GPRMC,090416,A,5442.9478,N,11318.4602,W,000.0,185.7,220819,017.7,E*6B
01DE69,022648,00C4A7,$GPRMC,090417,A,5442.9476,N,11318.4601,W,000.0,185.7,220819,017.7,E*67
01DE68,022645,00C4A6,$GPRMC,090418,A,5442.9474,N,11318.4600,W,000.0,185.7,220819,017.7,E*6B
01DE6B,02264B,00C4A8,$GPRMC,090419,A,5442.9472,N,11318.4598,W,000.0,185.7,220819,017.7,E*6E
01DE6C,02264B,00C4A8,$GPRMC,090420,A,5442.9470,N,11318.4597,W,000.0,185.7,220819,017.7,E*69
01DE69,022647,00C4A6,$GPRMC,090421,A,5442.9469,N,11318.4596,W,000.0,185.7,220819,017.7,E*61
01DE69,022648,00C4A7,$GPRMC,090422,A,5442.9467,N,11318.4594,W,000.0,185.7,220819,017.7,E*6E
01DE68,022646,00C4A6,$GPRMC,090423,A,5442.9465,N,11318.4594,W,000.0,185.7,220819,017.7,E*6D
01DE69,022648,00C4A6,$GPRMC,090424,A,5442.9477,N,11318.4584,W,000.0,185.7,220819,017.7,E*68
01DE64,022641,00C4A4,$GPRMC,090425,A,5442.9489,N,11318.4573,W,000.0,185.7,220819,017.7,E*60
01DE67,022643,00C4A5,$GPRMC,090426,A,5442.9501,N,11318.4563,W,000.0,185.7,220819,017.7,E*63
01DE65,022642,00C4A4,$GPRMC,090427,A,5442.9513,N,11318.4553,W,000.0,185.7,220819,017.7,E*62
01DE65,022642,00C4A5,$GPRMC,090428,A,5442.9513,N,11318.4552,W,000.0,185.7,220819,017.7,E*6C
01DE68,022645,00C4A6,$GPRMC,090429,A,5442.9514,N,11318.4552,W,000.0,185.7,220819,017.7,E*6A
01DE66,022643,00C4A4,$GPRMC,090430,A,5442.9514,N,11318.4552,W,000.0,185.7,220819,017.7,E*62
01DE66,022641,00C4A4,$GPRMC,090431,A,5442.9515,N,11318.4552,W,000.0,185.7,220819,017.7,E*62
01DE67,022643,00C4A5,$GPRMC,090432,A,5442.9512,N,11318.4554,W,000.0,185.7,220819,017.7,E*60
01DE6B,02264A,00C4A8,$GPRMC,090433,A,5442.9508,N,11318.4556,W,000.0,185.7,220819,017.7,E*68
01DE68,022646,00C4A5,$GPRMC,090434,A,5442.9504,N,11318.4557,W,000.0,185.7,220819,017.7,E*62
01DE6A,022648,00C4A6,$GPRMC,090435,A,5442.9501,N,11318.4559,W,000.0,185.7,220819,017.7,E*68
01DE69,022645,00C4A6,$GPRMC,090436,A,5442.9498,N,11318.4560,W,000.0,185.7,220819,017.7,E*60
01DE6D,02264C,00C4A8,$GPRMC,090437,A,5442.9496,N,11318.4562,W,000.0,185.7,220819,017.7,E*6D
01DE68,022645,00C4A4,$GPRMC,090438,A,5442.9493,N,11318.4564,W,000.0,185.7,220819,017.7,E*61
01DE6A,022648,00C4A6,$GPRMC,090439,A,5442.9490,N,11318.4567,W,000.0,185.7,220819,017.7,E*60
01DE69,022645,00C4A5,$GPRMC,090440,A,5442.9488,N,11318.4569,W,000.0,185.7,220819,017.7,E*69
01DE6B,02264C,00C4A7,$GPRMC,090441,A,5442.9487,N,11318.4572,W,000.0,185.7,220819,017.7,E*6D
01DE68,022645,00C4A5,$GPRMC,090442,A,5442.9484,N,11318.4575,W,000.0,185.7,220819,017.7,E*6A
01DE6A,022648,00C4A6,$GPRMC,090443,A,5442.9483,N,11318.4577,W,000.0,185.7,220819,017.7,E*6E
01DE65,022642,00C4A4,$GPRMC,090444,A,5442.9481,N,11318.4580,W,000.0,185.7,220819,017.7,E*63
01DE6E,022650,00C4A9,$GPRMC,090445,A,5442.9480,N,11318.4582,W,000.0,185.7,220819,017.7,E*61
01DE68,022644,00C4A5,$GPRMC,090446,A,5442.9478,N,11318.4584,W,000.0,185.7,220819,017.7,E*63
01DE68,022646,00C4A5,$GPRMC,090447,A,5442.9486,N,11318.4579,W,000.0,185.7,220819,017.7,E*61
01DE6A,022649,00C4A6,$GPRMC,090448,A,5442.9486,N,11318.4580,W,000.0,185.7,220819,017.7,E*68
01DE6A,022649,00C4A6,$GPRMC,090449,A,5442.9486,N,11318.4574,W,000.0,185.7,220819,017.7,E*62
01DE65,022641,00C4A3,$GPRMC,090450,A,5442.9485,N,11318.4568,W,000.0,185.7,220819,017.7,E*64
01DE6C,02264D,00C4A7,$GPRMC,090451,A,5442.9485,N,11318.4567,W,000.0,185.7,220819,017.7,E*6A
01DE6A,022648,00C4A5,$GPRMC,090452,A,5442.9485,N,11318.4567,W,000.0,185.7,220819,017.7,E*69
01DE69,022647,00C4A5,$GPRMC,090453,A,5442.9484,N,11318.4568,W,000.0,185.7,220819,017.7,E*66
01DE67,022644,00C4A4,$GPRMC,090454,A,5442.9484,N,11318.4569,W,000.0,185.7,220819,017.7,E*60
01DE6C,02264C,00C4A7,$GPRMC,090455,A,5442.9483,N,11318.4570,W,000.0,185.7,220819,017.7,E*6E
01DE67,022645,00C4A4,$GPRMC,090456,A,5442.9482,N,11318.4573,W,000.0,185.7,220819,017.7,E*6F
01DE6B,02264A,00C4A6,$GPRMC,090457,A,5442.9481,N,11318.4576,W,000.0,185.7,220819,017.7,E*68
01DE69,022648,00C4A6,$GPRMC,090458,A,5442.9481,N,11318.4579,W,000.0,185.7,220819,017.7,E*68
01DE68,022645,00C4A4,$GPRMC,090459,A,5442.9484,N,11318.4579,W,000.0,185.7,220819,017.7,E*6C
01DE6A,022648,00C4A5,$GPRMC,090500,A,5442.9484,N,11318.4582,W,000.0,185.7,220819,017.7,E*65
01DE67,022643,00C4A3,$GPRMC,090501,A,5442.9485,N,11318.4584,W,000.0,185.7,220819,017.7,E*63
01DE67,022644,00C4A3,$GPRMC,090502,A,5442.9485,N,11318.4585,W,000.0,185.7,220819,017.7,E*61
01DE69,022647,00C4A5,$GPRMC,090503,A,5442.9491,N,11318.4583,W,000.0,185.7,220819,017.7,E*63
01DE66,022642,00C4A3,$GPRMC,090504,A,5442.9491,N,11318.4586,W,000.0,185.7,220819,017.7,E*61
01DE69,022647,00C4A5,$GPRMC,090505,A,5442.9497,N,11318.4583,W,000.0,185.7,220819,017.7,E*63
01DE65,022643,00C4A3,$GPRMC,090506,A,5442.9505,N,11318.4579,W,000.0,185.7,220819,017.7,E*6F
01DE64,022641,00C4A2,$GPRMC,090507,A,5442.9513,N,11318.4575,W,000.0,185.7,220819,017.7,E*65
01DE67,022645,00C4A4,$GPRMC,090508,A,5442.9520,N,11318.4571,W,000.0,185.7,220819,017.7,E*6E
01DE64,022641,00C4A2,$GPRMC,090509,A,5442.9528,N,11318.4567,W,000.0,185.7,220819,017.7,E*60
01DE6A,02264A,00C4A6,$GPRMC,090510,A,5442.9529,N,11318.4567,W,000.0,185.7,220819,017.7,E*69
01DE65,022640,00C4A2,$GPRMC,090511,A,5442.9530,N,11318.4568,W,000.0,185.7,220819,017.7,E*6F
01DE6C,02264C,00C4A7,$GPRMC,090512,A,5442.9531,N,11318.4568,W,000.0,185.7,220819,017.7,E*6D
01DE62,02263E,00C4A0,$GPRMC,090513,A,5442.9537,N,11318.4565,W,000.0,185.7,220819,017.7,E*67
01DE6C,02264C,00C4A7,$GPRMC,090514,A,5442.9543,N,11318.4562,W,000.0,185.7,220819,017.7,E*64
01DE67,022644,00C4A4,$GPRMC,090515,A,5442.9548,N,11318.4560,W,000.0,185.7,220819,017.7,E*6C
01DE6F,022650,00C4A8,$GPRMC,090516,A,5442.9549,N,11318.4561,W,000.0,185.7,220819,017.7,E*6F
01DE67,022646,00C4A4,$GPRMC,090517,A,5442.9553,N,11318.4560,W,000.0,185.7,220819,017.7,E*64
01DE6A,022648,00C4A5,$GPRMC,090518,A,5442.9552,N,11318.4559,W,000.0,185.7,220819,017.7,E*60
01DE68,022646,00C4A4,$GPRMC,090519,A,5442.9554,N,11318.4558,W,000.0,185.7,220819,017.7,E*66
01DE68,022647,00C4A4,$GPRMC,090520,A,5442.9555,N,11318.4558,W,000.0,185.7,220819,017.7,E*6D
01DE67,022645,00C4A4,$GPRMC,090521,A,5442.9555,N,11318.4558,W,000.0,185.7,220819,017.7,E*6C
01DE6A,02264B,00C4A6,$GPRMC,090522,A,5442.9555,N,11318.4558,W,000.0,185.7,220819,017.7,E*6F
01DE67,022644,00C4A3,$GPRMC,090523,A,5442.9555,N,11318.4558,W,000.0,185.7,220819,017.7,E*6E
01DE6A,02264B,00C4A5,$GPRMC,090524,A,5442.9554,N,11318.4557,W,000.0,185.7,220819,017.7,E*67
01DE66,022645,00C4A3,$GPRMC,090525,A,5442.9554,N,11318.4556,W,000.0,185.7,220819,017.7,E*67
01DE67,022645,00C4A4,$GPRMC,090526,A,5442.9553,N,11318.4556,W,000.0,185.7,220819,017.7,E*63
01DE68,022648,00C4A5,$GPRMC,090527,A,5442.9556,N,11318.4555,W,000.0,185.7,220819,017.7,E*64
01DE6E,022651,00C4A8,$GPRMC,090528,A,5442.9560,N,11318.4554,W,000.0,185.7,220819,017.7,E*6F
01DE67,022647,00C4A4,$GPRMC,090529,A,5442.9559,N,11318.4555,W,000.0,185.7,220819,017.7,E*65
01DE6A,02264B,00C4A6,$GPRMC,090530,A,5442.9562,N,11318.4555,W,000.0,185.7,220819,017.7,E*65
01DE68,022649,00C4A4,$GPRMC,090531,A,5442.9562,N,11318.4555,W,000.0,185.7,220819,017.7,E*64
01DE69,02264B,00C4A5,$GPRMC,090532,A,5442.9565,N,11318.4554,W,000.0,185.7,220819,017.7,E*61
01DE67,022646,00C4A4,$GPRMC,090533,A,5442.9565,N,11318.4555,W,000.0,185.7,220819,017.7,E*61
01DE6D,022650,00C4A8,$GPRMC,090534,A,5442.9565,N,11318.4555,W,000.0,185.7,220819,017.7,E*66
01DE69,02264A,00C4A5,$GPRMC,090535,A,5442.9566,N,11318.4555,W,000.0,185.7,220819,017.7,E*64
01DE6C,022651,00C4A8,$GPRMC,090536,A,5442.9566,N,11318.4555,W,000.0,185.7,220819,017.7,E*67
01DE68,022649,00C4A4,$GPRMC,090537,A,5442.9566,N,11318.4555,W,000.0,185.7,220819,017.7,E*66
01DE6A,02264B,00C4A5,$GPRMC,090538,A,5442.9566,N,11318.4555,W,000.0,185.7,220819,017.7,E*69
01DE6A,02264C,00C4A5,$GPRMC,090539,A,5442.9566,N,11318.4555,W,000.0,185.7,220819,017.7,E*68
01DE69,02264A,00C4A5,$GPRMC,090540,A,5442.9566,N,11318.4555,W,000.0,185.7,220819,017.7,E*66
01DE6A,02264C,00C4A5,$GPRMC,090541,A,5442.9567,N,11318.4555,W,000.0,185.7,220819,017.7,E*66
01DE6B,02264E,00C4A6,$GPRMC,090542,A,5442.9567,N,11318.4555,W,000.0,185.7,220819,017.7,E*65
01DE69,022649,00C4A5,$GPRMC,090543,A,5442.9565,N,11318.4555,W,000.0,185.7,220819,017.7,E*66
01DE6A,02264B,00C4A5,$GPRMC,090544,A,5442.9563,N,11318.4554,W,000.0,185.7,220819,017.7,E*66
01DE67,022648,00C4A4,$GPRMC,090545,A,5442.9563,N,11318.4554,W,000.0,185.7,220819,017.7,E*67
01DE6C,02264F,00C4A6,$GPRMC,090546,A,5442.9563,N,11318.4554,W,000.0,185.7,220819,017.7,E*64
01DE66,022646,00C4A3,$GPRMC,090547,A,5442.9563,N,11318.4555,W,000.0,185.7,220819,017.7,E*64
01DE65,022644,00C4A2,$GPRMC,090548,A,5442.9563,N,11318.4555,W,000.0,185.7,220819,017.7,E*6B
01DE68,022648,00C4A4,$GPRMC,090549,A,5442.9561,N,11318.4555,W,000.0,185.7,220819,017.7,E*68
01DE6C,022650,00C4A6,$GPRMC,090550,A,5442.9560,N,11318.4556,W,000.0,185.7,220819,017.7,E*62
01DE68,02264A,00C4A4,$GPRMC,090551,A,5442.9558,N,11318.4557,W,000.0,185.7,220819,017.7,E*69
01DE6A,02264C,00C4A5,$GPRMC,090552,A,5442.9555,N,11318.4558,W,000.0,185.7,220819,017.7,E*68
01DE6A,02264D,00C4A5,$GPRMC,090553,A,5442.9552,N,11318.4560,W,000.0,185.7,220819,017.7,E*65
01DE6E,022652,00C4A7,$GPRMC,090554,A,5442.9549,N,11318.4562,W,000.0,185.7,220819,017.7,E*6A
01DE67,022649,00C4A3,$GPRMC,090555,A,5442.9546,N,11318.4563,W,000.0,185.7,220819,017.7,E*65
01DE6B,02264F,00C4A6,$GPRMC,090556,A,5442.9544,N,11318.4565,W,000.0,185.7,220819,017.7,E*62
01DE6E,022652,00C4A8,$GPRMC,090557,A,5442.9542,N,11318.4566,W,000.0,185.7,220819,017.7,E*66
01DE6D,022650,00C4A7,$GPRMC,090558,A,5442.9539,N,11318.4568,W,000.0,185.7,220819,017.7,E*6B
01DE6C,02264F,00C4A6,$GPRMC,090559,A,5442.9539,N,11318.4568,W,000.0,185.7,220819,017.7,E*6A
01DE6A,02264E,00C4A5,$GPRMC,090600,A,5442.9535,N,11318.4570,W,000.0,185.7,220819,017.7,E*60
01DE67,022648,00C4A3,$GPRMC,090601,A,5442.9535,N,11318.4570,W,000.0,185.7,220819,017.7,E*61
01DE6E,022651,00C4A7,$GPRMC,090602,A,5442.9535,N,11318.4570,W,000.0,185.7,220819,017.7,E*62
01DE6E,022652,00C4A8,$GPRMC,090603,A,5442.9535,N,11318.4570,W,000.0,185.7,220819,017.7,E*63
01DE69,02264C,00C4A4,$GPRMC,090604,A,5442.9535,N,11318.4570,W,000.0,185.7,220819,017.7,E*64
01DE6B,02264E,00C4A5,$GPRMC,090605,A,5442.9535,N,11318.4571,W,000.0,185.7,220819,017.7,E*64
01DE6C,022650,00C4A6,$GPRMC,090606,A,5442.9535,N,11318.4571,W,000.0,185.7,220819,017.7,E*67
01DE6B,02264C,00C4A5,$GPRMC,090607,A,5442.9539,N,11318.4570,W,000.0,185.7,220819,017.7,E*6B
01DE69,02264B,00C4A4,$GPRMC,090608,A,5442.9539,N,11318.4570,W,000.0,185.7,220819,017.7,E*64
01DE6C,022651,00C4A6,$GPRMC,090609,A,5442.9540,N,11318.4568,W,000.0,185.7,220819,017.7,E*62
01DE6D,022651,00C4A6,$GPRMC,090610,A,5442.9540,N,11318.4568,W,000.0,185.7,220819,017.7,E*6A
01DE68,02264B,00C4A3,$GPRMC,090611,A,5442.9540,N,11318.4568,W,000.0,185.7,220819,017.7,E*6B
01DE6B,02264E,00C4A5,$GPRMC,090612,A,5442.9541,N,11318.4568,W,000.0,185.7,220819,017.7,E*69
01DE6C,022651,00C4A6,$GPRMC,090613,A,5442.9541,N,11318.4568,W,000.0,185.7,220819,017.7,E*68
01DE69,02264C,00C4A5,$GPRMC,090614,A,5442.9541,N,11318.4568,W,000.0,185.7,220819,017.7,E*6F
01DE6F,022655,00C4A8,$GPRMC,090615,A,5442.9542,N,11318.4568,W,000.0,185.7,220819,017.7,E*6D
01DE68,02264B,00C4A3,$GPRMC,090616,A,5442.9542,N,11318.4568,W,000.0,185.7,220819,017.7,E*6E
01DE65,022646,00C4A1,$GPRMC,090617,A,5442.9542,N,11318.4568,W,000.0,185.7,220819,017.7,E*6F
01DE65,022647,00C4A2,$GPRMC,090618,A,5442.9543,N,11318.4568,W,000.0,185.7,220819,017.7,E*61
01DE67,022649,00C4A2,$GPRMC,090619,A,5442.9541,N,11318.4568,W,000.0,185.7,220819,017.7,E*62
01DE6A,02264E,00C4A5,$GPRMC,090620,A,5442.9539,N,11318.4568,W,000.0,185.7,220819,017.7,E*67
01DE67,02264A,00C4A3,$GPRMC,090621,A,5442.9537,N,11318.4568,W,000.0,185.7,220819,017.7,E*68
01DE68,02264B,00C4A4,$GPRMC,090622,A,5442.9535,N,11318.4568,W,000.0,185.7,220819,017.7,E*69
01DE67,02264A,00C4A3,$GPRMC,090623,A,5442.9536,N,11318.4568,W,000.0,185.7,220819,017.7,E*6B
01DE6A,02264C,00C4A4,$GPRMC,090624,A,5442.9538,N,11318.4567,W,000.0,185.7,220819,017.7,E*6D
01DE6D,022651,00C4A6,$GPRMC,090625,A,5442.9538,N,11318.4567,W,000.0,185.7,220819,017.7,E*6C
01DE69,02264D,00C4A5,$GPRMC,090626,A,5442.9537,N,11318.4567,W,000.0,185.7,220819,017.7,E*60
01DE6A,02264E,00C4A4,$GPRMC,090627,A,5442.9537,N,11318.4567,W,000.0,185.7,220819,017.7,E*61
01DE6A,02264F,00C4A4,$GPRMC,090628,A,5442.9538,N,11318.4567,W,000.0,185.7,220819,017.7,E*61
01DE6D,022653,00C4A6,$GPRMC,090629,A,5442.9538,N,11318.4566,W,000.0,185.7,220819,017.7,E*61
01DE69,02264D,00C4A4,$GPRMC,090630,A,5442.9539,N,11318.4566,W,000.0,185.7,220819,017.7,E*68
01DE6B,022650,00C4A5,$GPRMC,090631,A,5442.9539,N,11318.4566,W,000.0,185.7,220819,017.7,E*69
01DE66,02264A,00C4A2,$GPRMC,090632,A,5442.9539,N,11318.4565,W,000.0,185.7,220819,017.7,E*69
01DE66,022647,00C4A1,$GPRMC,090633,A,5442.9540,N,11318.4565,W,000.0,185.7,220819,017.7,E*66
01DE6A,02264D,00C4A4,$GPRMC,090634,A,5442.9540,N,11318.4565,W,000.0,185.7,220819,017.7,E*61
01DE6C,022651,00C4A6,$GPRMC,090635,A,5442.9541,N,11318.4564,W,000.0,185.7,220819,017.7,E*60
01DE6A,02264E,00C4A4,$GPRMC,090636,A,5442.9541,N,11318.4564,W,000.0,185.7,220819,017.7,E*63
01DE6B,022651,00C4A5,$GPRMC,090637,A,5442.9542,N,11318.4564,W,000.0,185.7,220819,017.7,E*61
01DE67,02264A,00C4A1,$GPRMC,090638,A,5442.9542,N,11318.4563,W,000.0,185.7,220819,017.7,E*69
01DE69,02264D,00C4A3,$GPRMC,090639,A,5442.9543,N,11318.4563,W,000.0,185.7,220819,017.7,E*69
01DE6A,02264F,00C4A4,$GPRMC,090640,A,5442.9541,N,11318.4563,W,000.0,185.7,220819,017.7,E*65
01DE69,02264D,00C4A3,$GPRMC,090641,A,5442.9540,N,11318.4567,W,000.0,185.7,220819,017.7,E*61
01DE6A,02264E,00C4A3,$GPRMC,090642,A,5442.9538,N,11318.4568,W,000.0,185.7,220819,017.7,E*62
01DE66,022649,00C4A1,$GPRMC,090643,A,5442.9539,N,11318.4567,W,000.0,185.7,220819,017.7,E*6D
01DE67,02264A,00C4A1,$GPRMC,090644,A,5442.9540,N,11318.4567,W,000.0,185.7,220819,017.7,E*64
01DE67,02264B,00C4A1,$GPRMC,090645,A,5442.9541,N,11318.4567,W,000.0,185.7,220819,017.7,E*64
01DE69,02264D,00C4A3,$GPRMC,090646,A,5442.9541,N,11318.4569,W,000.0,185.7,220819,017.7,E*69
01DE6B,022651,00C4A4,$GPRMC,090647,A,5442.9543,N,11318.4568,W,000.0,185.7,220819,017.7,E*6B
01DE6F,022654,00C4A5,$GPRMC,090648,A,5442.9544,N,11318.4568,W,000.0,185.7,220819,017.7,E*63
01DE6A,02264D,00C4A2,$GPRMC,090649,A,5442.9543,N,11318.4568,W,000.0,185.7,220819,017.7,E*65
01DE6A,02264D,00C4A3,$GPRMC,090650,A,5442.9545,N,11318.4568,W,000.0,185.7,220819,017.7,E*6B
01DE6C,022650,00C4A5,$GPRMC,090651,A,5442.9547,N,11318.4567,W,000.0,185.7,220819,017.7,E*67
01DE6B,02264F,00C4A4,$GPRMC,090652,A,5442.9549,N,11318.4567,W,000.0,185.7,220819,017.7,E*6A
01DE69,02264D,00C4A3,$GPRMC,090653,A,5442.9550,N,11318.4566,W,000.0,185.7,220819,017.7,E*62
01DE69,02264C,00C4A2,$GPRMC,090654,A,5442.9552,N,11318.4565,W,000.0,185.7,220819,017.7,E*64
01DE6B,022650,00C4A4,$GPRMC,090655,A,5442.9554,N,11318.4565,W,000.0,185.7,220819,017.7,E*63
01DE6E,022653,00C4A6,$GPRMC,090656,A,5442.9556,N,11318.4564,W,000.0,185.7,220819,017.7,E*63
01DE6A,02264F,00C4A3,$GPRMC,090657,A,5442.9559,N,11318.4564,W,000.0,185.7,220819,017.7,E*6D
01DE6A,02264D,00C4A3,$GPRMC,090658,A,5442.9561,N,11318.4564,W,000.0,185.7,220819,017.7,E*69
01DE6D,022653,00C4A6,$GPRMC,090659,A,5442.9562,N,11318.4565,W,000.0,185.7,220819,017.7,E*6A
01DE6B,02264E,00C4A4,$GPRMC,090700,A,5442.9561,N,11318.4565,W,000.0,185.7,220819,017.7,E*64
01DE6A,02264E,00C4A3,$GPRMC,090701,A,5442.9560,N,11318.4567,W,000.0,185.7,220819,017.7,E*66
01DE6E,022653,00C4A5,$GPRMC,090702,A,5442.9558,N,11318.4568,W,000.0,185.7,220819,017.7,E*61
01DE6D,022653,00C4A5,$GPRMC,090703,A,5442.9555,N,11318.4570,W,000.0,185.7,220819,017.7,E*64
01DE6C,022650,00C4A4,$GPRMC,090704,A,5442.9553,N,11318.4573,W,000.0,185.7,220819,017.7,E*66
01DE6B,02264F,00C4A4,$GPRMC,090705,A,5442.9550,N,11318.4575,W,000.0,185.7,220819,017.7,E*62
01DE6C,022651,00C4A5,$GPRMC,090706,A,5442.9550,N,11318.4576,W,000.0,185.7,220819,017.7,E*62
01DE6B,02264D,00C4A3,$GPRMC,090707,A,5442.9549,N,11318.4578,W,000.0,185.7,220819,017.7,E*65
01DE6D,022653,00C4A6,$GPRMC,090708,A,5442.9547,N,11318.4580,W,000.0,185.7,220819,017.7,E*63
01DE6F,022653,00C4A6,$GPRMC,090709,A,5442.9547,N,11318.4582,W,000.0,185.7,220819,017.7,E*60
01DE6A,02264D,00C4A3,$GPRMC,090710,A,5442.9546,N,11318.4584,W,000.0,185.7,220819,017.7,E*6F
01DE6C,022651,00C4A4,$GPRMC,090711,A,5442.9547,N,11318.4584,W,000.0,185.7,220819,017.7,E*6F
01DE6B,02264D,00C4A3,$GPRMC,090712,A,5442.9547,N,11318.4584,W,000.0,185.7,220819,017.7,E*6C
01DE6F,022653,00C4A6,$GPRMC,090713,A,5442.9549,N,11318.4585,W,000.0,185.7,220819,017.7,E*62
01DE6A,02264E,00C4A3,$GPRMC,090714,A,5442.9550,N,11318.4586,W,000.0,185.7,220819,017.7,E*6E
01DE6C,02264F,00C4A3,$GPRMC,090715,A,5442.9551,N,11318.4586,W,000.0,185.7,220819,017.7,E*6E
01DE6C,022650,00C4A4,$GPRMC,090716,A,5442.9552,N,11318.4587,W,000.0,185.7,220819,017.7,E*6F
01DE6C,022651,00C4A4,$GPRMC,090717,A,5442.9554,N,11318.4587,W,000.0,185.7,220819,017.7,E*68
01DE6D,022652,00C4A5,$GPRMC,090718,A,5442.9554,N,11318.4588,W,000.0,185.7,220819,017.7,E*68
01DE6D,022652,00C4A4,$GPRMC,090719,A,5442.9554,N,11318.4589,W,000.0,185.7,220819,017.7,E*68
01DE6D,022652,00C4A5,$GPRMC,090720,A,5442.9554,N,11318.4590,W,000.0,185.7,220819,017.7,E*6A
01DE70,022657,00C4A7,$GPRMC,090721,A,5442.9554,N,11318.4590,W,000.0,185.7,220819,017.7,E*6B
01DE6B,02264F,00C4A4,$GPRMC,090722,A,5442.9554,N,11318.4590,W,000.0,185.7,220819,017.7,E*68
01DE69,02264E,00C4A3,$GPRMC,090723,A,5442.9554,N,11318.4590,W,000.0,185.7,220819,017.7,E*69
01DE6B,022651,00C4A4,$GPRMC,090724,A,5442.9554,N,11318.4590,W,000.0,185.7,220819,017.7,E*6E
01DE6B,02264F,00C4A4,$GPRMC,090725,A,5442.9556,N,11318.4588,W,000.0,185.7,220819,017.7,E*64
01DE6B,022651,00C4A4,$GPRMC,090726,A,5442.9556,N,11318.4588,W,000.0,185.7,220819,017.7,E*67
01DE6C,022653,00C4A4,$GPRMC,090727,A,5442.9556,N,11318.4588,W,000.0,185.7,220819,017.7,E*66
01DE6C,022652,00C4A4,$GPRMC,090728,A,5442.9557,N,11318.4588,W,000.0,185.7,220819,017.7,E*68
01DE6B,022650,00C4A4,$GPRMC,090729,A,5442.9557,N,11318.4588,W,000.0,185.7,220819,017.7,E*69
01DE6C,022653,00C4A5,$GPRMC,090730,A,5442.9561,N,11318.4586,W,000.0,185.7,220819,017.7,E*6A
01DE6B,022652,00C4A4,$GPRMC,090731,A,5442.9561,N,11318.4586,W,000.0,185.7,220819,017.7,E*6B
01DE6B,022650,00C4A3,$GPRMC,090732,A,5442.9561,N,11318.4586,W,000.0,185.7,220819,017.7,E*68
01DE6B,022651,00C4A4,$GPRMC,090733,A,5442.9561,N,11318.4586,W,000.0,185.7,220819,017.7,E*69
01DE6E,022656,00C4A5,$GPRMC,090734,A,5442.9561,N,11318.4586,W,000.0,185.7,220819,017.7,E*6E
01DE69,02264D,00C4A2,$GPRMC,090735,A,5442.9561,N,11318.4586,W,000.0,185.7,220819,017.7,E*6F
01DE66,02264A,00C4A1,$GPRMC,090736,A,5442.9562,N,11318.4586,W,000.0,185.7,220819,017.7,E*6F
01DE68,02264D,00C4A2,$GPRMC,090737,A,5442.9562,N,11318.4586,W,000.0,185.7,220819,017.7,E*6E
01DE6E,022655,00C4A5,$GPRMC,090738,A,5442.9564,N,11318.4584,W,000.0,185.7,220819,017.7,E*65
01DE6B,022651,00C4A3,$GPRMC,090739,A,5442.9563,N,11318.4585,W,000.0,185.7,220819,017.7,E*62
01DE6D,022655,00C4A5,$GPRMC,090740,A,5442.9562,N,11318.4585,W,000.0,185.7,220819,017.7,E*6D
01DE6B,022650,00C4A3,$GPRMC,090741,A,5442.9561,N,11318.4586,W,000.0,185.7,220819,017.7,E*6C
01DE6D,022655,00C4A4,$GPRMC,090742,A,5442.9560,N,11318.4587,W,000.0,185.7,220819,017.7,E*6F
01DE68,02264D,00C4A2,$GPRMC,090743,A,5442.9559,N,11318.4588,W,000.0,185.7,220819,017.7,E*6B
01DE6E,022656,00C4A5,$GPRMC,090744,A,5442.9557,N,11318.4588,W,000.0,185.7,220819,017.7,E*62
01DE6A,022651,00C4A3,$GPRMC,090745,A,5442.9556,N,11318.4589,W,000.0,185.7,220819,017.7,E*63
01DE6A,022651,00C4A2,$GPRMC,090746,A,5442.9551,N,11318.4592,W,000.0,185.7,220819,017.7,E*6D
01DE6E,022656,00C4A4,$GPRMC,090747,A,5442.9547,N,11318.4595,W,000.0,185.7,220819,017.7,E*6C
01DE6B,022652,00C4A3,$GPRMC,090748,A,5442.9543,N,11318.4597,W,000.0,185.7,220819,017.7,E*65
01DE6F,022657,00C4A5,$GPRMC,090749,A,5442.9538,N,11318.4600,W,000.0,185.7,220819,017.7,E*65
01DE6E,022656,00C4A4,$GPRMC,090750,A,5442.9534,N,11318.4602,W,000.0,185.7,220819,017.7,E*63
01DE69,022650,00C4A2,$GPRMC,090751,A,5442.9535,N,11318.4602,W,000.0,185.7,220819,017.7,E*63
01DE71,02265A,00C4A6,$GPRMC,090752,A,5442.9535,N,11318.4602,W,000.0,185.7,220819,017.7,E*60
01DE6B,022653,00C4A3,$GPRMC,090753,A,5442.9535,N,11318.4602,W,000.0,185.7,220819,017.7,E*61
01DE69,02264F,00C4A1,$GPRMC,090754,A,5442.9530,N,11318.4605,W,000.0,185.7,220819,017.7,E*64
01DE6D,022656,00C4A4,$GPRMC,090755,A,5442.9525,N,11318.4608,W,000.0,185.7,220819,017.7,E*6C
01DE68,02264F,00C4A1,$GPRMC,090756,A,5442.9525,N,11318.4608,W,000.0,185.7,220819,017.7,E*6F
01DE6A,022652,00C4A2,$GPRMC,090757,A,5442.9520,N,11318.4611,W,000.0,185.7,220819,017.7,E*63
01DE6B,022652,00C4A2,$GPRMC,090758,A,5442.9514,N,11318.4613,W,000.0,185.7,220819,017.7,E*69
01DE6B,022653,00C4A3,$GPRMC,090759,A,5442.9508,N,11318.4616,W,000.0,185.7,220819,017.7,E*60
01DE6B,022654,00C4A3,$GPRMC,090800,A,5442.9503,N,11318.4618,W,000.0,185.7,220819,017.7,E*66
01DE6A,022654,00C4A3,$GPRMC,090801,A,5442.9498,N,11318.4620,W,000.0,185.7,220819,017.7,E*6F
01DE69,022650,00C4A2,$GPRMC,090802,A,5442.9498,N,11318.4620,W,000.0,185.7,220819,017.7,E*6C
01DE69,022651,00C4A2,$GPRMC,090803,A,5442.9496,N,11318.4623,W,000.0,185.7,220819,017.7,E*60
01DE6D,022657,00C4A4,$GPRMC,090804,A,5442.9493,N,11318.4625,W,000.0,185.7,220819,017.7,E*64
01DE6B,022654,00C4A3,$GPRMC,090805,A,5442.9492,N,11318.4628,W,000.0,185.7,220819,017.7,E*69
01DE6A,022652,00C4A2,$GPRMC,090806,A,5442.9490,N,11318.4632,W,000.0,185.7,220819,017.7,E*63
01DE68,02264E,00C4A0,$GPRMC,090807,A,5442.9490,N,11318.4632,W,000.0,185.7,220819,017.7,E*62
01DE6C,022654,00C4A3,$GPRMC,090808,A,5442.9489,N,11318.4633,W,000.0,185.7,220819,017.7,E*64
01DE6A,022650,00C4A1,$GPRMC,090809,A,5442.9488,N,11318.4634,W,000.0,185.7,220819,017.7,E*63
01DE6B,022653,00C4A2,$GPRMC,090810,A,5442.9487,N,11318.4636,W,000.0,185.7,220819,017.7,E*66
01DE69,022650,00C4A1,$GPRMC,090811,A,5442.9484,N,11318.4641,W,000.0,185.7,220819,017.7,E*64
01DE6F,022658,00C4A5,$GPRMC,090812,A,5442.9481,N,11318.4649,W,000.0,185.7,220819,017.7,E*6A
01DE6F,022659,00C4A5,$GPRMC,090813,A,5442.9479,N,11318.4654,W,000.0,185.7,220819,017.7,E*60
01DE6C,022654,00C4A2,$GPRMC,090814,A,5442.9476,N,11318.4658,W,000.0,185.7,220819,017.7,E*64
01DE6F,022659,00C4A5,$GPRMC,090815,A,5442.9473,N,11318.4663,W,000.0,185.7,220819,017.7,E*68
01DE71,02265B,00C4A6,$GPRMC,090816,A,5442.9470,N,11318.4667,W,000.0,185.7,220819,017.7,E*6C
01DE6D,022655,00C4A4,$GPRMC,090817,A,5442.9467,N,11318.4671,W,000.0,185.7,220819,017.7,E*6C
01DE6C,022654,00C4A3,$GPRMC,090818,A,5442.9463,N,11318.4675,W,000.0,185.7,220819,017.7,E*63
01DE6F,022657,00C4A5,$GPRMC,090819,A,5442.9461,N,11318.4675,W,000.0,185.7,220819,017.7,E*60
01DE6C,022655,00C4A3,$GPRMC,090820,A,5442.9459,N,11318.4675,W,000.0,185.7,220819,017.7,E*61
01DE6E,022658,00C4A5,$GPRMC,090821,A,5442.9457,N,11318.4675,W,000.0,185.7,220819,017.7,E*6E
01DE6F,022658,00C4A5,$GPRMC,090822,A,5442.9456,N,11318.4675,W,000.0,185.7,220819,017.7,E*6C
01DE6F,022659,00C4A5,$GPRMC,090823,A,5442.9454,N,11318.4674,W,000.0,185.7,220819,017.7,E*6E
01DE6C,022652,00C4A3,$GPRMC,090824,A,5442.9453,N,11318.4675,W,000.0,185.7,220819,017.7,E*6F
01DE6F,022659,00C4A5,$GPRMC,090825,A,5442.9452,N,11318.4675,W,000.0,185.7,220819,017.7,E*6F
01DE6B,022653,00C4A2,$GPRMC,090826,A,5442.9450,N,11318.4675,W,000.0,185.7,220819,017.7,E*6E
01DE6F,022659,00C4A5,$GPRMC,090827,A,5442.9449,N,11318.4675,W,000.0,185.7,220819,017.7,E*67
01DE6E,022657,00C4A4,$GPRMC,090828,A,5442.9447,N,11318.4676,W,000.0,185.7,220819,017.7,E*65
01DE6B,022653,00C4A2,$GPRMC,090829,A,5442.9445,N,11318.4675,W,000.0,185.7,220819,017.7,E*65
01DE6C,022655,00C4A3,$GPRMC,090830,A,5442.9443,N,11318.4673,W,000.0,185.7,220819,017.7,E*6D
01DE6C,022654,00C4A3,$GPRMC,090831,A,5442.9443,N,11318.4676,W,001.5,141.7,220819,017.7,E*65
01DE6E,022656,00C4A4,$GPRMC,090832,A,5442.9438,N,11318.4672,W,001.3,143.1,220819,017.7,E*6C
01DE6E,022655,00C4A3,$GPRMC,090833,A,5442.9437,N,11318.4672,W,000.0,143.1,220819,017.7,E*60
01DE70,022659,00C4A5,$GPRMC,090834,A,5442.9437,N,11318.4673,W,000.0,143.1,220819,017.7,E*66
01DE6C,022654,00C4A3,$GPRMC,090835,A,5442.9436,N,11318.4674,W,000.0,143.1,220819,017.7,E*61
01DE6B,022653,00C4A3,$GPRMC,090836,A,5442.9437,N,11318.4674,W,000.0,143.1,220819,017.7,E*63
01DE6D,022657,00C4A4,$GPRMC,090837,A,5442.9438,N,11318.4674,W,000.0,143.1,220819,017.7,E*6D
01DE6F,022658,00C4A5,$GPRMC,090838,A,5442.9439,N,11318.4675,W,000.0,143.1,220819,017.7,E*62
01DE69,022651,00C4A1,$GPRMC,090839,A,5442.9439,N,11318.4676,W,000.0,143.1,220819,017.7,E*60
01DE6F,022658,00C4A4,$GPRMC,090840,A,5442.9440,N,11318.4676,W,000.0,143.1,220819,017.7,E*60
01DE6A,022653,00C4A2,$GPRMC,090841,A,5442.9443,N,11318.4683,W,000.0,143.1,220819,017.7,E*68
01DE6A,022651,00C4A1,$GPRMC,090842,A,5442.9441,N,11318.4683,W,000.0,143.1,220819,017.7,E*69
01DE6F,022659,00C4A5,$GPRMC,090843,A,5442.9441,N,11318.4683,W,000.0,143.1,220819,017.7,E*68
01DE6F,02265A,00C4A6,$GPRMC,090844,A,5442.9441,N,11318.4686,W,000.0,143.1,220819,017.7,E*6A
01DE6E,022659,00C4A4,$GPRMC,090845,A,5442.9440,N,11318.4689,W,000.0,143.1,220819,017.7,E*65
01DE68,02264F,00C4A1,$GPRMC,090846,A,5442.9439,N,11318.4696,W,000.0,143.1,220819,017.7,E*66
01DE6A,022654,00C4A3,$GPRMC,090847,A,5442.9439,N,11318.4698,W,000.0,143.1,220819,017.7,E*69
01DE6C,022655,00C4A4,$GPRMC,090848,A,5442.9439,N,11318.4699,W,000.0,143.1,220819,017.7,E*67
01DE6E,022659,00C4A5,$GPRMC,090849,A,5442.9439,N,11318.4700,W,000.0,143.1,220819,017.7,E*67
01DE70,02265A,00C4A6,$GPRMC,090850,A,5442.9439,N,11318.4702,W,000.0,143.1,220819,017.7,E*6D
01DE6F,022659,00C4A5,$GPRMC,090851,A,5442.9438,N,11318.4704,W,000.0,143.1,220819,017.7,E*6B
01DE6E,022657,00C4A5,$GPRMC,090852,A,5442.9438,N,11318.4706,W,000.0,143.1,220819,017.7,E*6A
01DE70,02265B,00C4A6,$GPRMC,090853,A,5442.9438,N,11318.4707,W,000.0,143.1,220819,017.7,E*6A
01DE6E,022658,00C4A5,$GPRMC,090854,A,5442.9438,N,11318.4708,W,000.0,143.1,220819,017.7,E*62
01DE6E,022658,00C4A5,$GPRMC,090855,A,5442.9437,N,11318.4708,W,000.0,143.1,220819,017.7,E*6C
01DE6C,022655,00C4A4,$GPRMC,090856,A,5442.9437,N,11318.4709,W,000.0,143.1,220819,017.7,E*6E
01DE6D,022656,00C4A4,$GPRMC,090857,A,5442.9437,N,11318.4709,W,000.0,143.1,220819,017.7,E*6F
01DE6C,022654,00C4A3,$GPRMC,090858,A,5442.9437,N,11318.4711,W,000.0,143.1,220819,017.7,E*69
01DE69,02264F,00C4A1,$GPRMC,090859,A,5442.9436,N,11318.4712,W,000.0,143.1,220819,017.7,E*6A
01DE69,022650,00C4A1,$GPRMC,090900,A,5442.9437,N,11318.4715,W,000.0,143.1,220819,017.7,E*61
01DE6B,022653,00C4A3,$GPRMC,090901,A,5442.9436,N,11318.4715,W,000.0,143.1,220819,017.7,E*61
01DE6C,022654,00C4A3,$GPRMC,090902,A,5442.9436,N,11318.4716,W,000.0,143.1,220819,017.7,E*61
01DE6B,022655,00C4A3,$GPRMC,090903,A,5442.9435,N,11318.4716,W,000.0,143.1,220819,017.7,E*63
01DE6D,022656,00C4A3,$GPRMC,090904,A,5442.9435,N,11318.4717,W,000.0,143.1,220819,017.7,E*65
01DE6D,022656,00C4A3,$GPRMC,090905,A,5442.9434,N,11318.4717,W,000.0,143.1,220819,017.7,E*65
01DE6B,022655,00C4A2,$GPRMC,090906,A,5442.9434,N,11318.4717,W,000.0,143.1,220819,017.7,E*66
01DE69,022651,00C4A1,$GPRMC,090907,A,5442.9433,N,11318.4717,W,000.0,143.1,220819,017.7,E*60
01DE6C,022654,00C4A2,$GPRMC,090908,A,5442.9433,N,11318.4717,W,000.0,143.1,220819,017.7,E*6F
01DE6C,022656,00C4A3,$GPRMC,090909,A,5442.9432,N,11318.4717,W,000.0,143.1,220819,017.7,E*6F
01DE6D,022657,00C4A4,$GPRMC,090910,A,5442.9431,N,11318.4716,W,000.0,143.1,220819,017.7,E*65
01DE6D,02265A,00C4A4,$GPRMC,090911,A,5442.9430,N,11318.4715,W,000.0,143.1,220819,017.7,E*66
01DE6F,02265A,00C4A4,$GPRMC,090912,A,5442.9428,N,11318.4713,W,000.0,143.1,220819,017.7,E*6A
01DE6E,022659,00C4A5,$GPRMC,090913,A,5442.9427,N,11318.4712,W,000.0,143.1,220819,017.7,E*65
01DE70,02265B,00C4A5,$GPRMC,090914,A,5442.9425,N,11318.4710,W,000.0,143.1,220819,017.7,E*62
01DE6E,022658,00C4A4,$GPRMC,090915,A,5442.9424,N,11318.4707,W,000.0,143.1,220819,017.7,E*64
01DE6F,02265A,00C4A5,$GPRMC,090916,A,5442.9423,N,11318.4705,W,000.0,143.1,220819,017.7,E*62
01DE70,02265C,00C4A5,$GPRMC,090917,A,5442.9422,N,11318.4703,W,000.0,143.1,220819,017.7,E*64
01DE6D,022658,00C4A4,$GPRMC,090918,A,5442.9421,N,11318.4701,W,000.0,143.1,220819,017.7,E*6A
01DE72,02265D,00C4A6,$GPRMC,090919,A,5442.9421,N,11318.4699,W,000.0,143.1,220819,017.7,E*6B
01DE6E,022659,00C4A3,$GPRMC,090920,A,5442.9419,N,11318.4697,W,000.0,143.1,220819,017.7,E*64
01DE6E,022659,00C4A4,$GPRMC,090921,A,5442.9419,N,11318.4695,W,000.0,143.1,220819,017.7,E*67
01DE71,02265D,00C4A5,$GPRMC,090922,A,5442.9418,N,11318.4694,W,000.0,143.1,220819,017.7,E*64
01DE6F,02265A,00C4A5,$GPRMC,090923,A,5442.9417,N,11318.4693,W,000.0,143.1,220819,017.7,E*6D
01DE6E,022658,00C4A4,$GPRMC,090924,A,5442.9417,N,11318.4692,W,000.0,143.1,220819,017.7,E*6B
01DE6F,02265A,00C4A5,$GPRMC,090925,A,5442.9416,N,11318.4691,W,000.0,143.1,220819,017.7,E*68
01DE72,02265F,00C4A6,$GPRMC,090926,A,5442.9416,N,11318.4691,W,000.0,143.1,220819,017.7,E*6B
01DE71,02265D,00C4A5,$GPRMC,090927,A,5442.9416,N,11318.4691,W,000.0,143.1,220819,017.7,E*6A
01DE73,02265F,00C4A6,$GPRMC,090928,A,5442.9414,N,11318.4689,W,000.0,143.1,220819,017.7,E*6E
01DE6F,022659,00C4A4,$GPRMC,090929,A,5442.9412,N,11318.4686,W,000.0,143.1,220819,017.7,E*66
01DE6F,02265A,00C4A4,$GPRMC,090930,A,5442.9411,N,11318.4685,W,000.0,143.1,220819,017.7,E*6E
01DE70,02265C,00C4A5,$GPRMC,090931,A,5442.9410,N,11318.4684,W,000.0,143.1,220819,017.7,E*6F
01DE72,02265E,00C4A6,$GPRMC,090932,A,5442.9409,N,11318.4683,W,000.0,143.1,220819,017.7,E*63
01DE71,02265D,00C4A6,$GPRMC,090933,A,5442.9409,N,11318.4682,W,000.0,143.1,220819,017.7,E*63
01DE72,02265F,00C4A6,$GPRMC,090934,A,5442.9408,N,11318.4682,W,000.0,143.1,220819,017.7,E*65
01DE71,02265D,00C4A5,$GPRMC,090935,A,5442.9407,N,11318.4680,W,000.0,143.1,220819,017.7,E*69
01DE6F,02265B,00C4A4,$GPRMC,090936,A,5442.9406,N,11318.4680,W,000.0,143.1,220819,017.7,E*6B
01DE70,02265B,00C4A5,$GPRMC,090937,A,5442.9404,N,11318.4678,W,000.0,143.1,220819,017.7,E*6F
01DE70,02265C,00C4A6,$GPRMC,090938,A,5442.9401,N,11318.4678,W,000.0,143.1,220819,017.7,E*65
01DE70,02265C,00C4A5,$GPRMC,090939,A,5442.9399,N,11318.4678,W,000.0,143.1,220819,017.7,E*62
01DE6F,02265B,00C4A4,$GPRMC,090940,A,5442.9397,N,11318.4677,W,000.0,143.1,220819,017.7,E*6D
01DE6E,02265A,00C4A4,$GPRMC,090941,A,5442.9395,N,11318.4677,W,000.0,143.1,220819,017.7,E*6E
01DE70,02265D,00C4A6,$GPRMC,090942,A,5442.9395,N,11318.4678,W,000.0,143.1,220819,017.7,E*62
01DE6C,022659,00C4A3,$GPRMC,090943,A,5442.9394,N,11318.4679,W,000.0,143.1,220819,017.7,E*63
01DE6A,022654,00C4A1,$GPRMC,090944,A,5442.9392,N,11318.4678,W,000.0,143.1,220819,017.7,E*63
01DE6F,02265D,00C4A5,$GPRMC,090945,A,5442.9390,N,11318.4677,W,000.0,143.1,220819,017.7,E*6F
01DE6D,022659,00C4A4,$GPRMC,090946,A,5442.9389,N,11318.4676,W,000.0,143.1,220819,017.7,E*65
01DE72,022660,00C4A7,$GPRMC,090947,A,5442.9389,N,11318.4676,W,000.0,143.1,220819,017.7,E*64
01DE6E,02265C,00C4A5,$GPRMC,090948,A,5442.9387,N,11318.4674,W,000.0,143.1,220819,017.7,E*67
01DE6C,022659,00C4A4,$GPRMC,090949,A,5442.9385,N,11318.4672,W,000.0,143.1,220819,017.7,E*62
01DE6E,02265C,00C4A5,$GPRMC,090950,A,5442.9385,N,11318.4672,W,000.0,143.1,220819,017.7,E*6A
01DE6D,02265A,00C4A3,$GPRMC,090951,A,5442.9385,N,11318.4671,W,000.0,143.1,220819,017.7,E*68
01DE6F,02265D,00C4A5,$GPRMC,090952,A,5442.9385,N,11318.4671,W,000.0,143.1,220819,017.7,E*6B
01DE6F,02265D,00C4A5,$GPRMC,090953,A,5442.9386,N,11318.4672,W,000.0,143.1,220819,017.7,E*6A
01DE71,02265F,00C4A6,$GPRMC,090954,A,5442.9387,N,11318.4674,W,000.0,143.1,220819,017.7,E*6A
01DE6B,022657,00C4A3,$GPRMC,090955,A,5442.9386,N,11318.4673,W,000.0,143.1,220819,017.7,E*6D
01DE6F,02265E,00C4A5,$GPRMC,090956,A,5442.9384,N,11318.4672,W,000.0,143.1,220819,017.7,E*6D
01DE6C,02265A,00C4A3,$GPRMC,090957,A,5442.9382,N,11318.4670,W,000.0,143.1,220819,017.7,E*68
01DE6E,02265D,00C4A5,$GPRMC,090958,A,5442.9380,N,11318.4669,W,000.0,143.1,220819,017.7,E*6D
01DE6C,02265A,00C4A4,$GPRMC,090959,A,5442.9381,N,11318.4670,W,000.0,143.1,220819,017.7,E*65
01DE71,022661,00C4A7,$GPRMC,091000,A,5442.9381,N,11318.4670,W,000.0,143.1,220819,017.7,E*61
01DE6D,02265B,00C4A4,$GPRMC,091001,A,5442.9381,N,11318.4670,W,000.0,143.1,220819,017.7,E*60
01DE6F,02265E,00C4A5,$GPRMC,091002,A,5442.9380,N,11318.4669,W,000.0,143.1,220819,017.7,E*6A
01DE6D,02265A,00C4A3,$GPRMC,091003,A,5442.9379,N,11318.4668,W,000.0,143.1,220819,017.7,E*6C
01DE6E,02265B,00C4A4,$GPRMC,091004,A,5442.9378,N,11318.4667,W,000.0,143.1,220819,017.7,E*65
01DE6D,02265A,00C4A3,$GPRMC,091005,A,5442.9378,N,11318.4667,W,000.0,143.1,220819,017.7,E*64
01DE6C,02265A,00C4A3,$GPRMC,091006,A,5442.9379,N,11318.4666,W,000.0,143.1,220819,017.7,E*67
01DE71,022662,00C4A6,$GPRMC,091007,A,5442.9381,N,11318.4667,W,000.0,143.1,220819,017.7,E*60
01DE6A,022657,00C4A2,$GPRMC,091008,A,5442.9382,N,11318.4668,W,000.0,143.1,220819,017.7,E*63
01DE6C,02265B,00C4A4,$GPRMC,091009,A,5442.9382,N,11318.4670,W,000.0,143.1,220819,017.7,E*6B
01DE71,022660,00C4A5,$GPRMC,091010,A,5442.9381,N,11318.4671,W,000.0,143.1,220819,017.7,E*61
01DE6D,02265C,00C4A3,$GPRMC,091011,A,5442.9383,N,11318.4673,W,000.0,143.1,220819,017.7,E*60
01DE6D,02265A,00C4A3,$GPRMC,091012,A,5442.9383,N,11318.4673,W,000.0,143.1,220819,017.7,E*63
01DE6F,02265F,00C4A5,$GPRMC,091013,A,5442.9386,N,11318.4677,W,000.0,143.1,220819,017.7,E*63
01DE6D,02265C,00C4A3,$GPRMC,091014,A,5442.9389,N,11318.4681,W,000.0,143.1,220819,017.7,E*62
01DE69,022654,00C4A1,$GPRMC,091015,A,5442.9392,N,11318.4684,W,000.0,143.1,220819,017.7,E*6C
01DE70,02265E,00C4A5,$GPRMC,091016,A,5442.9392,N,11318.4686,W,000.0,143.1,220819,017.7,E*6D
01DE6D,02265B,00C4A3,$GPRMC,091017,A,5442.9393,N,11318.4688,W,000.0,143.1,220819,017.7,E*63
01DE70,02265E,00C4A4,$GPRMC,091018,A,5442.9393,N,11318.4690,W,000.0,143.1,220819,017.7,E*65
01DE6B,022658,00C4A2,$GPRMC,091019,A,5442.9394,N,11318.4691,W,000.0,143.1,220819,017.7,E*62
01DE6E,02265B,00C4A3,$GPRMC,091020,A,5442.9394,N,11318.4692,W,000.0,143.1,220819,017.7,E*6B
01DE6A,022658,00C4A1,$GPRMC,091021,A,5442.9397,N,11318.4692,W,000.0,143.1,220819,017.7,E*69
01DE6F,02265F,00C4A5,$GPRMC,091022,A,5442.9398,N,11318.4693,W,000.0,143.1,220819,017.7,E*64
01DE6B,022658,00C4A2,$GPRMC,091023,A,5442.9397,N,11318.4692,W,000.0,143.1,220819,017.7,E*6B
01DE6A,022656,00C4A1,$GPRMC,091024,A,5442.9397,N,11318.4692,W,000.0,143.1,220819,017.7,E*6C
01DE69,022655,00C4A1,$GPRMC,091025,A,5442.9396,N,11318.4691,W,000.0,143.1,220819,017.7,E*6F
01DE6E,02265C,00C4A3,$GPRMC,091026,A,5442.9396,N,11318.4691,W,000.0,143.1,220819,017.7,E*6C
01DE6B,022658,00C4A2,$GPRMC,091027,A,5442.9394,N,11318.4690,W,000.0,143.1,220819,017.7,E*6E
01DE70,02265F,00C4A5,$GPRMC,091028,A,5442.9393,N,11318.4690,W,000.0,143.1,220819,017.7,E*66
01DE6C,022659,00C4A2,$GPRMC,091029,A,5442.9392,N,11318.4689,W,000.0,143.1,220819,017.7,E*6E
01DE6D,02265B,00C4A3,$GPRMC,091030,A,5442.9392,N,11318.4689,W,000.0,143.1,220819,017.7,E*66
01DE6D,02265B,00C4A3,$GPRMC,091031,A,5442.9394,N,11318.4689,W,000.0,143.1,220819,017.7,E*61
01DE70,02265F,00C4A4,$GPRMC,091032,A,5442.9394,N,11318.4689,W,000.0,143.1,220819,017.7,E*62
01DE6D,022659,00C4A3,$GPRMC,091033,A,5442.9395,N,11318.4689,W,000.0,143.1,220819,017.7,E*62
01DE6C,02265B,00C4A3,$GPRMC,091034,A,5442.9395,N,11318.4689,W,000.0,143.1,220819,017.7,E*65
01DE6D,02265A,00C4A2,$GPRMC,091035,A,5442.9396,N,11318.4689,W,000.0,143.1,220819,017.7,E*67
01DE70,022660,00C4A4,$GPRMC,091036,A,5442.9397,N,11318.4690,W,000.0,143.1,220819,017.7,E*6D
01DE6A,022658,00C4A1,$GPRMC,091037,A,5442.9397,N,11318.4690,W,000.0,143.1,220819,017.7,E*6C
01DE6F,022660,00C4A4,$GPRMC,091038,A,5442.9397,N,11318.4690,W,000.0,143.1,220819,017.7,E*63
01DE6D,02265B,00C4A4,$GPRMC,091039,A,5442.9399,N,11318.4691,W,000.0,143.1,220819,017.7,E*6D
01DE6F,022660,00C4A5,$GPRMC,091040,A,5442.9401,N,11318.4692,W,000.0,143.1,220819,017.7,E*66
01DE6D,02265B,00C4A3,$GPRMC,091041,A,5442.9401,N,11318.4693,W,000.0,143.1,220819,017.7,E*66
01DE6D,02265C,00C4A4,$GPRMC,091042,A,5442.9403,N,11318.4694,W,000.0,143.1,220819,017.7,E*60
01DE6A,022657,00C4A2,$GPRMC,091043,A,5442.9404,N,11318.4695,W,000.0,143.1,220819,017.7,E*67
01DE71,022662,00C4A6,$GPRMC,091044,A,5442.9405,N,11318.4696,W,000.0,143.1,220819,017.7,E*62
