01DDBA,02257C,00C5FF,$GPRMC,215952,A,5442.9416,N,11318.4672,W,000.0,326.1,210819,017.7,E*68
01DDB8,02257A,00C5FF,$GPRMC,215953,A,5442.9417,N,11318.4672,W,000.0,326.1,210819,017.7,E*68
01DDBA,02257C,00C5FF,$GPRMC,215954,A,5442.9418,N,11318.4673,W,000.0,326.1,210819,017.7,E*61
01DDB3,022571,00C4FB,$GPRMC,215955,A,5442.9419,N,11318.4673,W,000.0,326.1,210819,017.7,E*61
01DDBC,02257C,00C500,$GPRMC,215956,A,5442.9414,N,11318.4669,W,000.0,326.1,210819,017.7,E*64
01DDB6,022575,00C4FC,$GPRMC,215957,A,5442.9409,N,11318.4666,W,000.0,326.1,210819,017.7,E*66
01DDBB,02257A,00C4FF,$GPRMC,215958,A,5442.9404,N,11318.4662,W,000.0,326.1,210819,017.7,E*60
01DDB8,022577,00C4FD,$GPRMC,215959,A,5442.9404,N,11318.4662,W,000.0,326.1,210819,017.7,E*61
01DDB7,022576,00C4FC,$GPRMC,220000,A,5442.9399,N,11318.4658,W,000.0,326.1,210819,017.7,E*68
01DDB7,022575,00C4FC,$GPRMC,220001,A,5442.9395,N,11318.4655,W,000.0,326.1,210819,017.7,E*68
01DDB5,022574,00C4FB,$GPRMC,220002,A,5442.9390,N,11318.4652,W,000.0,326.1,210819,017.7,E*69
01DDBB,02257C,00C4FE,$GPRMC,220003,A,5442.9385,N,11318.4650,W,000.0,326.1,210819,017.7,E*6E
01DDB9,022578,00C4FD,$GPRMC,220004,A,5442.9381,N,11318.4649,W,000.0,326.1,210819,017.7,E*65
01DDBD,02257E,00C500,$GPRMC,220005,A,5442.9376,N,11318.4647,W,000.0,326.1,210819,017.7,E*62
01DDBB,02257A,00C4FE,$GPRMC,220006,A,5442.9372,N,11318.4646,W,000.0,326.1,210819,017.7,E*64
01DDB9,022578,00C4FD,$GPRMC,220007,A,5442.9368,N,11318.4645,W,000.0,326.1,210819,017.7,E*6D
01DDBC,02257B,00C4FF,$GPRMC,220008,A,5442.9365,N,11318.4643,W,000.0,326.1,210819,017.7,E*69
01DDB9,022578,00C4FD,$GPRMC,220009,A,5442.9362,N,11318.4642,W,000.0,326.1,210819,017.7,E*6E
01DDB9,022576,00C4FC,$GPRMC,220010,A,5442.9359,N,11318.4642,W,000.0,326.1,210819,017.7,E*6E
01DDB9,022576,00C4FC,$GPRMC,220011,A,5442.9355,N,11318.4642,W,000.0,326.1,210819,017.7,E*63
01DDBD,02257B,00C4FE,$GPRMC,220012,A,5442.9354,N,11318.4638,W,000.0,326.1,210819,017.7,E*6C
01DDBC,02257C,00C4FE,$GPRMC,220013,A,5442.9351,N,11318.4637,W,000.0,326.1,210819,017.7,E*67
01DDBB,022577,00C4FD,$GPRMC,220014,A,5442.9350,N,11318.4635,W,000.0,326.1,210819,017.7,E*63
01DDB7,022571,00C4FA,$GPRMC,220015,A,5442.9350,N,11318.4635,W,000.0,326.1,210819,017.7,E*62
01DDBF,02257E,00C5FF,$GPRMC,220016,A,5442.9350,N,11318.4635,W,000.0,326.1,210819,017.7,E*61
01DDBB,022578,00C4FC,$GPRMC,220017,A,5442.9350,N,11318.4632,W,000.0,326.1,210819,017.7,E*67
01DDBD,02257B,00C4FD,$GPRMC,220018,A,5442.9349,N,11318.4630,W,000.0,326.1,210819,017.7,E*62
01DDBC,022576,00C4FB,$GPRMC,220019,A,5442.9347,N,11318.4629,W,000.0,326.1,210819,017.7,E*65
01DDBB,022576,00C4FB,$GPRMC,220020,A,5442.9347,N,11318.4629,W,000.0,326.1,210819,017.7,E*6F
01DDBC,022579,00C4FC,$GPRMC,220021,A,5442.9343,N,11318.4626,W,000.0,326.1,210819,017.7,E*65
01DDBB,022576,00C4FB,$GPRMC,220022,A,5442.9343,N,11318.4627,W,000.0,326.1,210819,017.7,E*67
01DDB8,022571,00C4FA,$GPRMC,220023,A,5442.9344,N,11318.4628,W,000.0,326.1,210819,017.7,E*6E
01DDBC,022578,00C4FB,$GPRMC,220024,A,5442.9344,N,11318.4629,W,000.0,326.1,210819,017.7,E*68
01DDBD,022579,00C4FC,$GPRMC,220025,A,5442.9344,N,11318.4630,W,000.0,326.1,210819,017.7,E*61
01DDBD,022579,00C4FC,$GPRMC,220026,A,5442.9343,N,11318.4628,W,000.0,326.1,210819,017.7,E*6C
01DDBC,022578,00C4FB,$GPRMC,220027,A,5442.9341,N,11318.4627,W,000.0,326.1,210819,017.7,E*60
01DDBE,022579,00C4FC,$GPRMC,220028,A,5442.9340,N,11318.4625,W,000.0,326.1,210819,017.7,E*6C
01DDBF,02257A,00C4FC,$GPRMC,220029,A,5442.9341,N,11318.4626,W,000.0,326.1,210819,017.7,E*6F
01DDB9,022572,00C4F8,$GPRMC,220030,A,5442.9341,N,11318.4626,W,000.0,326.1,210819,017.7,E*67
01DDBD,022578,00C4FB,$GPRMC,220031,A,5442.9346,N,11318.4631,W,000.0,326.1,210819,017.7,E*67
01DDBB,022575,00C4FA,$GPRMC,220032,A,5442.9347,N,11318.4632,W,000.0,326.1,210819,017.7,E*66
01DDBB,022574,00C4FA,$GPRMC,220033,A,5442.9354,N,11318.4637,W,000.0,326.1,210819,017.7,E*60
01DDBA,022572,00C4F9,$GPRMC,220034,A,5442.9355,N,11318.4638,W,000.0,326.1,210819,017.7,E*69
01DDBE,02257A,00C4FB,$GPRMC,220035,A,5442.9357,N,11318.4637,W,000.0,326.1,210819,017.7,E*65
01DDBE,022578,00C4FB,$GPRMC,220036,A,5442.9357,N,11318.4636,W,000.0,326.1,210819,017.7,E*67
01DDBB,022574,00C4F9,$GPRMC,220037,A,5442.9360,N,11318.4637,W,000.0,326.1,210819,017.7,E*63
01DDBF,022579,00C4FB,$GPRMC,220038,A,5442.9362,N,11318.4639,W,000.0,326.1,210819,017.7,E*60
01DDBF,022579,00C4FB,$GPRMC,220039,A,5442.9362,N,11318.4637,W,000.0,326.1,210819,017.7,E*6F
01DDBF,022578,00C4FB,$GPRMC,220040,A,5442.9362,N,11318.4637,W,000.0,326.1,210819,017.7,E*61
01DDBD,022575,00C4F9,$GPRMC,220041,A,5442.9362,N,11318.4638,W,000.0,326.1,210819,017.7,E*6F
01DDC1,02257A,00C4FB,$GPRMC,220042,A,5442.9362,N,11318.4639,W,000.0,326.1,210819,017.7,E*6D
01DDBC,022575,00C4F9,$GPRMC,220043,A,5442.9362,N,11318.4639,W,000.0,326.1,210819,017.7,E*6C
01DDC1,02257B,00C4FC,$GPRMC,220044,A,5442.9362,N,11318.4640,W,000.0,326.1,210819,017.7,E*65
01DDBD,022575,00C4F9,$GPRMC,220045,A,5442.9361,N,11318.4640,W,000.0,326.1,210819,017.7,E*67
01DDC3,02257D,00C4FD,$GPRMC,220046,A,5442.9360,N,11318.4640,W,000.0,326.1,210819,017.7,E*65
01DDC0,022579,00C4FB,$GPRMC,220047,A,5442.9359,N,11318.4640,W,000.0,326.1,210819,017.7,E*6E
01DDC3,02257F,00C4FD,$GPRMC,220048,A,5442.9358,N,11318.4640,W,000.0,326.1,210819,017.7,E*60
01DDC4,02257F,00C4FD,$GPRMC,220049,A,5442.9357,N,11318.4641,W,000.0,326.1,210819,017.7,E*6F
01DDC5,022583,00C4FE,$GPRMC,220050,A,5442.9357,N,11318.4643,W,000.0,326.1,210819,017.7,E*65
01DDC0,02257B,00C4FC,$GPRMC,220051,A,5442.9355,N,11318.4642,W,000.0,326.1,210819,017.7,E*67
01DDC2,022580,00C4FE,$GPRMC,220052,A,5442.9354,N,11318.4644,W,000.0,326.1,210819,017.7,E*63
01DDBC,022584,00C501,$GPRMC,220053,A,5442.9354,N,11318.4646,W,000.0,326.1,210819,017.7,E*60
01DDBD,022588,00C503,$GPRMC,220054,A,5442.9353,N,11318.4647,W,000.0,326.1,210819,017.7,E*61
01DDBD,022587,00C502,$GPRMC,220055,A,5442.9353,N,11318.4648,W,000.0,326.1,210819,017.7,E*6F
01DDBA,022584,00C501,$GPRMC,220056,A,5442.9352,N,11318.4649,W,000.0,326.1,210819,017.7,E*6C
01DDBB,022583,00C502,$GPRMC,220057,A,5442.9351,N,11318.4647,W,000.0,326.1,210819,017.7,E*60
01DDBA,022582,00C500,$GPRMC,220058,A,5442.9351,N,11318.4648,W,000.0,326.1,210819,017.7,E*60
01DDBB,022583,00C500,$GPRMC,220059,A,5442.9350,N,11318.4649,W,000.0,326.1,210819,017.7,E*61
01DDBC,022584,00C501,$GPRMC,220100,A,5442.9350,N,11318.4649,W,000.0,326.1,210819,017.7,E*6C
01DDBD,022586,00C502,$GPRMC,220101,A,5442.9350,N,11318.4648,W,000.0,326.1,210819,017.7,E*6C
01DDBC,02257F,00C502,$GPRMC,220102,A,5442.9349,N,11318.4648,W,000.0,326.1,210819,017.7,E*67
01DDBC,02257D,00C501,$GPRMC,220103,A,5442.9349,N,11318.4648,W,000.0,326.1,210819,017.7,E*66
01DDBC,02257D,00C501,$GPRMC,220104,A,5442.9349,N,11318.4648,W,000.0,326.1,210819,017.7,E*61
01DDC1,022585,00C503,$GPRMC,220105,A,5442.9349,N,11318.4647,W,000.0,326.1,210819,017.7,E*6F
01DDBA,02257B,00C5FF,$GPRMC,220106,A,5442.9350,N,11318.4648,W,000.0,326.1,210819,017.7,E*6B
01DDBF,022581,00C502,$GPRMC,220107,A,5442.9351,N,11318.4648,W,000.0,326.1,210819,017.7,E*6B
01DDBE,02257F,00C501,$GPRMC,220108,A,5442.9351,N,11318.4647,W,000.0,326.1,210819,017.7,E*6B
01DDC0,022581,00C502,$GPRMC,220109,A,5442.9352,N,11318.4647,W,000.0,326.1,210819,017.7,E*69
01DDC0,022580,00C502,$GPRMC,220110,A,5442.9352,N,11318.4647,W,000.0,326.1,210819,017.7,E*61
01DDC2,022583,00C503,$GPRMC,220111,A,5442.9353,N,11318.4646,W,000.0,326.1,210819,017.7,E*60
01DDBE,02257E,00C500,$GPRMC,220112,A,5442.9353,N,11318.4646,W,000.0,326.1,210819,017.7,E*63
01DDC2,022583,00C502,$GPRMC,220113,A,5442.9353,N,11318.4646,W,000.0,326.1,210819,017.7,E*62
01DDBE,02257D,00C500,$GPRMC,220114,A,5442.9353,N,11318.4645,W,000.0,326.1,210819,017.7,E*66
01DDBF,02257E,00C500,$GPRMC,220115,A,5442.9353,N,11318.4645,W,000.0,326.1,210819,017.7,E*67
01DDBF,02257C,00C5FF,$GPRMC,220116,A,5442.9353,N,11318.4644,W,000.0,326.1,210819,017.7,E*65
01DDC0,02257E,00C500,$GPRMC,220117,A,5442.9353,N,11318.4644,W,000.0,326.1,210819,017.7,E*64
01DDC2,022580,00C501,$GPRMC,220118,A,5442.9354,N,11318.4643,W,000.0,326.1,210819,017.7,E*6B
01DDC2,022580,00C502,$GPRMC,220119,A,5442.9354,N,11318.4642,W,000.0,326.1,210819,017.7,E*6B
01DDC0,02257D,00C500,$GPRMC,220120,A,5442.9355,N,11318.4642,W,000.0,326.1,210819,017.7,E*60
01DDC1,02257D,00C500,$GPRMC,220121,A,5442.9355,N,11318.4641,W,000.0,326.1,210819,017.7,E*62
01DDC2,02257E,00C501,$GPRMC,220122,A,5442.9356,N,11318.4640,W,000.0,326.1,210819,017.7,E*63
01DDC2,02257F,00C502,$GPRMC,220123,A,5442.9356,N,11318.4639,W,000.0,326.1,210819,017.7,E*6C
01DDC0,02257A,00C500,$GPRMC,220124,A,5442.9356,N,11318.4638,W,000.0,326.1,210819,017.7,E*6A
01DDBD,022577,00C4FE,$GPRMC,220125,A,5442.9356,N,11318.4637,W,000.0,326.1,210819,017.7,E*64
01DDBD,022574,00C4FE,$GPRMC,220126,A,5442.9356,N,11318.4636,W,000.0,326.1,210819,017.7,E*66
01DDC3,02257D,00C502,$GPRMC,220127,A,5442.9357,N,11318.4635,W,000.0,326.1,210819,017.7,E*65
01DDC0,022578,00C4FF,$GPRMC,220128,A,5442.9357,N,11318.4635,W,000.0,326.1,210819,017.7,E*6A
01DDBF,022576,00C5FF,$GPRMC,220129,A,5442.9356,N,11318.4633,W,000.0,326.1,210819,017.7,E*6C
01DDC1,022578,00C5FF,$GPRMC,220130,A,5442.9356,N,11318.4632,W,000.0,326.1,210819,017.7,E*65
01DDC0,022575,00C4FF,$GPRMC,220131,A,5442.9356,N,11318.4632,W,000.0,326.1,210819,017.7,E*64
01DDC1,022576,00C500,$GPRMC,220132,A,5442.9357,N,11318.4632,W,000.0,326.1,210819,017.7,E*66
01DDC3,022577,00C500,$GPRMC,220133,A,5442.9356,N,11318.4630,W,000.0,326.1,210819,017.7,E*64
01DDC1,022574,00C4FF,$GPRMC,220134,A,5442.9355,N,11318.4628,W,000.0,326.1,210819,017.7,E*69
01DDBF,022572,00C4FE,$GPRMC,220135,A,5442.9356,N,11318.4628,W,000.0,326.1,210819,017.7,E*6B
01DDC1,022573,00C5FF,$GPRMC,220136,A,5442.9357,N,11318.4628,W,000.0,326.1,210819,017.7,E*69
01DDC2,022574,00C4FF,$GPRMC,220137,A,5442.9357,N,11318.4627,W,000.0,326.1,210819,017.7,E*67
01DDC4,022578,00C500,$GPRMC,220138,A,5442.9359,N,11318.4628,W,000.0,326.1,210819,017.7,E*69
01DDC2,022575,00C5FF,$GPRMC,220139,A,5442.9359,N,11318.4627,W,000.0,326.1,210819,017.7,E*67
01DDC3,022576,00C500,$GPRMC,220140,A,5442.9359,N,11318.4627,W,000.0,326.1,210819,017.7,E*69
01DDC0,022573,00C4FE,$GPRMC,220141,A,5442.9360,N,11318.4628,W,000.0,326.1,210819,017.7,E*6D
01DDC3,022575,00C5FF,$GPRMC,220142,A,5442.9359,N,11318.4628,W,000.0,326.1,210819,017.7,E*64
01DDC1,022573,00C4FE,$GPRMC,220143,A,5442.9360,N,11318.4628,W,000.0,326.1,210819,017.7,E*6F
01DDC2,022573,00C4FD,$GPRMC,220144,A,5442.9360,N,11318.4629,W,000.0,326.1,210819,017.7,E*69
01DDBF,02256E,00C4FC,$GPRMC,220145,A,5442.9359,N,11318.4629,W,000.0,326.1,210819,017.7,E*62
01DDC2,022573,00C4FE,$GPRMC,220146,A,5442.9358,N,11318.4629,W,000.0,326.1,210819,017.7,E*60
01DDC0,022571,00C4FD,$GPRMC,220147,A,5442.9357,N,11318.4629,W,000.0,326.1,210819,017.7,E*6E
01DDC2,022575,00C4FD,$GPRMC,220148,A,5442.9355,N,11318.4629,W,000.0,326.1,210819,017.7,E*63
01DDC3,022576,00C4FF,$GPRMC,220149,A,5442.9357,N,11318.4629,W,000.0,326.1,210819,017.7,E*60
01DDC3,022571,00C5FF,$GPRMC,220150,A,5442.9358,N,11318.4629,W,000.0,326.1,210819,017.7,E*67
01DDC2,022570,00C4FE,$GPRMC,220151,A,5442.9359,N,11318.4628,W,000.0,326.1,210819,017.7,E*66
01DDC4,022572,00C5FF,$GPRMC,220152,A,5442.9360,N,11318.4628,W,000.0,326.1,210819,017.7,E*6F
01DDC5,022574,00C500,$GPRMC,220153,A,5442.9361,N,11318.4628,W,000.0,326.1,210819,017.7,E*6F
01DDC5,022573,00C500,$GPRMC,220154,A,5442.9363,N,11318.4628,W,000.0,326.1,210819,017.7,E*6A
01DDC5,022574,00C500,$GPRMC,220155,A,5442.9363,N,11318.4628,W,000.0,326.1,210819,017.7,E*6B
01DDC4,022571,00C4FF,$GPRMC,220156,A,5442.9364,N,11318.4628,W,000.0,326.1,210819,017.7,E*6F
01DDC9,022579,00C503,$GPRMC,220157,A,5442.9366,N,11318.4629,W,000.0,326.1,210819,017.7,E*6D
01DDC2,02256F,00C5FF,$GPRMC,220158,A,5442.9368,N,11318.4629,W,000.0,326.1,210819,017.7,E*6C
01DDE8,02256E,00C4CB,$GPRMC,220159,A,5442.9370,N,11318.4630,W,000.0,326.1,210819,017.7,E*6C
01DE02,02258D,00C48F,$GPRMC,220200,A,5442.9371,N,11318.4630,W,000.0,326.1,210819,017.7,E*62
01DDFF,022590,00C486,$GPRMC,220201,A,5442.9372,N,11318.4631,W,000.0,326.1,210819,017.7,E*61
01DDFD,02258C,00C484,$GPRMC,220202,A,5442.9371,N,11318.4631,W,000.0,326.1,210819,017.7,E*61
01DE02,022592,00C487,$GPRMC,220203,A,5442.9374,N,11318.4632,W,000.0,326.1,210819,017.7,E*66
01DE04,022596,00C489,$GPRMC,220204,A,5442.9376,N,11318.4632,W,000.0,326.1,210819,017.7,E*63
01DE00,02258F,00C487,$GPRMC,220205,A,5442.9379,N,11318.4632,W,000.0,326.1,210819,017.7,E*6D
01DE04,022594,00C489,$GPRMC,220206,A,5442.9381,N,11318.4633,W,000.0,326.1,210819,017.7,E*68
01DE01,022590,00C487,$GPRMC,220207,A,5442.9383,N,11318.4634,W,000.0,326.1,210819,017.7,E*6C
01DE02,022590,00C487,$GPRMC,220208,A,5442.9385,N,11318.4634,W,000.0,326.1,210819,017.7,E*65
01DE04,022593,00C489,$GPRMC,220209,A,5442.9385,N,11318.4635,W,000.0,326.1,210819,017.7,E*65
01DE01,02258C,00C486,$GPRMC,220210,A,5442.9385,N,11318.4635,W,000.0,326.1,210819,017.7,E*6D
01DE06,022593,00C489,$GPRMC,220211,A,5442.9386,N,11318.4635,W,000.0,326.1,210819,017.7,E*6F
01DE01,02258C,00C486,$GPRMC,220212,A,5442.9387,N,11318.4636,W,000.0,326.1,210819,017.7,E*6E
01DE01,02258C,00C487,$GPRMC,220213,A,5442.9388,N,11318.4636,W,000.0,326.1,210819,017.7,E*60
01DE04,02258F,00C489,$GPRMC,220214,A,5442.9389,N,11318.4637,W,000.0,326.1,210819,017.7,E*67
01DE05,022590,00C489,$GPRMC,220215,A,5442.9390,N,11318.4637,W,000.0,326.1,210819,017.7,E*6E
01DE01,02258B,00C487,$GPRMC,220216,A,5442.9391,N,11318.4637,W,000.0,326.1,210819,017.7,E*6C
01DE03,02258E,00C488,$GPRMC,220217,A,5442.9391,N,11318.4637,W,000.0,326.1,210819,017.7,E*6D
01DE02,02258C,00C487,$GPRMC,220218,A,5442.9392,N,11318.4637,W,000.0,326.1,210819,017.7,E*61
01DDFF,02258B,00C485,$GPRMC,220219,A,5442.9393,N,11318.4637,W,000.0,326.1,210819,017.7,E*61
01DDFE,022589,00C484,$GPRMC,220220,A,5442.9394,N,11318.4638,W,000.0,326.1,210819,017.7,E*63
01DE03,022591,00C488,$GPRMC,220221,A,5442.9395,N,11318.4638,W,000.0,326.1,210819,017.7,E*63
01DDFD,02258B,00C484,$GPRMC,220222,A,5442.9396,N,11318.4638,W,000.0,326.1,210819,017.7,E*63
01DE00,02258F,00C485,$GPRMC,220223,A,5442.9397,N,11318.4638,W,000.0,326.1,210819,017.7,E*63
01DE01,022591,00C485,$GPRMC,220224,A,5442.9399,N,11318.4638,W,000.0,326.1,210819,017.7,E*6A
01DE02,022593,00C486,$GPRMC,220225,A,5442.9399,N,11318.4638,W,000.0,326.1,210819,017.7,E*6B
01DDFF,02258D,00C483,$GPRMC,220226,A,5442.9400,N,11318.4637,W,000.0,326.1,210819,017.7,E*60
01DE01,022591,00C485,$GPRMC,220227,A,5442.9400,N,11318.4636,W,000.0,326.1,210819,017.7,E*60
01DDFF,02258E,00C484,$GPRMC,220228,A,5442.9400,N,11318.4636,W,000.0,326.1,210819,017.7,E*6F
01DE00,022590,00C485,$GPRMC,220229,A,5442.9400,N,11318.4635,W,000.0,326.1,210819,017.7,E*6D
01DDFD,02258C,00C484,$GPRMC,220230,A,5442.9401,N,11318.4635,W,000.0,326.1,210819,017.7,E*64
01DDFE,02258C,00C483,$GPRMC,220231,A,5442.9401,N,11318.4634,W,000.0,326.1,210819,017.7,E*64
01DDFD,02258C,00C483,$GPRMC,220232,A,5442.9404,N,11318.4634,W,000.0,326.1,210819,017.7,E*62
01DDFE,02258C,00C483,$GPRMC,220233,A,5442.9406,N,11318.4633,W,000.0,326.1,210819,017.7,E*66
01DE03,022594,00C487,$GPRMC,220234,A,5442.9408,N,11318.4633,W,000.0,326.1,210819,017.7,E*6F
01DE02,022593,00C487,$GPRMC,220235,A,5442.9410,N,11318.4633,W,000.0,326.1,210819,017.7,E*67
01DE00,02258F,00C486,$GPRMC,220236,A,5442.9411,N,11318.4632,W,000.0,326.1,210819,017.7,E*64
01DDFF,02258D,00C485,$GPRMC,220237,A,5442.9411,N,11318.4632,W,000.0,326.1,210819,017.7,E*65
01DE03,022593,00C487,$GPRMC,220238,A,5442.9411,N,11318.4632,W,000.0,326.1,210819,017.7,E*6A
01DE00,02258E,00C485,$GPRMC,220239,A,5442.9413,N,11318.4633,W,000.0,326.1,210819,017.7,E*68
01DE01,022590,00C486,$GPRMC,220240,A,5442.9414,N,11318.4633,W,000.0,326.1,210819,017.7,E*61
01DDFF,02258C,00C485,$GPRMC,220241,A,5442.9416,N,11318.4634,W,000.0,326.1,210819,017.7,E*65
01DDFF,02258D,00C485,$GPRMC,220242,A,5442.9416,N,11318.4635,W,000.0,326.1,210819,017.7,E*67
01DDFF,02258F,00C485,$GPRMC,220243,A,5442.9417,N,11318.4636,W,000.0,326.1,210819,017.7,E*64
01DE01,022591,00C486,$GPRMC,220244,A,5442.9420,N,11318.4638,W,000.0,326.1,210819,017.7,E*69
01DE01,022592,00C487,$GPRMC,220245,A,5442.9420,N,11318.4639,W,000.0,326.1,210819,017.7,E*69
01DDFD,02258B,00C485,$GPRMC,220246,A,5442.9421,N,11318.4640,W,000.0,326.1,210819,017.7,E*65
01DDFF,022590,00C486,$GPRMC,220247,A,5442.9422,N,11318.4641,W,000.0,326.1,210819,017.7,E*66
01DDFE,02258E,00C487,$GPRMC,220248,A,5442.9427,N,11318.4644,W,000.0,326.1,210819,017.7,E*69
01DDFC,02258C,00C485,$GPRMC,220249,A,5442.9433,N,11318.4647,W,000.0,326.1,210819,017.7,E*6E
01DE00,022592,00C487,$GPRMC,220250,A,5442.9438,N,11318.4649,W,000.0,326.1,210819,017.7,E*63
01DE00,022591,00C488,$GPRMC,220251,A,5442.9442,N,11318.4651,W,000.0,326.1,210819,017.7,E*66
01DDFD,02258E,00C486,$GPRMC,220252,A,5442.9445,N,11318.4654,W,000.0,326.1,210819,017.7,E*67
01DE00,022593,00C488,$GPRMC,220253,A,5442.9447,N,11318.4655,W,000.0,326.1,210819,017.7,E*65
01DDFD,02258E,00C486,$GPRMC,220254,A,5442.9451,N,11318.4657,W,000.0,326.1,210819,017.7,E*67
01DE00,022592,00C488,$GPRMC,220255,A,5442.9453,N,11318.4660,W,000.0,326.1,210819,017.7,E*60
01DE03,022596,00C48A,$GPRMC,220256,A,5442.9452,N,11318.4662,W,000.0,326.1,210819,017.7,E*60
01DE00,022591,00C488,$GPRMC,220257,A,5442.9454,N,11318.4665,W,000.0,326.1,210819,017.7,E*60
01DDFC,02258A,00C486,$GPRMC,220258,A,5442.9453,N,11318.4668,W,000.0,326.1,210819,017.7,E*65
01DE03,022594,00C489,$GPRMC,220259,A,5442.9456,N,11318.4670,W,000.0,326.1,210819,017.7,E*68
01DDFF,02258D,00C487,$GPRMC,220300,A,5442.9459,N,11318.4672,W,000.0,326.1,210819,017.7,E*68
01DE01,022592,00C489,$GPRMC,220301,A,5442.9461,N,11318.4675,W,000.0,326.1,210819,017.7,E*65
01DE03,022594,00C48A,$GPRMC,220302,A,5442.9463,N,11318.4677,W,000.0,326.1,210819,017.7,E*66
01DE00,022590,00C488,$GPRMC,220303,A,5442.9465,N,11318.4679,W,000.0,326.1,210819,017.7,E*6F
01DE00,02258B,00C489,$GPRMC,220304,A,5442.9467,N,11318.4682,W,000.0,326.1,210819,017.7,E*6E
01DDFF,02258A,00C489,$GPRMC,220305,A,5442.9466,N,11318.4682,W,000.0,326.1,210819,017.7,E*6E
01DDFF,022588,00C489,$GPRMC,220306,A,5442.9465,N,11318.4687,W,000.0,326.1,210819,017.7,E*6B
01DDFD,022586,00C488,$GPRMC,220307,A,5442.9463,N,11318.4690,W,000.0,326.1,210819,017.7,E*6A
01DE00,022589,00C489,$GPRMC,220308,A,5442.9464,N,11318.4692,W,000.0,326.1,210819,017.7,E*60
01DDFF,022588,00C489,$GPRMC,220309,A,5442.9466,N,11318.4695,W,000.0,326.1,210819,017.7,E*64
01DE01,02258C,00C48A,$GPRMC,220310,A,5442.9467,N,11318.4697,W,000.0,326.1,210819,017.7,E*6F
01DE02,02258D,00C48B,$GPRMC,220311,A,5442.9467,N,11318.4699,W,000.0,326.1,210819,017.7,E*60
01DE04,02258F,00C48C,$GPRMC,220312,A,5442.9468,N,11318.4700,W,000.0,326.1,210819,017.7,E*6D
01DE02,02258C,00C48A,$GPRMC,220313,A,5442.9467,N,11318.4701,W,000.0,326.1,210819,017.7,E*62
01DE01,02258B,00C48A,$GPRMC,220314,A,5442.9467,N,11318.4703,W,000.0,326.1,210819,017.7,E*67
01DDFB,022583,00C487,$GPRMC,220315,A,5442.9466,N,11318.4704,W,000.0,326.1,210819,017.7,E*60
01DE01,02258C,00C48B,$GPRMC,220316,A,5442.9462,N,11318.4701,W,000.0,326.1,210819,017.7,E*62
01DE03,022590,00C48C,$GPRMC,220317,A,5442.9462,N,11318.4702,W,000.0,326.1,210819,017.7,E*60
01DDFE,022589,00C489,$GPRMC,220318,A,5442.9462,N,11318.4702,W,000.0,326.1,210819,017.7,E*6F
01DE00,02258C,00C48B,$GPRMC,220319,A,5442.9461,N,11318.4700,W,000.0,326.1,210819,017.7,E*6F
01DDFB,022587,00C488,$GPRMC,220320,A,5442.9460,N,11318.4699,W,000.0,326.1,210819,017.7,E*65
01DDFF,02258B,00C48A,$GPRMC,220321,A,5442.9459,N,11318.4699,W,000.0,326.1,210819,017.7,E*6E
01DE02,02258F,00C48C,$GPRMC,220322,A,5442.9459,N,11318.4699,W,000.0,326.1,210819,017.7,E*6D
01DE00,02258D,00C48B,$GPRMC,220323,A,5442.9458,N,11318.4699,W,000.0,326.1,210819,017.7,E*6D
01DDFF,02258D,00C48B,$GPRMC,220324,A,5442.9457,N,11318.4700,W,000.0,326.1,210819,017.7,E*64
01DE00,02258C,00C48C,$GPRMC,220325,A,5442.9457,N,11318.4701,W,000.0,326.1,210819,017.7,E*64
01DDFB,022587,00C489,$GPRMC,220326,A,5442.9455,N,11318.4700,W,000.0,326.1,210819,017.7,E*64
01DDFC,022588,00C48A,$GPRMC,220327,A,5442.9455,N,11318.4700,W,000.0,326.1,210819,017.7,E*65
01DE00,02258D,00C48C,$GPRMC,220328,A,5442.9455,N,11318.4700,W,000.0,326.1,210819,017.7,E*6A
01DDFF,02258C,00C48C,$GPRMC,220329,A,5442.9455,N,11318.4701,W,000.0,326.1,210819,017.7,E*6A
01DE01,022590,00C48E,$GPRMC,220330,A,5442.9456,N,11318.4701,W,000.0,326.1,210819,017.7,E*61
01DDFF,02258D,00C48D,$GPRMC,220331,A,5442.9458,N,11318.4702,W,000.0,326.1,210819,017.7,E*6D
01DDFC,022587,00C48A,$GPRMC,220332,A,5442.9459,N,11318.4702,W,000.0,326.1,210819,017.7,E*6F
01DE01,02258F,00C48E,$GPRMC,220333,A,5442.9459,N,11318.4701,W,000.0,326.1,210819,017.7,E*6D
01DE03,022592,00C48F,$GPRMC,220334,A,5442.9462,N,11318.4701,W,000.0,326.1,210819,017.7,E*62
01DDFF,02258C,00C48C,$GPRMC,220335,A,5442.9460,N,11318.4702,W,000.0,326.1,210819,017.7,E*62
01DDFE,02258A,00C48B,$GPRMC,220336,A,5442.9461,N,11318.4703,W,000.0,326.1,210819,017.7,E*61
01DDFB,022586,00C48A,$GPRMC,220337,A,5442.9461,N,11318.4701,W,000.0,326.1,210819,017.7,E*62
01DE01,02258F,00C48D,$GPRMC,220338,A,5442.9461,N,11318.4701,W,000.0,326.1,210819,017.7,E*6D
01DDFE,02258A,00C48C,$GPRMC,220339,A,5442.9462,N,11318.4700,W,000.0,326.1,210819,017.7,E*6E
01DDFE,02258A,00C48C,$GPRMC,220340,A,5442.9460,N,11318.4699,W,000.0,326.1,210819,017.7,E*63
01DDFC,022588,00C48B,$GPRMC,220341,A,5442.9455,N,11318.4701,W,000.0,326.1,210819,017.7,E*64
01DDFE,02258B,00C48C,$GPRMC,220342,A,5442.9454,N,11318.4700,W,000.0,326.1,210819,017.7,E*67
01DE00,02258C,00C48D,$GPRMC,220343,A,5442.9454,N,11318.4700,W,000.0,326.1,210819,017.7,E*66
01DDFF,02258B,00C48D,$GPRMC,220344,A,5442.9452,N,11318.4701,W,000.0,326.1,210819,017.7,E*66
01DDFF,02258A,00C48C,$GPRMC,220345,A,5442.9452,N,11318.4699,W,000.0,326.1,210819,017.7,E*67
01DE00,02258B,00C48D,$GPRMC,220346,A,5442.9447,N,11318.4695,W,000.0,326.1,210819,017.7,E*6C
01DDFE,022589,00C48D,$GPRMC,220347,A,5442.9447,N,11318.4692,W,000.0,326.1,210819,017.7,E*6A
01DE01,02258E,00C48F,$GPRMC,220348,A,5442.9450,N,11318.4688,W,000.0,326.1,210819,017.7,E*68
01DDFC,022585,00C48B,$GPRMC,220349,A,5442.9449,N,11318.4685,W,000.0,326.1,210819,017.7,E*6C
01DDFF,022589,00C48D,$GPRMC,220350,A,5442.9450,N,11318.4683,W,000.0,326.1,210819,017.7,E*6A
01DDFD,022587,00C48D,$GPRMC,220351,A,5442.9450,N,11318.4680,W,000.0,326.1,210819,017.7,E*68
01DDFD,022588,00C48D,$GPRMC,220352,A,5442.9451,N,11318.4678,W,000.0,326.1,210819,017.7,E*6D
01DDFF,02258A,00C48E,$GPRMC,220353,A,5442.9451,N,11318.4676,W,000.0,326.1,210819,017.7,E*62
01DDFF,02258A,00C48E,$GPRMC,220354,A,5442.9451,N,11318.4675,W,000.0,326.1,210819,017.7,E*66
01DDFC,022586,00C48C,$GPRMC,220355,A,5442.9451,N,11318.4674,W,000.0,326.1,210819,017.7,E*66
01DDFC,022586,00C48C,$GPRMC,220356,A,5442.9455,N,11318.4675,W,000.0,326.1,210819,017.7,E*60
01DDFD,02258A,00C48C,$GPRMC,220357,A,5442.9455,N,11318.4675,W,000.0,326.1,210819,017.7,E*61
01DDFC,022588,00C48B,$GPRMC,220358,A,5442.9455,N,11318.4675,W,000.0,326.1,210819,017.7,E*6E
01DDF8,022584,00C488,$GPRMC,220359,A,5442.9454,N,11318.4676,W,000.0,326.1,210819,017.7,E*6D
01DDFD,022589,00C48B,$GPRMC,220400,A,5442.9454,N,11318.4675,W,000.0,326.1,210819,017.7,E*65
01DDFE,02258C,00C48B,$GPRMC,220401,A,5442.9455,N,11318.4673,W,000.0,326.1,210819,017.7,E*63
01DDFC,022588,00C48A,$GPRMC,220402,A,5442.9457,N,11318.4670,W,000.0,326.1,210819,017.7,E*61
01DDFC,02258A,00C48B,$GPRMC,220403,A,5442.9458,N,11318.4667,W,000.0,326.1,210819,017.7,E*69
01DDFA,022586,00C489,$GPRMC,220404,A,5442.9459,N,11318.4666,W,000.0,326.1,210819,017.7,E*6E
01DDFE,02258B,00C48C,$GPRMC,220405,A,5442.9456,N,11318.4665,W,000.0,326.1,210819,017.7,E*63
01DDFE,02258E,00C48D,$GPRMC,220406,A,5442.9453,N,11318.4664,W,000.0,326.1,210819,017.7,E*64
01DDFD,02258C,00C48C,$GPRMC,220407,A,5442.9454,N,11318.4663,W,000.0,326.1,210819,017.7,E*65
01DDFE,02258D,00C48C,$GPRMC,220408,A,5442.9454,N,11318.4661,W,000.0,326.1,210819,017.7,E*68
01DDFB,022588,00C48A,$GPRMC,220409,A,5442.9453,N,11318.4662,W,000.0,326.1,210819,017.7,E*6D
01DDF8,022583,00C488,$GPRMC,220410,A,5442.9454,N,11318.4660,W,000.0,326.1,210819,017.7,E*60
01DDFF,022591,00C489,$GPRMC,220411,A,5442.9456,N,11318.4658,W,000.0,326.1,210819,017.7,E*68
01DDFB,02258C,00C486,$GPRMC,220412,A,5442.9457,N,11318.4657,W,000.0,326.1,210819,017.7,E*65
01DE01,022596,00C48A,$GPRMC,220413,A,5442.9456,N,11318.4652,W,000.0,326.1,210819,017.7,E*60
01DDFB,02258F,00C487,$GPRMC,220414,A,5442.9455,N,11318.4652,W,000.0,326.1,210819,017.7,E*64
01DDFB,02258E,00C487,$GPRMC,220415,A,5442.9457,N,11318.4650,W,000.0,326.1,210819,017.7,E*65
01DDF8,02258A,00C486,$GPRMC,220416,A,5442.9456,N,11318.4650,W,000.0,326.1,210819,017.7,E*67
01DDFF,022592,00C489,$GPRMC,220417,A,5442.9457,N,11318.4649,W,000.0,326.1,210819,017.7,E*6F
01DDFA,02258C,00C486,$GPRMC,220418,A,5442.9453,N,11318.4653,W,000.0,326.1,210819,017.7,E*6F
01DDF7,022586,00C485,$GPRMC,220419,A,5442.9455,N,11318.4651,W,000.0,326.1,210819,017.7,E*6A
01DDFE,022590,00C48D,$GPRMC,220420,A,5442.9456,N,11318.4650,W,000.0,326.1,210819,017.7,E*62
01DDF9,02258A,00C48A,$GPRMC,220421,A,5442.9457,N,11318.4649,W,000.0,326.1,210819,017.7,E*6A
01DDFA,02258C,00C48B,$GPRMC,220422,A,5442.9459,N,11318.4646,W,000.0,326.1,210819,017.7,E*68
01DDF6,022586,00C489,$GPRMC,220423,A,5442.9460,N,11318.4645,W,000.0,326.1,210819,017.7,E*60
01DDFA,02258B,00C48B,$GPRMC,220424,A,5442.9461,N,11318.4643,W,000.0,326.1,210819,017.7,E*60
01DDFC,02258E,00C48C,$GPRMC,220425,A,5442.9462,N,11318.4642,W,000.0,326.1,210819,017.7,E*63
01DDF6,022586,00C488,$GPRMC,220426,A,5442.9464,N,11318.4641,W,000.0,326.1,210819,017.7,E*65
01DE00,022595,00C48F,$GPRMC,220427,A,5442.9465,N,11318.4639,W,000.0,326.1,210819,017.7,E*6A
01DDF8,022589,00C48A,$GPRMC,220428,A,5442.9466,N,11318.4638,W,000.0,326.1,210819,017.7,E*67
01DDFA,02258A,00C48B,$GPRMC,220429,A,5442.9467,N,11318.4636,W,000.0,326.1,210819,017.7,E*69
01DDF9,022589,00C48A,$GPRMC,220430,A,5442.9468,N,11318.4635,W,000.0,326.1,210819,017.7,E*6D
01DDFA,02258A,00C48A,$GPRMC,220431,A,5442.9470,N,11318.4634,W,000.0,326.1,210819,017.7,E*64
01DDFC,02258D,00C48C,$GPRMC,220432,A,5442.9471,N,11318.4632,W,000.0,326.1,210819,017.7,E*60
01DDF9,022588,00C48A,$GPRMC,220433,A,5442.9472,N,11318.4631,W,000.0,326.1,210819,017.7,E*61
01DDFF,022591,00C48D,$GPRMC,220434,A,5442.9473,N,11318.4629,W,000.0,326.1,210819,017.7,E*6E
01DDFD,02258B,00C48B,$GPRMC,220435,A,5442.9474,N,11318.4628,W,000.0,326.1,210819,017.7,E*69
01DDFC,02258C,00C48B,$GPRMC,220436,A,5442.9475,N,11318.4626,W,000.0,326.1,210819,017.7,E*65
01DDFF,02258F,00C48C,$GPRMC,220437,A,5442.9477,N,11318.4625,W,000.0,326.1,210819,017.7,E*65
01DDFC,02258A,00C48B,$GPRMC,220438,A,5442.9478,N,11318.4624,W,000.0,326.1,210819,017.7,E*64
01DE00,02258F,00C48D,$GPRMC,220439,A,5442.9479,N,11318.4622,W,000.0,326.1,210819,017.7,E*62
01DDFC,02258A,00C48B,$GPRMC,220440,A,5442.9480,N,11318.4621,W,000.0,326.1,210819,017.7,E*69
01DDF9,022585,00C48A,$GPRMC,220441,A,5442.9481,N,11318.4619,W,000.0,326.1,210819,017.7,E*62
01DDFB,022589,00C48B,$GPRMC,220442,A,5442.9482,N,11318.4618,W,000.0,326.1,210819,017.7,E*63
01DE00,02258F,00C48E,$GPRMC,220443,A,5442.9484,N,11318.4616,W,000.0,326.1,210819,017.7,E*6A
01DDFD,02258C,00C48C,$GPRMC,220444,A,5442.9485,N,11318.4615,W,000.0,326.1,210819,017.7,E*6F
01DE00,02258F,00C48E,$GPRMC,220445,A,5442.9486,N,11318.4614,W,000.0,326.1,210819,017.7,E*6C
01DDFA,022585,00C489,$GPRMC,220446,A,5442.9487,N,11318.4612,W,000.0,326.1,210819,017.7,E*68
01DDFF,02258D,00C48C,$GPRMC,220447,A,5442.9488,N,11318.4611,W,000.0,326.1,210819,017.7,E*65
01DDFE,02258C,00C48D,$GPRMC,220448,A,5442.9489,N,11318.4609,W,000.0,326.1,210819,017.7,E*62
01DDFD,02258A,00C48B,$GPRMC,220449,A,5442.9491,N,11318.4608,W,000.0,326.1,210819,017.7,E*6B
01DDFC,022588,00C48B,$GPRMC,220450,A,5442.9492,N,11318.4607,W,000.0,326.1,210819,017.7,E*6F
01DDFD,02258A,00C48B,$GPRMC,220451,A,5442.9493,N,11318.4605,W,000.0,326.1,210819,017.7,E*6D
01DDFD,02258A,00C48B,$GPRMC,220452,A,5442.9494,N,11318.4604,W,000.0,326.1,210819,017.7,E*68
01DDFF,02258E,00C48C,$GPRMC,220453,V,5442.9494,N,11318.4604,W,,,210819,017.7,E*78
01DDFB,022589,00C489,$GPRMC,220454,V,5442.9494,N,11318.4604,W,,,210819,017.7,E*7F
01DDF9,022586,00C488,$GPRMC,220455,V,5442.9494,N,11318.4604,W,,,210819,017.7,E*7E
01DDFA,022587,00C489,$GPRMC,220456,V,5442.9494,N,11318.4604,W,,,210819,017.7,E*7D
01DDFA,022587,00C488,$GPRMC,220457,V,5442.9494,N,11318.4604,W,,,210819,017.7,E*7C
01DDFB,022589,00C489,$GPRMC,220458,V,5442.9494,N,11318.4604,W,,,210819,017.7,E*73
01DDFA,022588,00C488,$GPRMC,220459,V,5442.9494,N,11318.4604,W,,,210819,017.7,E*72
01DDF9,022586,00C488,$GPRMC,220500,V,5442.9494,N,11318.4604,W,,,210819,017.7,E*7F
01DDFD,02258C,00C48B,$GPRMC,220501,V,5442.9494,N,11318.4604,W,,,210819,017.7,E*7E
01DDF7,022586,00C488,$GPRMC,220502,V,5442.9494,N,11318.4604,W,,,210819,017.7,E*7D
01DDF9,022587,00C488,$GPRMC,220503,V,5442.9494,N,11318.4604,W,,,210819,017.7,E*7C
01DDF8,022585,00C488,$GPRMC,220504,V,5442.9494,N,11318.4604,W,,,210819,017.7,E*7B
01DDF9,022589,00C489,$GPRMC,220505,V,5442.9494,N,11318.4604,W,,,210819,017.7,E*7A
01DDFB,02258B,00C489,$GPRMC,220506,V,5442.9494,N,11318.4604,W,,,210819,017.7,E*79
01DDFA,02258A,00C489,$GPRMC,220507,V,5442.9494,N,11318.4604,W,,,210819,017.7,E*78
01DDFB,02258B,00C48A,$GPRMC,220508,V,5442.9494,N,11318.4604,W,,,210819,017.7,E*77
01DDFA,022589,00C489,$GPRMC,220509,V,5442.9494,N,11318.4604,W,,,210819,017.7,E*76
01DDF9,022589,00C488,$GPRMC,220510,V,5442.9494,N,11318.4604,W,,,210819,017.7,E*7E
01DDFB,022589,00C489,$GPRMC,220511,V,5442.9494,N,11318.4604,W,,,210819,017.7,E*7F
01DDFB,02258A,00C489,$GPRMC,220512,V,5442.9494,N,11318.4604,W,,,210819,017.7,E*7C
01DDFD,02258D,00C48B,$GPRMC,220513,V,5442.9494,N,11318.4604,W,,,210819,017.7,E*7D
01DDFB,022588,00C489,$GPRMC,220514,V,5442.9494,N,11318.4604,W,,,210819,017.7,E*7A
01DDFA,022587,00C488,$GPRMC,220515,A,5442.9422,N,11318.4568,W,000.0,035.0,210819,017.7,E*6E
01DDFC,02258A,00C48A,$GPRMC,220516,A,5442.9421,N,11318.4566,W,000.0,035.0,210819,017.7,E*60
01DDFD,02258B,00C48A,$GPRMC,220517,A,5442.9419,N,11318.4565,W,000.0,035.0,210819,017.7,E*69
01DDFE,02258B,00C48A,$GPRMC,220518,A,5442.9417,N,11318.4564,W,000.0,035.0,210819,017.7,E*69
01DDFE,02258A,00C48A,$GPRMC,220519,A,5442.9468,N,11318.4568,W,000.0,326.1,210819,017.7,E*6C
01DDFD,022588,00C48A,$GPRMC,220520,A,5442.9485,N,11318.4576,W,000.0,326.1,210819,017.7,E*6A
01DDFC,022587,00C48A,$GPRMC,220521,A,5442.9486,N,11318.4575,W,000.0,326.1,210819,017.7,E*6B
01DDFF,02258B,00C48B,$GPRMC,220522,A,5442.9486,N,11318.4574,W,000.0,326.1,210819,017.7,E*69
01DDFD,022587,00C489,$GPRMC,220523,A,5442.9486,N,11318.4574,W,000.0,326.1,210819,017.7,E*68
01DE01,02258D,00C48C,$GPRMC,220524,A,5442.9501,N,11318.4545,W,000.0,326.1,210819,017.7,E*63
01DDFF,022589,00C48B,$GPRMC,220525,A,5442.9508,N,11318.4537,W,000.0,326.1,210819,017.7,E*6E
01DDFD,022587,00C48A,$GPRMC,220526,A,5442.9508,N,11318.4536,W,000.0,326.1,210819,017.7,E*6C
01DE00,02258B,00C48C,$GPRMC,220527,A,5442.9509,N,11318.4536,W,000.0,326.1,210819,017.7,E*6C
01DDFE,022588,00C48B,$GPRMC,220528,A,5442.9510,N,11318.4536,W,000.0,326.1,210819,017.7,E*6B
01DE00,02258A,00C48C,$GPRMC,220529,A,5442.9500,N,11318.4526,W,000.0,326.1,210819,017.7,E*6A
01DE02,02258E,00C48D,$GPRMC,220530,A,5442.9498,N,11318.4524,W,000.0,326.1,210819,017.7,E*60
01DE00,02258B,00C48C,$GPRMC,220531,A,5442.9496,N,11318.4525,W,000.0,326.1,210819,017.7,E*6E
01DE00,022589,00C48C,$GPRMC,220532,A,5442.9493,N,11318.4529,W,000.0,326.1,210819,017.7,E*64
01DDFC,022584,00C48A,$GPRMC,220533,A,5442.9490,N,11318.4533,W,000.0,326.1,210819,017.7,E*6D
01DE00,022589,00C48C,$GPRMC,220534,A,5442.9488,N,11318.4532,W,000.0,326.1,210819,017.7,E*62
01DDFF,02258B,00C48C,$GPRMC,220535,A,5442.9492,N,11318.4536,W,000.0,326.1,210819,017.7,E*6C
01DDFE,022588,00C48B,$GPRMC,220536,A,5442.9493,N,11318.4538,W,000.0,326.1,210819,017.7,E*60
01DDFD,022587,00C48A,$GPRMC,220537,A,5442.9492,N,11318.4537,W,000.0,326.1,210819,017.7,E*6F
01DE02,02258E,00C48E,$GPRMC,220538,A,5442.9487,N,11318.4547,W,000.0,326.1,210819,017.7,E*63
01DDFF,02258B,00C48C,$GPRMC,220539,A,5442.9487,N,11318.4550,W,000.0,326.1,210819,017.7,E*64
01DDFC,022587,00C48B,$GPRMC,220540,A,5442.9483,N,11318.4551,W,000.0,326.1,210819,017.7,E*6F
01DE02,022590,00C48E,$GPRMC,220541,A,5442.9480,N,11318.4553,W,000.0,326.1,210819,017.7,E*6F
01DE00,02258C,00C48D,$GPRMC,220542,A,5442.9479,N,11318.4553,W,000.0,326.1,210819,017.7,E*6A
01DDFF,02258C,00C48C,$GPRMC,220543,A,5442.9478,N,11318.4553,W,000.0,326.1,210819,017.7,E*6A
01DDFB,022584,00C489,$GPRMC,220544,A,5442.9477,N,11318.4553,W,000.0,326.1,210819,017.7,E*62
01DDFC,022587,00C489,$GPRMC,220545,A,5442.9478,N,11318.4558,W,000.0,326.1,210819,017.7,E*67
01DDFB,022586,00C489,$GPRMC,220546,A,5442.9477,N,11318.4558,W,000.0,326.1,210819,017.7,E*6B
01DDFD,022588,00C48A,$GPRMC,220547,A,5442.9475,N,11318.4558,W,000.0,326.1,210819,017.7,E*68
01DDFD,022587,00C489,$GPRMC,220548,A,5442.9474,N,11318.4558,W,000.0,326.1,210819,017.7,E*66
01DDFE,022588,00C48A,$GPRMC,220549,A,5442.9473,N,11318.4558,W,000.0,326.1,210819,017.7,E*60
01DDFF,02258A,00C48B,$GPRMC,220550,A,5442.9472,N,11318.4558,W,000.0,326.1,210819,017.7,E*69
01DDFE,022589,00C48A,$GPRMC,220551,A,5442.9471,N,11318.4558,W,000.0,326.1,210819,017.7,E*6B
01DDFD,022588,00C48A,$GPRMC,220552,A,5442.9470,N,11318.4558,W,000.0,326.1,210819,017.7,E*69
01DE00,02258A,00C48B,$GPRMC,220553,A,5442.9468,N,11318.4558,W,000.0,326.1,210819,017.7,E*61
01DDFE,022587,00C489,$GPRMC,220554,A,5442.9467,N,11318.4558,W,000.0,326.1,210819,017.7,E*69
01DE02,02258B,00C48B,$GPRMC,220555,A,5442.9466,N,11318.4558,W,000.0,326.1,210819,017.7,E*69
01DDFF,022589,00C48A,$GPRMC,220556,A,5442.9465,N,11318.4558,W,000.0,326.1,210819,017.7,E*69
01DE01,02258A,00C48C,$GPRMC,220557,A,5442.9470,N,11318.4561,W,000.0,326.1,210819,017.7,E*66
01DE01,022589,00C48B,$GPRMC,220558,A,5442.9469,N,11318.4561,W,000.0,326.1,210819,017.7,E*61
01DE00,022588,00C48B,$GPRMC,220559,A,5442.9468,N,11318.4561,W,000.0,326.1,210819,017.7,E*61
01DE03,02258B,00C48C,$GPRMC,220600,A,5442.9467,N,11318.4561,W,000.0,326.1,210819,017.7,E*61
01DE03,02258B,00C48C,$GPRMC,220601,A,5442.9466,N,11318.4561,W,000.0,326.1,210819,017.7,E*61
01DE02,02258A,00C48B,$GPRMC,220602,A,5442.9465,N,11318.4560,W,000.0,326.1,210819,017.7,E*60
01DE03,022588,00C48B,$GPRMC,220603,A,5442.9464,N,11318.4560,W,000.0,326.1,210819,017.7,E*60
01DE03,022589,00C48C,$GPRMC,220604,A,5442.9463,N,11318.4560,W,000.0,326.1,210819,017.7,E*60
01DE06,02258C,00C48E,$GPRMC,220605,A,5442.9462,N,11318.4560,W,000.0,326.1,210819,017.7,E*60
01DE02,022586,00C48B,$GPRMC,220606,A,5442.9461,N,11318.4560,W,000.0,326.1,210819,017.7,E*60
01DE03,022587,00C48B,$GPRMC,220607,A,5442.9460,N,11318.4560,W,000.0,326.1,210819,017.7,E*60
01DE01,022585,00C48A,$GPRMC,220608,A,5442.9459,N,11318.4560,W,000.0,326.1,210819,017.7,E*65
01DE02,022584,00C48B,$GPRMC,220609,A,5442.9458,N,11318.4560,W,000.0,326.1,210819,017.7,E*65
01DE03,022586,00C48B,$GPRMC,220610,A,5442.9457,N,11318.4560,W,000.0,326.1,210819,017.7,E*62
01DE02,022583,00C48A,$GPRMC,220611,A,5442.9456,N,11318.4560,W,000.0,326.1,210819,017.7,E*62
01DE01,022583,00C48A,$GPRMC,220612,A,5442.9455,N,11318.4560,W,000.0,326.1,210819,017.7,E*62
01DE03,022586,00C48C,$GPRMC,220613,A,5442.9454,N,11318.4560,W,000.0,326.1,210819,017.7,E*62
01DE02,022585,00C48C,$GPRMC,220614,A,5442.9453,N,11318.4559,W,000.0,326.1,210819,017.7,E*68
01DE03,022584,00C48C,$GPRMC,220615,A,5442.9452,N,11318.4559,W,000.0,326.1,210819,017.7,E*68
01DE02,022584,00C48C,$GPRMC,220616,A,5442.9451,N,11318.4559,W,000.0,326.1,210819,017.7,E*68
01DE01,022582,00C48C,$GPRMC,220617,A,5442.9450,N,11318.4559,W,000.0,326.1,210819,017.7,E*68
01DDFE,02257F,00C48A,$GPRMC,220618,A,5442.9449,N,11318.4559,W,000.0,326.1,210819,017.7,E*6F
01DE02,022584,00C48D,$GPRMC,220619,A,5442.9448,N,11318.4559,W,000.0,326.1,210819,017.7,E*6F
01DE02,022585,00C48D,$GPRMC,220620,A,5442.9447,N,11318.4559,W,000.0,326.1,210819,017.7,E*6A
01DE01,022584,00C48D,$GPRMC,220621,A,5442.9446,N,11318.4559,W,000.0,326.1,210819,017.7,E*6A
01DE01,022583,00C48D,$GPRMC,220622,A,5442.9445,N,11318.4559,W,000.0,326.1,210819,017.7,E*6A
01DE03,022586,00C48E,$GPRMC,220623,A,5442.9444,N,11318.4559,W,000.0,326.1,210819,017.7,E*6A
01DE05,022588,00C48F,$GPRMC,220624,A,5442.9443,N,11318.4559,W,000.0,326.1,210819,017.7,E*6A
01DE00,022580,00C48C,$GPRMC,220625,A,5442.9442,N,11318.4559,W,000.0,326.1,210819,017.7,E*6A
01DE04,022585,00C48E,$GPRMC,220626,A,5442.9441,N,11318.4558,W,000.0,326.1,210819,017.7,E*6B
01DE01,022582,00C48D,$GPRMC,220627,A,5442.9440,N,11318.4558,W,000.0,326.1,210819,017.7,E*6B
01DE01,022580,00C48C,$GPRMC,220628,V,5442.9440,N,11318.4558,W,,,210819,017.7,E*75
01DE01,022583,00C48D,$GPRMC,220629,V,5442.9440,N,11318.4558,W,,,210819,017.7,E*74
01DE01,022581,00C48C,$GPRMC,220630,V,5442.9440,N,11318.4558,W,,,210819,017.7,E*7C
01DE00,02257F,00C48B,$GPRMC,220631,V,5442.9440,N,11318.4558,W,,,210819,017.7,E*7D
01DDFF,02257E,00C48B,$GPRMC,220632,V,5442.9440,N,11318.4558,W,,,210819,017.7,E*7E
01DE00,02257F,00C48B,$GPRMC,220633,V,5442.9440,N,11318.4558,W,,,210819,017.7,E*7F
01DE01,022580,00C48C,$GPRMC,220634,V,5442.9440,N,11318.4558,W,,,210819,017.7,E*78
01DDFD,02257C,00C48A,$GPRMC,220635,V,5442.9440,N,11318.4558,W,,,210819,017.7,E*79
01DE03,022583,00C48D,$GPRMC,220636,V,5442.9440,N,11318.4558,W,,,210819,017.7,E*7A
01DDFA,022577,00C489,$GPRMC,220637,V,5442.9440,N,11318.4558,W,,,210819,017.7,E*7B
01DE02,022581,00C48D,$GPRMC,220638,V,5442.9440,N,11318.4558,W,,,210819,017.7,E*74
01DDFA,022576,00C489,$GPRMC,220639,V,5442.9440,N,11318.4558,W,,,210819,017.7,E*75
01DDFF,02257F,00C48B,$GPRMC,220640,V,5442.9440,N,11318.4558,W,,,210819,017.7,E*7B
01DDFF,02257D,00C48B,$GPRMC,220641,V,5442.9440,N,11318.4558,W,,,210819,017.7,E*7A
01DDFD,02257B,00C48A,$GPRMC,220642,V,5442.9440,N,11318.4558,W,,,210819,017.7,E*79
01DDFE,02257B,00C48A,$GPRMC,220643,V,5442.9440,N,11318.4558,W,,,210819,017.7,E*78
01DE00,02257E,00C48C,$GPRMC,220644,V,5442.9440,N,11318.4558,W,,,210819,017.7,E*7F
01DDFA,022576,00C487,$GPRMC,220645,V,5442.9440,N,11318.4558,W,,,210819,017.7,E*7E
01DDFE,02257B,00C48A,$GPRMC,220646,V,5442.9440,N,11318.4558,W,,,210819,017.7,E*7D
01DDFF,02257C,00C48A,$GPRMC,220647,V,5442.9440,N,11318.4558,W,,,210819,017.7,E*7C
01DE04,022583,00C48E,$GPRMC,220648,V,5442.9440,N,11318.4558,W,,,210819,017.7,E*73
01DDFE,02257C,00C48A,$GPRMC,220649,V,5442.9440,N,11318.4558,W,,,210819,017.7,E*72
01DE01,02257E,00C48B,$GPRMC,220650,V,5442.9440,N,11318.4558,W,,,210819,017.7,E*7A
01DDFF,02257B,00C48B,$GPRMC,220651,A,5442.9422,N,11318.4529,W,000.0,177.2,210819,017.7,E*6D
01DE00,02257C,00C48C,$GPRMC,220652,A,5442.9429,N,11318.4518,W,000.0,326.1,210819,017.7,E*62
01DE01,02257E,00C48C,$GPRMC,220653,A,5442.9430,N,11318.4512,W,000.0,326.1,210819,017.7,E*61
01DE03,02257D,00C490,$GPRMC,220654,A,5442.9426,N,11318.4517,W,000.0,326.1,210819,017.7,E*64
01DDEC,02255A,00C4CB,$GPRMC,220655,A,5442.9419,N,11318.4522,W,000.0,326.1,210819,017.7,E*6F
01DDC5,02255A,00C502,$GPRMC,220656,A,5442.9411,N,11318.4520,W,000.0,326.1,210819,017.7,E*66
01DDC1,022563,00C50A,$GPRMC,220657,A,5442.9413,N,11318.4521,W,000.0,326.1,210819,017.7,E*64
01DDC6,02255B,00C500,$GPRMC,220658,A,5442.9414,N,11318.4522,W,000.0,326.1,210819,017.7,E*6F
01DDC0,022557,00C4FD,$GPRMC,220659,A,5442.9416,N,11318.4522,W,000.0,326.1,210819,017.7,E*6C
01DDC5,02255E,00C501,$GPRMC,220700,A,5442.9418,N,11318.4523,W,000.0,326.1,210819,017.7,E*6E
01DDC0,02255A,00C4FF,$GPRMC,220701,A,5442.9420,N,11318.4524,W,000.0,326.1,210819,017.7,E*63
01DDC6,022562,00C502,$GPRMC,220702,A,5442.9422,N,11318.4525,W,000.0,326.1,210819,017.7,E*63
01DDC7,022562,00C502,$GPRMC,220703,A,5442.9423,N,11318.4525,W,000.0,326.1,210819,017.7,E*63
01DDC3,02255B,00C4FF,$GPRMC,220704,A,5442.9425,N,11318.4526,W,000.0,326.1,210819,017.7,E*61
01DDC2,02255C,00C4FE,$GPRMC,220705,A,5442.9427,N,11318.4527,W,000.0,326.1,210819,017.7,E*63
01DDC8,022561,00C501,$GPRMC,220706,A,5442.9429,N,11318.4528,W,000.0,326.1,210819,017.7,E*61
01DDC5,02255F,00C500,$GPRMC,220707,A,5442.9415,N,11318.4507,W,000.0,326.1,210819,017.7,E*62
01DDC6,02255D,00C500,$GPRMC,220708,A,5442.9409,N,11318.4490,W,000.0,326.1,210819,017.7,E*6F
01DDC7,022560,00C501,$GPRMC,220709,A,5442.9410,N,11318.4490,W,000.0,326.1,210819,017.7,E*66
01DDC5,02255E,00C500,$GPRMC,220710,A,5442.9411,N,11318.4490,W,000.0,326.1,210819,017.7,E*6F
01DDC4,022559,00C4FE,$GPRMC,220711,A,5442.9412,N,11318.4491,W,000.0,326.1,210819,017.7,E*6C
01DDCA,022561,00C501,$GPRMC,220712,A,5442.9413,N,11318.4491,W,000.0,326.1,210819,017.7,E*6E
01DDC8,022560,00C501,$GPRMC,220713,A,5442.9414,N,11318.4491,W,000.0,326.1,210819,017.7,E*68
01DDC7,02255D,00C500,$GPRMC,220714,A,5442.9415,N,11318.4491,W,000.0,326.1,210819,017.7,E*6E
01DDC4,022558,00C4FE,$GPRMC,220715,A,5442.9416,N,11318.4492,W,000.0,326.1,210819,017.7,E*6F
01DDC8,02255E,00C501,$GPRMC,220716,A,5442.9417,N,11318.4492,W,000.0,326.1,210819,017.7,E*6D
01DDCB,022562,00C503,$GPRMC,220717,A,5442.9418,N,11318.4492,W,000.0,326.1,210819,017.7,E*63
01DDCA,02255E,00C502,$GPRMC,220718,A,5442.9419,N,11318.4493,W,000.0,326.1,210819,017.7,E*6C
01DDC8,02255C,00C501,$GPRMC,220719,A,5442.9421,N,11318.4493,W,000.0,326.1,210819,017.7,E*66
01DDC8,02255B,00C501,$GPRMC,220720,A,5442.9422,N,11318.4493,W,000.0,326.1,210819,017.7,E*6F
01DDC8,02255A,00C501,$GPRMC,220721,A,5442.9423,N,11318.4493,W,000.0,326.1,210819,017.7,E*6F
01DDCE,02255F,00C503,$GPRMC,220722,A,5442.9424,N,11318.4494,W,000.0,326.1,210819,017.7,E*6C
01DDCA,022559,00C501,$GPRMC,220723,A,5442.9425,N,11318.4494,W,000.0,326.1,210819,017.7,E*6C
01DDCD,02255C,00C503,$GPRMC,220724,A,5442.9426,N,11318.4494,W,000.0,326.1,210819,017.7,E*68
01DDC9,022557,00C5FF,$GPRMC,220725,A,5442.9427,N,11318.4495,W,000.0,326.1,210819,017.7,E*69
01DDC9,022557,00C500,$GPRMC,220726,A,5442.9428,N,11318.4495,W,000.0,326.1,210819,017.7,E*65
01DDD0,02255F,00C504,$GPRMC,220727,A,5442.9429,N,11318.4495,W,000.0,326.1,210819,017.7,E*65
01DDCE,022560,00C503,$GPRMC,220728,A,5442.9430,N,11318.4495,W,000.0,326.1,210819,017.7,E*62
01DDCB,022558,00C501,$GPRMC,220729,A,5442.9431,N,11318.4496,W,000.0,326.1,210819,017.7,E*61
01DDD0,022562,00C504,$GPRMC,220730,A,5442.9432,N,11318.4496,W,000.0,326.1,210819,017.7,E*6A
01DDCA,022558,00C501,$GPRMC,220731,A,5442.9434,N,11318.4496,W,000.0,326.1,210819,017.7,E*6D
01DDCC,02255D,00C503,$GPRMC,220732,A,5442.9435,N,11318.4497,W,000.0,326.1,210819,017.7,E*6E
01DDCD,02255E,00C503,$GPRMC,220733,A,5442.9436,N,11318.4497,W,000.0,326.1,210819,017.7,E*6C
01DDCD,02255F,00C503,$GPRMC,220734,A,5442.9437,N,11318.4497,W,000.0,326.1,210819,017.7,E*6A
01DDCA,02255A,00C501,$GPRMC,220735,A,5442.9438,N,11318.4497,W,000.0,326.1,210819,017.7,E*64
01DDCF,022562,00C504,$GPRMC,220736,A,5442.9439,N,11318.4498,W,000.0,326.1,210819,017.7,E*69
01DDCF,022563,00C504,$GPRMC,220737,A,5442.9440,N,11318.4498,W,000.0,326.1,210819,017.7,E*66
01DDCD,02255E,00C503,$GPRMC,220738,A,5442.9441,N,11318.4498,W,000.0,326.1,210819,017.7,E*68
01DDCF,022563,00C504,$GPRMC,220739,V,5442.9441,N,11318.4498,W,,,210819,017.7,E*78
01DDCD,022560,00C503,$GPRMC,220740,V,5442.9441,N,11318.4498,W,,,210819,017.7,E*76
01DDCB,02255E,00C502,$GPRMC,220741,V,5442.9441,N,11318.4498,W,,,210819,017.7,E*77
01DDCD,022560,00C504,$GPRMC,220742,V,5442.9441,N,11318.4498,W,,,210819,017.7,E*74
01DDC9,02255A,00C502,$GPRMC,220743,V,5442.9441,N,11318.4498,W,,,210819,017.7,E*75
01DDCC,02255F,00C503,$GPRMC,220744,V,5442.9441,N,11318.4498,W,,,210819,017.7,E*72
01DDCD,022560,00C504,$GPRMC,220745,V,5442.9441,N,11318.4498,W,,,210819,017.7,E*73
01DDCD,022561,00C504,$GPRMC,220746,V,5442.9441,N,11318.4498,W,,,210819,017.7,E*70
01DDC9,02255B,00C501,$GPRMC,220747,V,5442.9441,N,11318.4498,W,,,210819,017.7,E*71
01DDC8,02255B,00C501,$GPRMC,220748,V,5442.9441,N,11318.4498,W,,,210819,017.7,E*7E
01DDCA,02255D,00C502,$GPRMC,220749,V,5442.9441,N,11318.4498,W,,,210819,017.7,E*7F
01DDCA,02255C,00C502,$GPRMC,220750,V,5442.9441,N,11318.4498,W,,,210819,017.7,E*77
01DDC7,022559,00C500,$GPRMC,220751,V,5442.9441,N,11318.4498,W,,,210819,017.7,E*76
01DDCB,02255E,00C502,$GPRMC,220752,V,5442.9441,N,11318.4498,W,,,210819,017.7,E*75
01DDC9,02255C,00C502,$GPRMC,220753,V,5442.9441,N,11318.4498,W,,,210819,017.7,E*74
01DDC8,02255A,00C500,$GPRMC,220754,V,5442.9441,N,11318.4498,W,,,210819,017.7,E*73
01DDC7,022559,00C500,$GPRMC,220755,V,5442.9441,N,11318.4498,W,,,210819,017.7,E*72
01DDC7,022559,00C5FF,$GPRMC,220756,V,5442.9441,N,11318.4498,W,,,210819,017.7,E*71
01DDC6,022558,00C4FF,$GPRMC,220757,V,5442.9441,N,11318.4498,W,,,210819,017.7,E*70
01DDC8,02255B,00C501,$GPRMC,220758,V,5442.9441,N,11318.4498,W,,,210819,017.7,E*7F
01DDC4,022556,00C4FE,$GPRMC,220759,V,5442.9441,N,11318.4498,W,,,210819,017.7,E*7E
01DDC6,022559,00C500,$GPRMC,220800,V,5442.9441,N,11318.4498,W,,,210819,017.7,E*7D
01DDC7,02255B,00C501,$GPRMC,220801,V,5442.9441,N,11318.4498,W,,,210819,017.7,E*7C
01DDC6,022558,00C500,$GPRMC,220802,V,5442.9441,N,11318.4498,W,,,210819,017.7,E*7F
01DDC6,022558,00C500,$GPRMC,220803,V,5442.9441,N,11318.4498,W,,,210819,017.7,E*7E
01DDC4,022557,00C500,$GPRMC,220804,V,5442.9441,N,11318.4498,W,,,210819,017.7,E*79
01DDC8,02255B,00C501,$GPRMC,220805,V,5442.9441,N,11318.4498,W,,,210819,017.7,E*78
01DDC2,022554,00C4FE,$GPRMC,220806,V,5442.9441,N,11318.4498,W,,,210819,017.7,E*7B
01DDC3,022558,00C4FF,$GPRMC,220807,V,5442.9441,N,11318.4498,W,,,210819,017.7,E*7A
01DDC6,022559,00C4FE,$GPRMC,220808,V,5442.9441,N,11318.4498,W,,,210819,017.7,E*75
01DDC7,02255B,00C4FE,$GPRMC,220809,V,5442.9441,N,11318.4498,W,,,210819,017.7,E*74
01DDC9,02255D,00C5FF,$GPRMC,220810,V,5442.9441,N,11318.4498,W,,,210819,017.7,E*7C
01DDC7,02255B,00C4FD,$GPRMC,220811,V,5442.9441,N,11318.4498,W,,,210819,017.7,E*7D
01DDC6,022559,00C4FC,$GPRMC,220812,V,5442.9441,N,11318.4498,W,,,210819,017.7,E*7E
01DDC9,02255B,00C4FE,$GPRMC,220813,V,5442.9441,N,11318.4498,W,,,210819,017.7,E*7F
01DDCD,02255E,00C4FF,$GPRMC,220814,V,5442.9441,N,11318.4498,W,,,210819,017.7,E*78
01DDCC,022559,00C4FD,$GPRMC,220815,V,5442.9441,N,11318.4498,W,,,210819,017.7,E*79
01DDCC,02255A,00C4FE,$GPRMC,220816,V,5442.9441,N,11318.4498,W,,,210819,017.7,E*7A
01DDCB,022557,00C4FC,$GPRMC,220817,V,5442.9441,N,11318.4498,W,,,210819,017.7,E*7B
01DDCA,022558,00C4FC,$GPRMC,220818,V,5442.9441,N,11318.4498,W,,,210819,017.7,E*74
01DDCB,022558,00C4FC,$GPRMC,220819,V,5442.9441,N,11318.4498,W,,,210819,017.7,E*75
01DDCA,022557,00C4FB,$GPRMC,220820,V,5442.9441,N,11318.4498,W,,,210819,017.7,E*7F
01DDCD,02255B,00C4FD,$GPRMC,220821,V,5442.9441,N,11318.4498,W,,,210819,017.7,E*7E
01DDC9,022556,00C4FB,$GPRMC,220822,V,5442.9441,N,11318.4498,W,,,210819,017.7,E*7D
01DDCA,022558,00C4FC,$GPRMC,220823,V,5442.9441,N,11318.4498,W,,,210819,017.7,E*7C
01DDCB,02255A,00C4FC,$GPRMC,220824,V,5442.9441,N,11318.4498,W,,,210819,017.7,E*7B
01DDC9,022556,00C4FB,$GPRMC,220825,V,5442.9441,N,11318.4498,W,,,210819,017.7,E*7A
01DDC9,022557,00C4FB,$GPRMC,220826,V,5442.9441,N,11318.4498,W,,,210819,017.7,E*79
01DDC9,022557,00C4FA,$GPRMC,220827,V,5442.9441,N,11318.4498,W,,,210819,017.7,E*78
01DDCD,02255C,00C4FD,$GPRMC,220828,V,5442.9441,N,11318.4498,W,,,210819,017.7,E*77
01DDCE,02255D,00C4FE,$GPRMC,220829,V,5442.9441,N,11318.4498,W,,,210819,017.7,E*76
01DDCA,022558,00C4FB,$GPRMC,220830,V,5442.9441,N,11318.4498,W,,,210819,017.7,E*7E
01DDCA,022558,00C4FB,$GPRMC,220831,V,5442.9441,N,11318.4498,W,,,210819,017.7,E*7F
01DDCA,022558,00C4FC,$GPRMC,220832,V,5442.9441,N,11318.4498,W,,,210819,017.7,E*7C
01DDCD,02255C,00C4FD,$GPRMC,220833,V,5442.9441,N,11318.4498,W,,,210819,017.7,E*7D
01DDCD,02255C,00C4FD,$GPRMC,220834,V,5442.9441,N,11318.4498,W,,,210819,017.7,E*7A
01DDCC,02255B,00C4FD,$GPRMC,220835,V,5442.9441,N,11318.4498,W,,,210819,017.7,E*7B
01DDCD,02255A,00C4FC,$GPRMC,220836,V,5442.9441,N,11318.4498,W,,,210819,017.7,E*78
01DDCA,022557,00C4FA,$GPRMC,220837,V,5442.9441,N,11318.4498,W,,,210819,017.7,E*79
01DDCB,022559,00C4FB,$GPRMC,220838,V,5442.9441,N,11318.4498,W,,,210819,017.7,E*76
01DDD0,022561,00C4FE,$GPRMC,220839,V,5442.9441,N,11318.4498,W,,,210819,017.7,E*77
01DDCC,02255A,00C4FC,$GPRMC,220840,V,5442.9441,N,11318.4498,W,,,210819,017.7,E*79
01DDCF,022560,00C4FE,$GPRMC,220841,V,5442.9441,N,11318.4498,W,,,210819,017.7,E*78
01DDCC,02255B,00C4FB,$GPRMC,220842,V,5442.9441,N,11318.4498,W,,,210819,017.7,E*7B
01DDCE,02255D,00C4FC,$GPRMC,220843,V,5442.9441,N,11318.4498,W,,,210819,017.7,E*7A
01DDCF,022560,00C4FE,$GPRMC,220844,V,5442.9441,N,11318.4498,W,,,210819,017.7,E*7D
01DDCC,02255B,00C4FB,$GPRMC,220845,V,5442.9441,N,11318.4498,W,,,210819,017.7,E*7C
01DDCE,02255D,00C4FC,$GPRMC,220846,V,5442.9441,N,11318.4498,W,,,210819,017.7,E*7F
01DDCE,02255D,00C4FC,$GPRMC,220847,V,5442.9441,N,11318.4498,W,,,210819,017.7,E*7E
01DDCD,02255C,00C4FC,$GPRMC,220848,V,5442.9441,N,11318.4498,W,,,210819,017.7,E*71
01DDCE,02255E,00C4FC,$GPRMC,220849,V,5442.9441,N,11318.4498,W,,,210819,017.7,E*70
01DDCC,02255B,00C4FB,$GPRMC,220850,V,5442.9441,N,11318.4498,W,,,210819,017.7,E*78
01DDCE,02255E,00C4FD,$GPRMC,220851,V,5442.9441,N,11318.4498,W,,,210819,017.7,E*79
01DDCE,02255E,00C4FC,$GPRMC,220852,V,5442.9441,N,11318.4498,W,,,210819,017.7,E*7A
01DDD2,022563,00C4FE,$GPRMC,220853,V,5442.9441,N,11318.4498,W,,,210819,017.7,E*7B
01DDCE,02255F,00C4FB,$GPRMC,220854,V,5442.9441,N,11318.4498,W,,,210819,017.7,E*7C
01DDCC,02256A,00C4F4,$GPRMC,220855,V,5442.9441,N,11318.4498,W,,,210819,017.7,E*7D
01DDD4,022591,00C4F4,$GPRMC,220856,V,5442.9441,N,11318.4498,W,,,210819,017.7,E*7E
01DDCB,02258F,00C4ED,$GPRMC,220857,V,5442.9441,N,11318.4498,W,,,210819,017.7,E*7F
01DDCF,022597,00C4F0,$GPRMC,220858,V,5442.9441,N,11318.4498,W,,,210819,017.7,E*70
01DDCD,022594,00C4EE,$GPRMC,220859,V,5442.9441,N,11318.4498,W,,,210819,017.7,E*71
01DDCD,022593,00C4EE,$GPRMC,220900,V,5442.9441,N,11318.4498,W,,,210819,017.7,E*7C
01DDCD,022593,00C4EF,$GPRMC,220901,V,5442.9441,N,11318.4498,W,,,210819,017.7,E*7D
01DDCD,022592,00C4EF,$GPRMC,220902,V,5442.9441,N,11318.4498,W,,,210819,017.7,E*7E
01DDCD,022591,00C4EE,$GPRMC,220903,V,5442.9441,N,11318.4498,W,,,210819,017.7,E*7F
01DDCC,022590,00C4EF,$GPRMC,220904,V,5442.9441,N,11318.4498,W,,,210819,017.7,E*78
01DDCB,022590,00C4EF,$GPRMC,220905,V,5442.9441,N,11318.4498,W,,,210819,017.7,E*79
01DDCC,022591,00C4F0,$GPRMC,220906,V,5442.9441,N,11318.4498,W,,,210819,017.7,E*7A
01DDCA,02258D,00C4EE,$GPRMC,220907,V,5442.9441,N,11318.4498,W,,,210819,017.7,E*7B
01DDCF,022595,00C4F2,$GPRMC,220908,V,5442.9441,N,11318.4498,W,,,210819,017.7,E*74
01DDCD,022592,00C4F0,$GPRMC,220909,V,5442.9441,N,11318.4498,W,,,210819,017.7,E*75
01DDCE,022593,00C4F0,$GPRMC,220910,V,5442.9441,N,11318.4498,W,,,210819,017.7,E*7D
01DDCC,02258F,00C4F0,$GPRMC,220911,V,5442.9441,N,11318.4498,W,,,210819,017.7,E*7C
01DDCD,022592,00C4F1,$GPRMC,220912,V,5442.9441,N,11318.4498,W,,,210819,017.7,E*7F
01DDCC,02258F,00C4EF,$GPRMC,220913,V,5442.9441,N,11318.4498,W,,,210819,017.7,E*7E
01DDCF,022595,00C4F1,$GPRMC,220914,V,5442.9441,N,11318.4498,W,,,210819,017.7,E*79
01DDCD,022591,00C4F0,$GPRMC,220915,V,5442.9441,N,11318.4498,W,,,210819,017.7,E*78
01DDD0,022595,00C4F3,$GPRMC,220916,V,5442.9441,N,11318.4498,W,,,210819,017.7,E*7B
01DDD0,022595,00C4F2,$GPRMC,220917,V,5442.9441,N,11318.4498,W,,,210819,017.7,E*7A
01DDD1,022598,00C4F2,$GPRMC,220918,V,5442.9441,N,11318.4498,W,,,210819,017.7,E*75
01DDCB,02258D,00C4EE,$GPRMC,220919,V,5442.9441,N,11318.4498,W,,,210819,017.7,E*74
01DDCF,022595,00C4F2,$GPRMC,220920,V,5442.9441,N,11318.4498,W,,,210819,017.7,E*7E
01DDCE,022593,00C4F0,$GPRMC,220921,V,5442.9441,N,11318.4498,W,,,210819,017.7,E*7F
01DDCE,022594,00C4F0,$GPRMC,220922,V,5442.9441,N,11318.4498,W,,,210819,017.7,E*7C
01DDCD,022592,00C4F0,$GPRMC,220923,V,5442.9441,N,11318.4498,W,,,210819,017.7,E*7D
01DDCE,022594,00C4F0,$GPRMC,220924,V,5442.9441,N,11318.4498,W,,,210819,017.7,E*7A
01DDCC,022592,00C4EF,$GPRMC,220925,V,5442.9441,N,11318.4498,W,,,210819,017.7,E*7B
01DDCE,022594,00C4F0,$GPRMC,220926,V,5442.9441,N,11318.4498,W,,,210819,017.7,E*78
01DDCE,022593,00C4F0,$GPRMC,220927,V,5442.9441,N,11318.4498,W,,,210819,017.7,E*79
01DDCF,022597,00C4F1,$GPRMC,220928,V,5442.9441,N,11318.4498,W,,,210819,017.7,E*76
01DDCB,022591,00C4EF,$GPRMC,220929,V,5442.9441,N,11318.4498,W,,,210819,017.7,E*77
01DDCF,022596,00C4F0,$GPRMC,220930,V,5442.9441,N,11318.4498,W,,,210819,017.7,E*7F
01DDCB,022593,00C4EE,$GPRMC,220931,V,5442.9441,N,11318.4498,W,,,210819,017.7,E*7E
01DDCE,022595,00C4EF,$GPRMC,220932,V,5442.9441,N,11318.4498,W,,,210819,017.7,E*7D
01DDCE,022595,00C4EF,$GPRMC,220933,V,5442.9441,N,11318.4498,W,,,210819,017.7,E*7C
01DDCD,022594,00C4EF,$GPRMC,220934,V,5442.9441,N,11318.4498,W,,,210819,017.7,E*7B
01DDCE,022596,00C4F0,$GPRMC,220935,V,5442.9441,N,11318.4498,W,,,210819,017.7,E*7A
01DDCD,022594,00C4EF,$GPRMC,220936,V,5442.9441,N,11318.4498,W,,,210819,017.7,E*79
01DDCD,022595,00C4EF,$GPRMC,220937,V,5442.9441,N,11318.4498,W,,,210819,017.7,E*78
01DDCD,022593,00C4EE,$GPRMC,220938,V,5442.9441,N,11318.4498,W,,,210819,017.7,E*77
01DDCC,022593,00C4EE,$GPRMC,220939,V,5442.9441,N,11318.4498,W,,,210819,017.7,E*76
01DDCE,022595,00C4F0,$GPRMC,220940,V,5442.9441,N,11318.4498,W,,,210819,017.7,E*78
01DDCD,022593,00C4EF,$GPRMC,220941,V,5442.9441,N,11318.4498,W,,,210819,017.7,E*79
01DDCD,022593,00C4F0,$GPRMC,220942,V,5442.9441,N,11318.4498,W,,,210819,017.7,E*7A
01DDCE,022596,00C4F0,$GPRMC,220943,V,5442.9441,N,11318.4498,W,,,210819,017.7,E*7B
01DDCF,022595,00C4F0,$GPRMC,220944,V,5442.9441,N,11318.4498,W,,,210819,017.7,E*7C
01DDD0,022596,00C4F1,$GPRMC,220945,V,5442.9441,N,11318.4498,W,,,210819,017.7,E*7D
01DDCD,022592,00C4F0,$GPRMC,220946,V,5442.9441,N,11318.4498,W,,,210819,017.7,E*7E
01DDD0,022596,00C4F1,$GPRMC,220947,V,5442.9441,N,11318.4498,W,,,210819,017.7,E*7F
01DDD0,022594,00C4F0,$GPRMC,220948,V,5442.9441,N,11318.4498,W,,,210819,017.7,E*70
01DDD2,022599,00C4F2,$GPRMC,220949,V,5442.9441,N,11318.4498,W,,,210819,017.7,E*71
01DDD3,022599,00C4F2,$GPRMC,220950,V,5442.9441,N,11318.4498,W,,,210819,017.7,E*79
01DDD6,02259C,00C4F4,$GPRMC,220951,V,5442.9441,N,11318.4498,W,,,210819,017.7,E*78
01DDD5,02259A,00C4F3,$GPRMC,220952,V,5442.9441,N,11318.4498,W,,,210819,017.7,E*7B
01DDD7,02259D,00C4F5,$GPRMC,220953,V,5442.9441,N,11318.4498,W,,,210819,017.7,E*7A
01DDD4,022599,00C4F3,$GPRMC,220954,V,5442.9441,N,11318.4498,W,,,210819,017.7,E*7D
01DDD6,02259B,00C4F4,$GPRMC,220955,V,5442.9441,N,11318.4498,W,,,210819,017.7,E*7C
01DDD7,02259C,00C4F5,$GPRMC,220956,V,5442.9441,N,11318.4498,W,,,210819,017.7,E*7F
01DDD4,022598,00C4F3,$GPRMC,220957,V,5442.9441,N,11318.4498,W,,,210819,017.7,E*7E
01DDD9,02259E,00C4F5,$GPRMC,220958,V,5442.9441,N,11318.4498,W,,,210819,017.7,E*71
01DDD7,02259B,00C4F4,$GPRMC,220959,V,5442.9441,N,11318.4498,W,,,210819,017.7,E*70
01DDD5,022599,00C4F3,$GPRMC,221000,V,5442.9441,N,11318.4498,W,,,210819,017.7,E*74
01DDD5,022598,00C4F3,$GPRMC,221001,V,5442.9441,N,11318.4498,W,,,210819,017.7,E*75
01DDD8,02259D,00C4F4,$GPRMC,221002,V,5442.9441,N,11318.4498,W,,,210819,017.7,E*76
01DDD5,02259A,00C4F2,$GPRMC,221003,V,5442.9441,N,11318.4498,W,,,210819,017.7,E*77
01DDD4,022597,00C4F2,$GPRMC,221004,V,5442.9441,N,11318.4498,W,,,210819,017.7,E*70
01DDD9,02259E,00C4F5,$GPRMC,221005,V,5442.9441,N,11318.4498,W,,,210819,017.7,E*71
01DDD6,02259B,00C4F3,$GPRMC,221006,V,5442.9441,N,11318.4498,W,,,210819,017.7,E*72
01DDD5,02259A,00C4F2,$GPRMC,221007,V,5442.9441,N,11318.4498,W,,,210819,017.7,E*73
01DDD7,02259E,00C4F4,$GPRMC,221008,V,5442.9441,N,11318.4498,W,,,210819,017.7,E*7C
01DDD4,022599,00C4F2,$GPRMC,221009,V,5442.9441,N,11318.4498,W,,,210819,017.7,E*7D
01DDD5,02259B,00C4F2,$GPRMC,221010,V,5442.9441,N,11318.4498,W,,,210819,017.7,E*75
01DDD7,02259D,00C4F3,$GPRMC,221011,V,5442.9441,N,11318.4498,W,,,210819,017.7,E*74
01DDD4,02259B,00C4F2,$GPRMC,221012,V,5442.9441,N,11318.4498,W,,,210819,017.7,E*77
01DDD3,022599,00C4F1,$GPRMC,221013,V,5442.9441,N,11318.4498,W,,,210819,017.7,E*76
01DDD6,02259D,00C4F3,$GPRMC,221014,V,5442.9441,N,11318.4498,W,,,210819,017.7,E*71
01DDD7,02259F,00C4F3,$GPRMC,221015,V,5442.9441,N,11318.4498,W,,,210819,017.7,E*70
01DDD5,02259C,00C4F2,$GPRMC,221016,V,5442.9441,N,11318.4498,W,,,210819,017.7,E*73
01DDD7,02259E,00C4F3,$GPRMC,221017,V,5442.9441,N,11318.4498,W,,,210819,017.7,E*72
01DDD5,02259C,00C4F1,$GPRMC,221018,V,5442.9441,N,11318.4498,W,,,210819,017.7,E*7D
01DDD3,02259A,00C4F1,$GPRMC,221019,V,5442.9441,N,11318.4498,W,,,210819,017.7,E*7C
01DDD4,02259B,00C4F1,$GPRMC,221020,V,5442.9441,N,11318.4498,W,,,210819,017.7,E*76
01DDD5,02259D,00C4F2,$GPRMC,221021,V,5442.9441,N,11318.4498,W,,,210819,017.7,E*77
01DDD6,02259E,00C4F2,$GPRMC,221022,V,5442.9441,N,11318.4498,W,,,210819,017.7,E*74
01DDD6,02259C,00C4F2,$GPRMC,221023,V,5442.9441,N,11318.4498,W,,,210819,017.7,E*75
01DDD5,02259B,00C4F2,$GPRMC,221024,V,5442.9441,N,11318.4498,W,,,210819,017.7,E*72
01DDD5,02259B,00C4F2,$GPRMC,221025,V,5442.9441,N,11318.4498,W,,,210819,017.7,E*73
01DDD5,02259B,00C4F2,$GPRMC,221026,V,5442.9441,N,11318.4498,W,,,210819,017.7,E*70
01DDD6,02259C,00C4F2,$GPRMC,221027,V,5442.9441,N,11318.4498,W,,,210819,017.7,E*71
01DDD5,02259B,00C4F2,$GPRMC,221028,V,5442.9441,N,11318.4498,W,,,210819,017.7,E*7E
01DDD4,022599,00C4F1,$GPRMC,221029,V,5442.9441,N,11318.4498,W,,,210819,017.7,E*7F
01DDD3,022595,00C4F0,$GPRMC,221030,V,5442.9441,N,11318.4498,W,,,210819,017.7,E*77
01DDD3,022597,00C4F1,$GPRMC,221031,V,5442.9441,N,11318.4498,W,,,210819,017.7,E*76
01DDD4,022598,00C4F1,$GPRMC,221032,V,5442.9441,N,11318.4498,W,,,210819,017.7,E*75
01DDD4,022595,00C4F1,$GPRMC,221033,V,5442.9441,N,11318.4498,W,,,210819,017.7,E*74
01DDD3,022595,00C4F1,$GPRMC,221034,V,5442.9441,N,11318.4498,W,,,210819,017.7,E*73
01DDD5,022597,00C4F1,$GPRMC,221035,V,5442.9441,N,11318.4498,W,,,210819,017.7,E*72
01DDD5,022597,00C4F1,$GPRMC,221036,V,5442.9441,N,11318.4498,W,,,210819,017.7,E*71
01DDD4,022596,00C4F0,$GPRMC,221037,V,5442.9441,N,11318.4498,W,,,210819,017.7,E*70
01DDD4,022596,00C4F0,$GPRMC,221038,V,5442.9441,N,11318.4498,W,,,210819,017.7,E*7F
01DDD7,02259A,00C4F1,$GPRMC,221039,V,5442.9441,N,11318.4498,W,,,210819,017.7,E*7E
01DDD6,022598,00C4F1,$GPRMC,221040,V,5442.9441,N,11318.4498,W,,,210819,017.7,E*70
01DDD7,022599,00C4F1,$GPRMC,221041,V,5442.9441,N,11318.4498,W,,,210819,017.7,E*71
01DDD6,022599,00C4F1,$GPRMC,221042,V,5442.9441,N,11318.4498,W,,,210819,017.7,E*72
01DDD5,022597,00C4F0,$GPRMC,221043,V,5442.9441,N,11318.4498,W,,,210819,017.7,E*73
01DDD6,022598,00C4F0,$GPRMC,221044,V,5442.9441,N,11318.4498,W,,,210819,017.7,E*74
01DDD8,02259A,00C4F2,$GPRMC,221045,V,5442.9441,N,11318.4498,W,,,210819,017.7,E*75
01DDD7,02259A,00C4F1,$GPRMC,221046,V,5442.9441,N,11318.4498,W,,,210819,017.7,E*76
01DDD6,022599,00C4F0,$GPRMC,221047,V,5442.9441,N,11318.4498,W,,,210819,017.7,E*77
01DDD6,022598,00C4F0,$GPRMC,221048,V,5442.9441,N,11318.4498,W,,,210819,017.7,E*78
01DDD5,022598,00C4F1,$GPRMC,221049,V,5442.9441,N,11318.4498,W,,,210819,017.7,E*79
01DDD8,02259A,00C4F2,$GPRMC,221050,V,5442.9441,N,11318.4498,W,,,210819,017.7,E*71
01DDD8,02259C,00C4F2,$GPRMC,221051,V,5442.9441,N,11318.4498,W,,,210819,017.7,E*70
01DDD8,02259D,00C4F1,$GPRMC,221052,V,5442.9441,N,11318.4498,W,,,210819,017.7,E*73
01DDD5,022599,00C4F0,$GPRMC,221053,V,5442.9441,N,11318.4498,W,,,210819,017.7,E*72
01DDD4,022598,00C4F0,$GPRMC,221054,V,5442.9441,N,11318.4498,W,,,210819,017.7,E*75
01DDD5,022598,00C4F1,$GPRMC,221055,V,5442.9441,N,11318.4498,W,,,210819,017.7,E*74
01DDD4,022598,00C4F0,$GPRMC,221056,V,5442.9441,N,11318.4498,W,,,210819,017.7,E*77
01DDD3,022596,00C4EF,$GPRMC,221057,V,5442.9441,N,11318.4498,W,,,210819,017.7,E*76
01DDD5,022599,00C4F0,$GPRMC,221058,V,5442.9441,N,11318.4498,W,,,210819,017.7,E*79
01DDD4,022598,00C4EF,$GPRMC,221059,V,5442.9441,N,11318.4498,W,,,210819,017.7,E*78
01DDD5,022599,00C4F0,$GPRMC,221100,V,5442.9441,N,11318.4498,W,,,210819,017.7,E*75
01DDD5,02259A,00C4F1,$GPRMC,221101,V,5442.9441,N,11318.4498,W,,,210819,017.7,E*74
01DDD6,02259B,00C4F1,$GPRMC,221102,V,5442.9441,N,11318.4498,W,,,210819,017.7,E*77
01DDD6,02259B,00C4F1,$GPRMC,221103,V,5442.9441,N,11318.4498,W,,,210819,017.7,E*76
01DDD6,02259B,00C4F1,$GPRMC,221104,V,5442.9441,N,11318.4498,W,,,210819,017.7,E*71
01DDD5,022599,00C4F0,$GPRMC,221105,V,5442.9441,N,11318.4498,W,,,210819,017.7,E*70
01DDD4,022598,00C4F1,$GPRMC,221106,V,5442.9441,N,11318.4498,W,,,210819,017.7,E*73
01DDD5,022599,00C4F1,$GPRMC,221107,V,5442.9441,N,11318.4498,W,,,210819,017.7,E*72
01DDD6,02259C,00C4F1,$GPRMC,221108,V,5442.9441,N,11318.4498,W,,,210819,017.7,E*7D
01DDD5,022598,00C4EF,$GPRMC,221109,V,5442.9441,N,11318.4498,W,,,210819,017.7,E*7C
01DDD4,022599,00C4F0,$GPRMC,221110,V,5442.9441,N,11318.4498,W,,,210819,017.7,E*74
01DDD4,022597,00C4F0,$GPRMC,221111,V,5442.9441,N,11318.4498,W,,,210819,017.7,E*75
