01DF3E,0226F9,00C49A,$GPRMC,120000,A,5442.9334,N,11318.4408,W,000.0,177.4,220819,017.7,E*6B
01DF3D,0226F6,00C49A,$GPRMC,120001,A,5442.9334,N,11318.4404,W,000.0,177.4,220819,017.7,E*66
01DF40,0226FC,00C49C,$GPRMC,120002,A,5442.9334,N,11318.4401,W,000.0,177.4,220819,017.7,E*60
01DF3F,0226F9,00C49B,$GPRMC,120003,A,5442.9334,N,11318.4398,W,000.0,177.4,220819,017.7,E*66
01DF3E,0226F7,00C49B,$GPRMC,120004,A,5442.9334,N,11318.4397,W,000.0,177.4,220819,017.7,E*6E
01DF40,0226FA,00C49C,$GPRMC,120005,A,5442.9333,N,11318.4394,W,000.0,177.4,220819,017.7,E*6B
01DF3C,0226F4,00C49A,$GPRMC,120006,A,5442.9335,N,11318.4391,W,000.0,177.4,220819,017.7,E*6B
01DF3B,0226F2,00C49A,$GPRMC,120007,A,5442.9337,N,11318.4390,W,000.0,177.4,220819,017.7,E*69
01DF3F,0226F8,00C49B,$GPRMC,120008,A,5442.9340,N,11318.4395,W,000.0,177.4,220819,017.7,E*63
01DF3E,0226F4,00C49A,$GPRMC,120009,A,5442.9343,N,11318.4400,W,000.0,177.4,220819,017.7,E*6A
01DF3C,0226F4,00C499,$GPRMC,120010,A,5442.9345,N,11318.4403,W,000.0,177.4,220819,017.7,E*67
01DF3C,0226F2,00C499,$GPRMC,120011,A,5442.9347,N,11318.4407,W,000.0,177.4,220819,017.7,E*60
01DF3D,0226F2,00C499,$GPRMC,120012,A,5442.9349,N,11318.4411,W,000.0,177.4,220819,017.7,E*6A
01DF3D,0226F3,00C49A,$GPRMC,120013,A,5442.9351,N,11318.4412,W,000.0,177.4,220819,017.7,E*61
01DF3C,0226F3,00C49A,$GPRMC,120014,A,5442.9352,N,11318.4414,W,000.0,177.4,220819,017.7,E*63
01DF40,0226F5,00C49B,$GPRMC,120015,A,5442.9353,N,11318.4416,W,000.0,177.4,220819,017.7,E*61
01DF3E,0226F4,00C49A,$GPRMC,120016,A,5442.9354,N,11318.4417,W,000.0,177.4,220819,017.7,E*64
01DF3F,0226F4,00C49B,$GPRMC,120017,A,5442.9355,N,11318.4418,W,000.0,177.4,220819,017.7,E*6B
01DF3C,0226F0,00C49A,$GPRMC,120018,A,5442.9355,N,11318.4420,W,000.0,177.4,220819,017.7,E*6F
01DF41,0226F6,00C49D,$GPRMC,120019,A,5442.9355,N,11318.4421,W,000.0,177.4,220819,017.7,E*6F
01DF39,0226EA,00C498,$GPRMC,120020,A,5442.9354,N,11318.4420,W,000.0,177.4,220819,017.7,E*65
01DF3A,0226ED,00C499,$GPRMC,120021,A,5442.9354,N,11318.4419,W,000.0,177.4,220819,017.7,E*6E
01DF39,0226EC,00C499,$GPRMC,120022,A,5442.9353,N,11318.4418,W,000.0,177.4,220819,017.7,E*6B
01DF3A,0226EC,00C498,$GPRMC,120023,A,5442.9354,N,11318.4419,W,000.0,177.4,220819,017.7,E*6C
01DF3D,0226F1,00C49B,$GPRMC,120024,A,5442.9355,N,11318.4417,W,000.0,177.4,220819,017.7,E*64
01DF3B,0226EE,00C49A,$GPRMC,120025,A,5442.9356,N,11318.4419,W,000.0,177.4,220819,017.7,E*68
01DF3E,0226F2,00C49C,$GPRMC,120026,A,5442.9358,N,11318.4421,W,000.0,177.4,220819,017.7,E*6E
01DF40,0226F5,00C49E,$GPRMC,120027,A,5442.9360,N,11318.4422,W,000.0,177.4,220819,017.7,E*67
01DF3B,0226EE,00C49B,$GPRMC,120028,A,5442.9361,N,11318.4423,W,000.0,177.4,220819,017.7,E*68
01DF3A,0226EC,00C49A,$GPRMC,120029,A,5442.9363,N,11318.4424,W,000.0,177.4,220819,017.7,E*6C
01DF3D,0226F0,00C49C,$GPRMC,120030,A,5442.9365,N,11318.4425,W,000.0,177.4,220819,017.7,E*63
01DF3B,0226EE,00C49B,$GPRMC,120031,A,5442.9367,N,11318.4427,W,000.0,177.4,220819,017.7,E*62
01DF3C,0226EE,00C49B,$GPRMC,120032,A,5442.9366,N,11318.4421,W,000.0,177.4,220819,017.7,E*66
01DF3B,0226EC,00C49C,$GPRMC,120033,A,5442.9365,N,11318.4416,W,000.0,177.4,220819,017.7,E*60
01DF3F,0226F2,00C49E,$GPRMC,120034,A,5442.9364,N,11318.4411,W,000.0,177.4,220819,017.7,E*61
01DF3C,0226EE,00C49C,$GPRMC,120035,A,5442.9364,N,11318.4408,W,000.0,177.4,220819,017.7,E*68
01DF39,0226E9,00C49A,$GPRMC,120036,A,5442.9364,N,11318.4404,W,000.0,177.4,220819,017.7,E*67
01DF3E,0226F0,00C49D,$GPRMC,120037,A,5442.9367,N,11318.4406,W,000.0,177.4,220819,017.7,E*67
01DF3D,0226EE,00C49D,$GPRMC,120038,A,5442.9369,N,11318.4409,W,000.0,177.4,220819,017.7,E*69
01DF3C,0226EE,00C49D,$GPRMC,120039,A,5442.9368,N,11318.4405,W,000.0,177.4,220819,017.7,E*65
01DF3D,0226ED,00C49D,$GPRMC,120040,A,5442.9369,N,11318.4406,W,000.0,177.4,220819,017.7,E*69
01DF39,0226E9,00C49B,$GPRMC,120041,A,5442.9372,N,11318.4410,W,000.0,177.4,220819,017.7,E*65
01DF39,0226E8,00C49A,$GPRMC,120042,A,5442.9370,N,11318.4407,W,000.0,177.4,220819,017.7,E*62
01DF38,0226E6,00C49A,$GPRMC,120043,A,5442.9368,N,11318.4404,W,000.0,177.4,220819,017.7,E*69
01DF3B,0226EB,00C49C,$GPRMC,120044,A,5442.9366,N,11318.4398,W,000.0,177.4,220819,017.7,E*62
01DF3B,0226EA,00C49C,$GPRMC,120045,A,5442.9363,N,11318.4393,W,000.0,177.4,220819,017.7,E*6D
01DF39,0226E8,00C49B,$GPRMC,120046,A,5442.9361,N,11318.4394,W,000.0,177.4,220819,017.7,E*6B
01DF3D,0226EF,00C49E,$GPRMC,120047,A,5442.9355,N,11318.4395,W,000.0,177.4,220819,017.7,E*6C
01DF3B,0226EC,00C49D,$GPRMC,120048,A,5442.9354,N,11318.4397,W,000.0,177.4,220819,017.7,E*60
01DF39,0226E8,00C49C,$GPRMC,120049,A,5442.9348,N,11318.4398,W,000.0,177.4,220819,017.7,E*63
01DF3D,0226ED,00C49E,$GPRMC,120050,A,5442.9348,N,11318.4399,W,000.0,177.4,220819,017.7,E*6A
01DF3F,0226F0,00C49F,$GPRMC,120051,A,5442.9349,N,11318.4400,W,000.0,177.4,220819,017.7,E*6D
01DF3A,0226EA,00C49C,$GPRMC,120052,A,5442.9347,N,11318.4403,W,000.0,177.4,220819,017.7,E*63
01DF39,0226E8,00C49C,$GPRMC,120053,A,5442.9346,N,11318.4405,W,000.0,177.4,220819,017.7,E*65
01DF3B,0226E9,00C49D,$GPRMC,120054,A,5442.9344,N,11318.4408,W,000.0,177.4,220819,017.7,E*6D
01DF38,0226E8,00C49C,$GPRMC,120055,A,5442.9343,N,11318.4411,W,000.0,177.4,220819,017.7,E*63
01DF3A,0226E9,00C49D,$GPRMC,120056,A,5442.9343,N,11318.4414,W,000.0,177.4,220819,017.7,E*65
01DF39,0226E6,00C49C,$GPRMC,120057,A,5442.9347,N,11318.4415,W,000.0,177.4,220819,017.7,E*61
01DF36,0226E4,00C49A,$GPRMC,120058,A,5442.9347,N,11318.4417,W,000.0,177.4,220819,017.7,E*6C
01DF39,0226E6,00C49B,$GPRMC,120059,A,5442.9350,N,11318.4419,W,000.0,177.4,220819,017.7,E*65
01DF3B,0226E8,00C49D,$GPRMC,120100,A,5442.9352,N,11318.4421,W,000.0,177.4,220819,017.7,E*61
01DF38,0226E6,00C49C,$GPRMC,120101,A,5442.9355,N,11318.4424,W,000.0,177.4,220819,017.7,E*62
01DF37,0226E4,00C49B,$GPRMC,120102,A,5442.9358,N,11318.4425,W,000.0,177.4,220819,017.7,E*6D
01DF39,0226E7,00C49D,$GPRMC,120103,A,5442.9361,N,11318.4427,W,000.0,177.4,220819,017.7,E*64
01DF39,0226E6,00C49C,$GPRMC,120104,A,5442.9364,N,11318.4428,W,000.0,177.4,220819,017.7,E*69
01DF39,0226E7,00C49D,$GPRMC,120105,A,5442.9367,N,11318.4430,W,000.0,177.4,220819,017.7,E*62
01DF3B,0226E9,00C49E,$GPRMC,120106,A,5442.9368,N,11318.4433,W,000.0,177.4,220819,017.7,E*6D
01DF36,0226E2,00C49B,$GPRMC,120107,A,5442.9369,N,11318.4437,W,000.0,177.4,220819,017.7,E*69
01DF37,0226E4,00C49C,$GPRMC,120108,A,5442.9371,N,11318.4439,W,000.0,177.4,220819,017.7,E*61
01DF3B,0226EA,00C49E,$GPRMC,120109,A,5442.9372,N,11318.4443,W,000.0,177.4,220819,017.7,E*6E
01DF35,0226E1,00C49B,$GPRMC,120110,A,5442.9373,N,11318.4445,W,000.0,177.4,220819,017.7,E*61
01DF37,0226E3,00C49C,$GPRMC,120111,A,5442.9375,N,11318.4447,W,000.0,177.4,220819,017.7,E*64
01DF39,0226E5,00C49D,$GPRMC,120112,A,5442.9377,N,11318.4450,W,000.0,177.4,220819,017.7,E*63
01DF37,0226E3,00C49C,$GPRMC,120113,A,5442.9379,N,11318.4453,W,000.0,177.4,220819,017.7,E*6F
01DF36,0226E1,00C49B,$GPRMC,120114,A,5442.9382,N,11318.4456,W,000.0,177.4,220819,017.7,E*69
01DF38,0226E4,00C49C,$GPRMC,120115,A,5442.9383,N,11318.4456,W,000.0,177.4,220819,017.7,E*69
01DF37,0226E2,00C49C,$GPRMC,120116,A,5442.9386,N,11318.4464,W,000.0,177.4,220819,017.7,E*6E
01DF35,0226E0,00C49C,$GPRMC,120117,A,5442.9388,N,11318.4471,W,000.0,177.4,220819,017.7,E*65
01DF37,0226E2,00C49D,$GPRMC,120118,A,5442.9391,N,11318.4478,W,000.0,177.4,220819,017.7,E*6B
01DF38,0226E4,00C49D,$GPRMC,120119,A,5442.9393,N,11318.4486,W,000.0,177.4,220819,017.7,E*69
01DF38,0226E5,00C49E,$GPRMC,120120,A,5442.9396,N,11318.4493,W,000.0,177.4,220819,017.7,E*62
01DF37,0226E3,00C49E,$GPRMC,120121,A,5442.9399,N,11318.4500,W,000.0,177.4,220819,017.7,E*67
01DF35,0226E0,00C49C,$GPRMC,120122,A,5442.9398,N,11318.4500,W,000.0,177.4,220819,017.7,E*65
01DF33,0226DD,00C49B,$GPRMC,120123,A,5442.9401,N,11318.4506,W,000.0,177.4,220819,017.7,E*65
01DF38,0226E4,00C49F,$GPRMC,120124,A,5442.9403,N,11318.4507,W,000.0,177.4,220819,017.7,E*61
01DF2F,0226D9,00C499,$GPRMC,120125,A,5442.9402,N,11318.4502,W,000.0,177.4,220819,017.7,E*64
01DF37,0226E2,00C49D,$GPRMC,120126,A,5442.9402,N,11318.4497,W,000.0,177.4,220819,017.7,E*6A
01DF32,0226DA,00C49B,$GPRMC,120127,A,5442.9402,N,11318.4496,W,000.0,177.4,220819,017.7,E*6A
01DF34,0226DE,00C49D,$GPRMC,120128,A,5442.9403,N,11318.4494,W,000.0,177.4,220819,017.7,E*66
01DF35,0226DF,00C49D,$GPRMC,120129,A,5442.9404,N,11318.4493,W,000.0,177.4,220819,017.7,E*67
01DF35,0226E0,00C49E,$GPRMC,120130,A,5442.9405,N,11318.4493,W,000.0,177.4,220819,017.7,E*6E
01DF36,0226DF,00C49E,$GPRMC,120131,A,5442.9405,N,11318.4493,W,000.0,177.4,220819,017.7,E*6F
01DF38,0226E3,00C49F,$GPRMC,120132,A,5442.9404,N,11318.4493,W,000.0,177.4,220819,017.7,E*6D
01DF34,0226DD,00C49C,$GPRMC,120133,A,5442.9405,N,11318.4495,W,000.0,177.4,220819,017.7,E*6B
01DF39,0226E4,00C4A0,$GPRMC,120134,A,5442.9405,N,11318.4497,W,000.0,177.4,220819,017.7,E*6E
01DF35,0226DD,00C49D,$GPRMC,120135,A,5442.9406,N,11318.4499,W,000.0,177.4,220819,017.7,E*62
01DF36,0226E0,00C49E,$GPRMC,120136,A,5442.9407,N,11318.4501,W,000.0,177.4,220819,017.7,E*60
01DF34,0226DD,00C49C,$GPRMC,120137,A,5442.9407,N,11318.4504,W,000.0,177.4,220819,017.7,E*64
01DF35,0226DE,00C49D,$GPRMC,120138,A,5442.9408,N,11318.4506,W,000.0,177.4,220819,017.7,E*66
01DF34,0226DC,00C49D,$GPRMC,120139,A,5442.9409,N,11318.4509,W,000.0,177.4,220819,017.7,E*69
01DF33,0226DB,00C49D,$GPRMC,120140,A,5442.9409,N,11318.4511,W,000.0,177.4,220819,017.7,E*6E
01DF36,0226DF,00C49E,$GPRMC,120141,A,5442.9410,N,11318.4514,W,000.0,177.4,220819,017.7,E*62
01DF35,0226DE,00C49E,$GPRMC,120142,A,5442.9411,N,11318.4517,W,000.0,177.4,220819,017.7,E*63
01DF33,0226DD,00C49D,$GPRMC,120143,A,5442.9412,N,11318.4519,W,000.0,177.4,220819,017.7,E*6F
01DF37,0226E0,00C49F,$GPRMC,120144,A,5442.9412,N,11318.4521,W,000.0,177.4,220819,017.7,E*63
01DF35,0226DF,00C49F,$GPRMC,120145,A,5442.9413,N,11318.4523,W,000.0,177.4,220819,017.7,E*61
01DF34,0226DC,00C49E,$GPRMC,120146,A,5442.9413,N,11318.4525,W,000.0,177.4,220819,017.7,E*64
01DF35,0226DE,00C49E,$GPRMC,120147,A,5442.9413,N,11318.4526,W,000.0,177.4,220819,017.7,E*66
01DF33,0226DB,00C49D,$GPRMC,120148,A,5442.9413,N,11318.4526,W,000.0,177.4,220819,017.7,E*69
01DF34,0226DD,00C49E,$GPRMC,120149,A,5442.9413,N,11318.4527,W,000.0,177.4,220819,017.7,E*69
01DF32,0226DB,00C49E,$GPRMC,120150,A,5442.9414,N,11318.4528,W,000.0,177.4,220819,017.7,E*69
01DF35,0226DD,00C49F,$GPRMC,120151,A,5442.9414,N,11318.4528,W,000.0,177.4,220819,017.7,E*68
01DF34,0226DC,00C49E,$GPRMC,120152,A,5442.9414,N,11318.4528,W,000.0,177.4,220819,017.7,E*6B
01DF33,0226DC,00C49F,$GPRMC,120153,A,5442.9415,N,11318.4528,W,000.0,177.4,220819,017.7,E*6B
01DF33,0226DA,00C49E,$GPRMC,120154,A,5442.9414,N,11318.4527,W,000.0,177.4,220819,017.7,E*62
01DF33,0226DB,00C49E,$GPRMC,120155,A,5442.9414,N,11318.4526,W,000.0,177.4,220819,017.7,E*62
01DF32,0226D8,00C49D,$GPRMC,120156,A,5442.9415,N,11318.4526,W,000.0,177.4,220819,017.7,E*60
01DF33,0226D9,00C49E,$GPRMC,120157,A,5442.9416,N,11318.4525,W,000.0,177.4,220819,017.7,E*61
01DF31,0226D8,00C49D,$GPRMC,120158,A,5442.9417,N,11318.4525,W,000.0,177.4,220819,017.7,E*6F
01DF32,0226D8,00C49E,$GPRMC,120159,A,5442.9418,N,11318.4525,W,000.0,177.4,220819,017.7,E*61
01DF33,0226DA,00C49E,$GPRMC,120200,A,5442.9419,N,11318.4525,W,000.0,177.4,220819,017.7,E*6F
01DF31,0226D7,00C49D,$GPRMC,120201,A,5442.9419,N,11318.4524,W,000.0,177.4,220819,017.7,E*6F
01DF32,0226D7,00C49E,$GPRMC,120202,A,5442.9420,N,11318.4522,W,000.0,177.4,220819,017.7,E*60
01DF32,0226D8,00C49D,$GPRMC,120203,A,5442.9420,N,11318.4521,W,000.0,177.4,220819,017.7,E*62
01DF34,0226DA,00C49F,$GPRMC,120204,A,5442.9421,N,11318.4520,W,000.0,177.4,220819,017.7,E*65
01DF30,0226D5,00C49D,$GPRMC,120205,A,5442.9423,N,11318.4522,W,000.0,177.4,220819,017.7,E*64
01DF31,0226D5,00C49E,$GPRMC,120206,A,5442.9424,N,11318.4523,W,000.0,177.4,220819,017.7,E*61
01DF32,0226D7,00C49F,$GPRMC,120207,A,5442.9426,N,11318.4524,W,000.0,177.4,220819,017.7,E*65
01DF30,0226D5,00C49E,$GPRMC,120208,A,5442.9426,N,11318.4525,W,000.0,177.4,220819,017.7,E*6B
01DF31,0226D6,00C49E,$GPRMC,120209,A,5442.9426,N,11318.4527,W,000.0,177.4,220819,017.7,E*68
01DF2F,0226D2,00C49D,$GPRMC,120210,A,5442.9426,N,11318.4529,W,000.0,177.4,220819,017.7,E*6E
01DF30,0226D3,00C49D,$GPRMC,120211,A,5442.9426,N,11318.4531,W,000.0,177.4,220819,017.7,E*66
01DF2D,0226CF,00C49C,$GPRMC,120212,A,5442.9428,N,11318.4533,W,000.0,177.4,220819,017.7,E*69
01DF2F,0226D3,00C49E,$GPRMC,120213,A,5442.9429,N,11318.4536,W,000.0,177.4,220819,017.7,E*6C
01DF2C,0226CC,00C49C,$GPRMC,120214,A,5442.9430,N,11318.4538,W,000.0,177.4,220819,017.7,E*6D
01DF2B,0226CD,00C49C,$GPRMC,120215,A,5442.9430,N,11318.4540,W,000.0,177.4,220819,017.7,E*63
01DF2A,0226CA,00C49B,$GPRMC,120216,A,5442.9430,N,11318.4542,W,000.0,177.4,220819,017.7,E*62
01DF2B,0226CC,00C49C,$GPRMC,120217,A,5442.9430,N,11318.4545,W,000.0,177.4,220819,017.7,E*64
01DF29,0226C9,00C49B,$GPRMC,120218,A,5442.9431,N,11318.4548,W,000.0,177.4,220819,017.7,E*67
01DF29,0226C8,00C49B,$GPRMC,120219,A,5442.9429,N,11318.4546,W,000.0,177.4,220819,017.7,E*61
01DF2C,0226CD,00C49D,$GPRMC,120220,A,5442.9427,N,11318.4545,W,000.0,177.4,220819,017.7,E*66
01DF2B,0226CD,00C49D,$GPRMC,120221,A,5442.9427,N,11318.4546,W,000.0,177.4,220819,017.7,E*64
01DF2E,0226CF,00C49F,$GPRMC,120222,A,5442.9426,N,11318.4547,W,000.0,177.4,220819,017.7,E*67
01DF2E,0226D0,00C49F,$GPRMC,120223,A,5442.9425,N,11318.4549,W,000.0,177.4,220819,017.7,E*6B
01DF2D,0226CE,00C49E,$GPRMC,120224,A,5442.9424,N,11318.4550,W,000.0,177.4,220819,017.7,E*65
01DF2B,0226CB,00C49E,$GPRMC,120225,A,5442.9424,N,11318.4552,W,000.0,177.4,220819,017.7,E*66
01DF29,0226C9,00C49D,$GPRMC,120226,A,5442.9423,N,11318.4553,W,000.0,177.4,220819,017.7,E*63
01DF2A,0226C9,00C49D,$GPRMC,120227,A,5442.9422,N,11318.4555,W,000.0,177.4,220819,017.7,E*65
01DF29,0226C7,00C49C,$GPRMC,120228,A,5442.9421,N,11318.4556,W,000.0,177.4,220819,017.7,E*6A
01DF27,0226C4,00C49B,$GPRMC,120229,A,5442.9420,N,11318.4558,W,000.0,177.4,220819,017.7,E*64
01DF2A,0226C9,00C49E,$GPRMC,120230,A,5442.9421,N,11318.4559,W,000.0,177.4,220819,017.7,E*6C
01DF29,0226C8,00C49D,$GPRMC,120231,A,5442.9421,N,11318.4561,W,000.0,177.4,220819,017.7,E*66
01DF2A,0226C8,00C49E,$GPRMC,120232,A,5442.9421,N,11318.4562,W,000.0,177.4,220819,017.7,E*66
01DF29,0226C7,00C49D,$GPRMC,120233,A,5442.9420,N,11318.4563,W,000.0,177.4,220819,017.7,E*67
01DF29,0226C8,00C49E,$GPRMC,120234,A,5442.9421,N,11318.4564,W,000.0,177.4,220819,017.7,E*66
01DF29,0226C7,00C49E,$GPRMC,120235,A,5442.9421,N,11318.4566,W,000.0,177.4,220819,017.7,E*65
01DF28,0226C5,00C49E,$GPRMC,120236,A,5442.9421,N,11318.4566,W,000.0,177.4,220819,017.7,E*66
01DF2B,0226C7,00C49F,$GPRMC,120237,A,5442.9421,N,11318.4567,W,000.0,177.4,220819,017.7,E*66
01DF29,0226C6,00C49F,$GPRMC,120238,A,5442.9422,N,11318.4569,W,000.0,177.4,220819,017.7,E*64
01DF28,0226C4,00C49E,$GPRMC,120239,A,5442.9422,N,11318.4571,W,000.0,177.4,220819,017.7,E*6C
01DF25,0226C0,00C49D,$GPRMC,120240,A,5442.9421,N,11318.4570,W,000.0,177.4,220819,017.7,E*60
01DF23,0226BD,00C49C,$GPRMC,120241,A,5442.9422,N,11318.4571,W,000.0,177.4,220819,017.7,E*63
01DF20,0226B9,00C49A,$GPRMC,120242,A,5442.9421,N,11318.4572,W,000.0,177.4,220819,017.7,E*60
01DF24,0226C0,00C49D,$GPRMC,120243,A,5442.9421,N,11318.4573,W,000.0,177.4,220819,017.7,E*60
01DF27,0226C4,00C49F,$GPRMC,120244,A,5442.9421,N,11318.4573,W,000.0,177.4,220819,017.7,E*67
01DF24,0226BF,00C49E,$GPRMC,120245,A,5442.9421,N,11318.4574,W,000.0,177.4,220819,017.7,E*61
01DF24,0226C1,00C49E,$GPRMC,120246,A,5442.9420,N,11318.4574,W,000.0,177.4,220819,017.7,E*63
01DF24,0226BF,00C49E,$GPRMC,120247,A,5442.9420,N,11318.4574,W,000.0,177.4,220819,017.7,E*62
01DF1F,0226BA,00C49B,$GPRMC,120248,A,5442.9419,N,11318.4572,W,000.0,177.4,220819,017.7,E*61
01DF22,0226BD,00C49D,$GPRMC,120249,A,5442.9417,N,11318.4570,W,000.0,177.4,220819,017.7,E*6C
01DF22,0226BB,00C49D,$GPRMC,120250,A,5442.9416,N,11318.4568,W,000.0,177.4,220819,017.7,E*6C
01DF26,0226C3,00C4A0,$GPRMC,120251,A,5442.9416,N,11318.4568,W,000.0,177.4,220819,017.7,E*6D
01DF20,0226B9,00C49C,$GPRMC,120252,A,5442.9416,N,11318.4569,W,000.0,177.4,220819,017.7,E*6F
01DF24,0226C0,00C49F,$GPRMC,120253,A,5442.9416,N,11318.4570,W,000.0,177.4,220819,017.7,E*66
01DF22,0226BE,00C49E,$GPRMC,120254,A,5442.9416,N,11318.4570,W,000.0,177.4,220819,017.7,E*61
01DF26,0226C4,00C4A0,$GPRMC,120255,A,5442.9416,N,11318.4571,W,000.0,177.4,220819,017.7,E*61
01DF25,0226C3,00C4A0,$GPRMC,120256,A,5442.9416,N,11318.4572,W,000.0,177.4,220819,017.7,E*61
01DF24,0226C0,00C49F,$GPRMC,120257,A,5442.9415,N,11318.4572,W,000.0,177.4,220819,017.7,E*63
01DF24,0226C1,00C49F,$GPRMC,120258,A,5442.9415,N,11318.4573,W,000.0,177.4,220819,017.7,E*6D
01DF26,0226C4,00C4A1,$GPRMC,120259,A,5442.9415,N,11318.4573,W,000.0,177.4,220819,017.7,E*6C
01DF24,0226C3,00C4A0,$GPRMC,120300,A,5442.9414,N,11318.4573,W,000.0,177.4,220819,017.7,E*60
01DF24,0226C1,00C4A0,$GPRMC,120301,A,5442.9414,N,11318.4572,W,000.0,177.4,220819,017.7,E*60
01DF22,0226C0,00C49F,$GPRMC,120302,A,5442.9413,N,11318.4571,W,000.0,177.4,220819,017.7,E*67
01DF1F,0226BD,00C49E,$GPRMC,120303,A,5442.9413,N,11318.4571,W,000.0,177.4,220819,017.7,E*66
01DF24,0226C4,00C4A0,$GPRMC,120304,A,5442.9413,N,11318.4571,W,000.0,177.4,220819,017.7,E*61
01DF21,0226C0,00C49E,$GPRMC,120305,A,5442.9412,N,11318.4570,W,000.0,177.4,220819,017.7,E*60
01DF20,0226BF,00C49F,$GPRMC,120306,A,5442.9412,N,11318.4570,W,000.0,177.4,220819,017.7,E*63
01DF24,0226C7,00C4A1,$GPRMC,120307,A,5442.9407,N,11318.4563,W,000.0,177.4,220819,017.7,E*64
01DF1E,0226BC,00C49D,$GPRMC,120308,A,5442.9407,N,11318.4563,W,000.0,177.4,220819,017.7,E*6B
01DF23,0226C5,00C4A2,$GPRMC,120309,A,5442.9407,N,11318.4563,W,000.0,177.4,220819,017.7,E*6A
01DF1C,0226BA,00C49E,$GPRMC,120310,A,5442.9407,N,11318.4564,W,000.0,177.4,220819,017.7,E*65
01DF20,0226C1,00C4A0,$GPRMC,120311,A,5442.9407,N,11318.4564,W,000.0,177.4,220819,017.7,E*64
01DF22,0226C3,00C4A1,$GPRMC,120312,A,5442.9406,N,11318.4564,W,000.0,177.4,220819,017.7,E*66
01DF1F,0226BF,00C49F,$GPRMC,120313,A,5442.9404,N,11318.4562,W,000.0,177.4,220819,017.7,E*63
01DF1E,0226BE,00C49E,$GPRMC,120314,A,5442.9403,N,11318.4562,W,000.0,177.4,220819,017.7,E*63
01DF21,0226C2,00C4A0,$GPRMC,120315,A,5442.9402,N,11318.4561,W,000.0,177.4,220819,017.7,E*60
01DF1E,0226C0,00C49F,$GPRMC,120316,A,5442.9400,N,11318.4559,W,000.0,177.4,220819,017.7,E*6A
01DF21,0226C5,00C4A0,$GPRMC,120317,A,5442.9399,N,11318.4560,W,000.0,177.4,220819,017.7,E*66
01DF1F,0226C0,00C49F,$GPRMC,120318,A,5442.9397,N,11318.4559,W,000.0,177.4,220819,017.7,E*6D
01DF1F,0226C2,00C49F,$GPRMC,120319,A,5442.9395,N,11318.4557,W,000.0,177.4,220819,017.7,E*60
01DF1E,0226C2,00C49F,$GPRMC,120320,A,5442.9395,N,11318.4558,W,000.0,177.4,220819,017.7,E*65
01DF1B,0226BE,00C49D,$GPRMC,120321,A,5442.9395,N,11318.4560,W,000.0,177.4,220819,017.7,E*6F
01DF1F,0226C3,00C4A0,$GPRMC,120322,A,5442.9395,N,11318.4560,W,000.0,177.4,220819,017.7,E*6C
01DF1B,0226BE,00C49E,$GPRMC,120323,A,5442.9396,N,11318.4562,W,000.0,177.4,220819,017.7,E*6C
01DF17,0226BB,00C49D,$GPRMC,120324,A,5442.9393,N,11318.4559,W,000.0,177.4,220819,017.7,E*66
01DF1D,0226C5,00C4A1,$GPRMC,120325,A,5442.9393,N,11318.4560,W,000.0,177.4,220819,017.7,E*6D
01DF16,0226BE,00C49D,$GPRMC,120326,A,5442.9393,N,11318.4561,W,000.0,177.4,220819,017.7,E*6F
01DF17,0226C0,00C49E,$GPRMC,120327,A,5442.9397,N,11318.4568,W,000.0,177.4,220819,017.7,E*63
01DF14,0226BC,00C49D,$GPRMC,120328,A,5442.9397,N,11318.4568,W,000.0,177.4,220819,017.7,E*6C
01DF1B,0226C7,00C4A1,$GPRMC,120329,A,5442.9398,N,11318.4568,W,000.0,177.4,220819,017.7,E*62
01DF19,0226C3,00C49F,$GPRMC,120330,A,5442.9397,N,11318.4569,W,000.0,177.4,220819,017.7,E*64
01DF17,0226C0,00C49E,$GPRMC,120331,A,5442.9397,N,11318.4568,W,000.0,177.4,220819,017.7,E*64
01DF19,0226C2,00C4A0,$GPRMC,120332,A,5442.9395,N,11318.4568,W,000.0,177.4,220819,017.7,E*65
01DF1A,0226C4,00C4A0,$GPRMC,120333,A,5442.9394,N,11318.4566,W,000.0,177.4,220819,017.7,E*6B
01DF1A,0226C5,00C4A1,$GPRMC,120334,A,5442.9392,N,11318.4564,W,000.0,177.4,220819,017.7,E*68
01DF18,0226C0,00C49F,$GPRMC,120335,A,5442.9391,N,11318.4563,W,000.0,177.4,220819,017.7,E*6D
01DF15,0226BD,00C49E,$GPRMC,120336,A,5442.9390,N,11318.4562,W,000.0,177.4,220819,017.7,E*6E
01DF19,0226C2,00C49F,$GPRMC,120337,A,5442.9385,N,11318.4556,W,000.0,177.4,220819,017.7,E*6C
01DF15,0226BC,00C49D,$GPRMC,120338,A,5442.9384,N,11318.4554,W,000.0,177.4,220819,017.7,E*60
01DF17,0226C0,00C49E,$GPRMC,120339,A,5442.9382,N,11318.4553,W,000.0,177.4,220819,017.7,E*60
01DF1A,0226C4,00C4A0,$GPRMC,120340,A,5442.9381,N,11318.4552,W,000.0,177.4,220819,017.7,E*6C
01DF17,0226C0,00C49E,$GPRMC,120341,A,5442.9381,N,11318.4552,W,000.0,177.4,220819,017.7,E*6D
01DF18,0226C1,00C49E,$GPRMC,120342,A,5442.9380,N,11318.4552,W,000.0,177.4,220819,017.7,E*6F
01DF1B,0226C6,00C4A1,$GPRMC,120343,A,5442.9380,N,11318.4553,W,000.0,177.4,220819,017.7,E*6F
01DF15,0226BC,00C49E,$GPRMC,120344,A,5442.9377,N,11318.4553,W,000.0,177.4,220819,017.7,E*60
01DF19,0226C1,00C49F,$GPRMC,120345,A,5442.9381,N,11318.4555,W,000.0,177.4,220819,017.7,E*6E
01DF17,0226BF,00C49E,$GPRMC,120346,A,5442.9379,N,11318.4555,W,000.0,177.4,220819,017.7,E*6A
01DF19,0226C1,00C49F,$GPRMC,120347,A,5442.9381,N,11318.4556,W,000.0,177.4,220819,017.7,E*6F
01DF18,0226C1,00C49F,$GPRMC,120348,A,5442.9383,N,11318.4557,W,000.0,177.4,220819,017.7,E*63
01DF1A,0226C2,00C4A0,$GPRMC,120349,A,5442.9384,N,11318.4558,W,000.0,177.4,220819,017.7,E*6A
01DF16,0226BE,00C49E,$GPRMC,120350,A,5442.9385,N,11318.4558,W,000.0,177.4,220819,017.7,E*63
01DF19,0226C1,00C4A0,$GPRMC,120351,A,5442.9385,N,11318.4557,W,000.0,177.4,220819,017.7,E*6D
01DF19,0226C2,00C4A1,$GPRMC,120352,A,5442.9384,N,11318.4555,W,000.0,177.4,220819,017.7,E*6D
01DF18,0226BF,00C49F,$GPRMC,120353,A,5442.9376,N,11318.4551,W,000.0,177.4,220819,017.7,E*65
01DF16,0226BE,00C49F,$GPRMC,120354,A,5442.9369,N,11318.4548,W,000.0,177.4,220819,017.7,E*64
01DF1A,0226C1,00C4A1,$GPRMC,120355,A,5442.9369,N,11318.4548,W,000.0,177.4,220819,017.7,E*65
01DF18,0226BF,00C4A0,$GPRMC,120356,A,5442.9364,N,11318.4547,W,000.0,177.4,220819,017.7,E*64
01DF15,0226BC,00C49E,$GPRMC,120357,A,5442.9359,N,11318.4546,W,000.0,177.4,220819,017.7,E*6A
01DF17,0226BD,00C49F,$GPRMC,120358,A,5442.9360,N,11318.4547,W,000.0,177.4,220819,017.7,E*6E
01DF17,0226BD,00C49F,$GPRMC,120359,A,5442.9356,N,11318.4547,W,000.0,177.4,220819,017.7,E*6A
01DF19,0226C0,00C4A1,$GPRMC,120400,A,5442.9357,N,11318.4548,W,000.0,177.4,220819,017.7,E*6F
01DF19,0226BE,00C4A1,$GPRMC,120401,A,5442.9355,N,11318.4549,W,000.0,177.4,220819,017.7,E*6D
01DF15,0226BA,00C49F,$GPRMC,120402,A,5442.9353,N,11318.4550,W,000.0,177.4,220819,017.7,E*60
01DF16,0226BA,00C4A0,$GPRMC,120403,A,5442.9349,N,11318.4550,W,000.0,177.4,220819,017.7,E*6A
01DF19,0226C0,00C4A2,$GPRMC,120404,A,5442.9344,N,11318.4549,W,000.0,177.4,220819,017.7,E*68
01DF12,0226B5,00C49E,$GPRMC,120405,A,5442.9338,N,11318.4548,W,000.0,177.4,220819,017.7,E*63
01DF13,0226B9,00C49F,$GPRMC,120406,A,5442.9332,N,11318.4546,W,000.0,177.4,220819,017.7,E*64
01DF17,0226BB,00C4A0,$GPRMC,120407,A,5442.9325,N,11318.4544,W,000.0,177.4,220819,017.7,E*61
01DF17,0226BC,00C4A1,$GPRMC,120408,A,5442.9319,N,11318.4541,W,000.0,177.4,220819,017.7,E*64
01DF12,0226B6,00C49E,$GPRMC,120409,A,5442.9312,N,11318.4539,W,000.0,177.4,220819,017.7,E*61
01DF14,0226B8,00C4A0,$GPRMC,120410,A,5442.9307,N,11318.4537,W,000.0,177.4,220819,017.7,E*63
01DF11,0226B4,00C49F,$GPRMC,120411,A,5442.9304,N,11318.4530,W,000.0,177.4,220819,017.7,E*66
01DF12,0226B7,00C4A0,$GPRMC,120412,A,5442.9301,N,11318.4523,W,000.0,177.4,220819,017.7,E*62
01DF14,0226B8,00C4A0,$GPRMC,120413,A,5442.9298,N,11318.4517,W,000.0,177.4,220819,017.7,E*65
01DF15,0226BB,00C4A1,$GPRMC,120414,A,5442.9294,N,11318.4511,W,000.0,177.4,220819,017.7,E*68
01DF13,0226B7,00C49F,$GPRMC,120415,A,5442.9290,N,11318.4504,W,000.0,177.4,220819,017.7,E*69
01DF16,0226BD,00C4A2,$GPRMC,120416,A,5442.9287,N,11318.4499,W,000.0,177.4,220819,017.7,E*69
01DF15,0226BB,00C4A1,$GPRMC,120417,A,5442.9285,N,11318.4494,W,000.0,177.4,220819,017.7,E*67
01DF12,0226B7,00C49F,$GPRMC,120418,A,5442.9283,N,11318.4489,W,000.0,177.4,220819,017.7,E*62
01DF16,0226C0,00C4A3,$GPRMC,120419,A,5442.9280,N,11318.4484,W,000.0,177.4,220819,017.7,E*6D
01DF11,0226B6,00C49F,$GPRMC,120420,A,5442.9283,N,11318.4483,W,000.0,177.4,220819,017.7,E*63
01DF14,0226BC,00C4A1,$GPRMC,120421,A,5442.9279,N,11318.4477,W,000.0,177.4,220819,017.7,E*6C
01DF13,0226BA,00C4A0,$GPRMC,120422,A,5442.9276,N,11318.4472,W,000.0,177.4,220819,017.7,E*65
01DF12,0226B8,00C49F,$GPRMC,120423,A,5442.9272,N,11318.4467,W,000.0,177.4,220819,017.7,E*64
01DF14,0226BB,00C4A0,$GPRMC,120424,A,5442.9268,N,11318.4462,W,000.0,177.4,220819,017.7,E*6D
01DF10,0226B6,00C49F,$GPRMC,120425,A,5442.9264,N,11318.4456,W,000.0,177.4,220819,017.7,E*67
01DF10,0226B6,00C49E,$GPRMC,120426,A,5442.9261,N,11318.4452,W,000.0,177.4,220819,017.7,E*65
01DF10,0226B6,00C49F,$GPRMC,120427,A,5442.9258,N,11318.4447,W,000.0,177.4,220819,017.7,E*6A
01DF0F,0226B5,00C49E,$GPRMC,120428,A,5442.9254,N,11318.4442,W,000.0,177.4,220819,017.7,E*6C
01DF10,0226B8,00C49F,$GPRMC,120429,A,5442.9251,N,11318.4437,W,000.0,177.4,220819,017.7,E*6A
01DF11,0226B8,00C49F,$GPRMC,120430,A,5442.9251,N,11318.4438,W,000.0,177.4,220819,017.7,E*6D
01DF0D,0226B4,00C49E,$GPRMC,120431,A,5442.9254,N,11318.4437,W,000.0,177.4,220819,017.7,E*66
01DF12,0226BA,00C4A0,$GPRMC,120432,A,5442.9253,N,11318.4435,W,000.0,177.4,220819,017.7,E*60
01DF0F,0226B5,00C49E,$GPRMC,120433,A,5442.9250,N,11318.4430,W,000.0,177.4,220819,017.7,E*67
01DF10,0226B8,00C49E,$GPRMC,120434,A,5442.9253,N,11318.4431,W,000.0,177.4,220819,017.7,E*62
01DF0F,0226B6,00C49E,$GPRMC,120435,A,5442.9253,N,11318.4430,W,000.0,177.4,220819,017.7,E*62
01DF12,0226BC,00C4A1,$GPRMC,120436,A,5442.9254,N,11318.4430,W,000.0,177.4,220819,017.7,E*66
01DF0E,0226B6,00C49E,$GPRMC,120437,A,5442.9255,N,11318.4430,W,000.0,177.4,220819,017.7,E*66
01DF12,0226BB,00C4A1,$GPRMC,120438,A,5442.9255,N,11318.4430,W,000.0,177.4,220819,017.7,E*69
01DF0E,0226B4,00C49E,$GPRMC,120439,A,5442.9256,N,11318.4430,W,000.0,177.4,220819,017.7,E*6B
01DF12,0226BC,00C4A1,$GPRMC,120440,A,5442.9255,N,11318.4428,W,000.0,177.4,220819,017.7,E*6F
01DF11,0226BA,00C4A0,$GPRMC,120441,A,5442.9255,N,11318.4427,W,000.0,177.4,220819,017.7,E*61
01DF12,0226BA,00C4A0,$GPRMC,120442,A,5442.9257,N,11318.4427,W,000.0,177.4,220819,017.7,E*60
01DF11,0226B9,00C49F,$GPRMC,120443,A,5442.9260,N,11318.4429,W,000.0,177.4,220819,017.7,E*6B
01DF0C,0226B3,00C49E,$GPRMC,120444,A,5442.9264,N,11318.4430,W,000.0,177.4,220819,017.7,E*60
01DF0E,0226B6,00C49F,$GPRMC,120445,A,5442.9265,N,11318.4431,W,000.0,177.4,220819,017.7,E*61
01DF12,0226BB,00C4A1,$GPRMC,120446,A,5442.9271,N,11318.4436,W,000.0,177.4,220819,017.7,E*60
01DF0D,0226B5,00C49E,$GPRMC,120447,A,5442.9276,N,11318.4441,W,000.0,177.4,220819,017.7,E*66
01DF13,0226BE,00C4A3,$GPRMC,120448,A,5442.9280,N,11318.4446,W,000.0,177.4,220819,017.7,E*67
01DF0F,0226B7,00C4A0,$GPRMC,120449,A,5442.9284,N,11318.4453,W,000.0,177.4,220819,017.7,E*66
01DF0E,0226B6,00C49F,$GPRMC,120450,A,5442.9288,N,11318.4459,W,000.0,177.4,220819,017.7,E*68
01DF10,0226B8,00C4A0,$GPRMC,120451,A,5442.9291,N,11318.4463,W,000.0,177.4,220819,017.7,E*68
01DF0F,0226B7,00C4A0,$GPRMC,120452,A,5442.9294,N,11318.4469,W,000.0,177.4,220819,017.7,E*64
01DF0C,0226B3,00C49E,$GPRMC,120453,A,5442.9296,N,11318.4474,W,000.0,177.4,220819,017.7,E*6B
01DF0E,0226B5,00C49F,$GPRMC,120454,A,5442.9298,N,11318.4479,W,000.0,177.4,220819,017.7,E*6F
01DF0A,0226B0,00C49D,$GPRMC,120455,A,5442.9301,N,11318.4481,W,000.0,177.4,220819,017.7,E*68
01DF0D,0226B4,00C49F,$GPRMC,120456,A,5442.9304,N,11318.4485,W,000.0,177.4,220819,017.7,E*6A
01DF0A,0226AF,00C49D,$GPRMC,120457,A,5442.9306,N,11318.4489,W,000.0,177.4,220819,017.7,E*65
01DF0F,0226B8,00C4A0,$GPRMC,120458,A,5442.9309,N,11318.4493,W,000.0,177.4,220819,017.7,E*6E
01DF0A,0226AF,00C49D,$GPRMC,120459,A,5442.9308,N,11318.4492,W,000.0,177.4,220819,017.7,E*6F
01DF0F,0226B7,00C4A0,$GPRMC,120500,A,5442.9311,N,11318.4498,W,000.0,177.4,220819,017.7,E*60
01DF0C,0226B4,00C49F,$GPRMC,120501,A,5442.9315,N,11318.4503,W,000.0,177.4,220819,017.7,E*66
01DF0F,0226B7,00C4A0,$GPRMC,120502,A,5442.9315,N,11318.4508,W,000.0,177.4,220819,017.7,E*6E
01DF09,0226AE,00C49C,$GPRMC,120503,A,5442.9315,N,11318.4513,W,000.0,177.4,220819,017.7,E*65
01DF0E,0226B3,00C49F,$GPRMC,120504,A,5442.9320,N,11318.4517,W,000.0,177.4,220819,017.7,E*60
01DF08,0226AD,00C49C,$GPRMC,120505,A,5442.9319,N,11318.4515,W,000.0,177.4,220819,017.7,E*69
01DF0E,0226B6,00C4A0,$GPRMC,120506,A,5442.9323,N,11318.4520,W,000.0,177.4,220819,017.7,E*65
01DF0A,0226AF,00C49E,$GPRMC,120507,A,5442.9326,N,11318.4524,W,000.0,177.4,220819,017.7,E*65
01DF0E,0226B6,00C4A0,$GPRMC,120508,A,5442.9330,N,11318.4528,W,000.0,177.4,220819,017.7,E*61
01DF0D,0226B4,00C4A0,$GPRMC,120509,A,5442.9333,N,11318.4532,W,000.0,177.4,220819,017.7,E*68
01DF0F,0226B8,00C4A1,$GPRMC,120510,A,5442.9337,N,11318.4536,W,000.0,177.4,220819,017.7,E*60
01DF0A,0226B3,00C49E,$GPRMC,120511,A,5442.9340,N,11318.4539,W,000.0,177.4,220819,017.7,E*6E
01DF0B,0226B4,00C49E,$GPRMC,120512,A,5442.9343,N,11318.4543,W,000.0,177.4,220819,017.7,E*63
01DF0C,0226B4,00C49E,$GPRMC,120513,A,5442.9346,N,11318.4546,W,000.0,177.4,220819,017.7,E*62
01DF0E,0226B9,00C4A0,$GPRMC,120514,A,5442.9350,N,11318.4549,W,000.0,177.4,220819,017.7,E*6D
01DF0B,0226B5,00C49F,$GPRMC,120515,A,5442.9353,N,11318.4553,W,000.0,177.4,220819,017.7,E*64
01DF0E,0226B9,00C4A0,$GPRMC,120516,A,5442.9356,N,11318.4556,W,000.0,177.4,220819,017.7,E*67
01DF0C,0226B6,00C49F,$GPRMC,120517,A,5442.9359,N,11318.4558,W,000.0,177.4,220819,017.7,E*67
01DF0D,0226B6,00C49E,$GPRMC,120518,A,5442.9362,N,11318.4561,W,000.0,177.4,220819,017.7,E*6A
01DF0D,0226B6,00C49F,$GPRMC,120519,A,5442.9365,N,11318.4563,W,000.0,177.4,220819,017.7,E*6E
01DF0D,0226B8,00C4A0,$GPRMC,120520,A,5442.9368,N,11318.4566,W,000.0,177.4,220819,017.7,E*6C
01DF0D,0226B8,00C4A0,$GPRMC,120521,A,5442.9371,N,11318.4569,W,000.0,177.4,220819,017.7,E*6A
01DF0E,0226BB,00C4A1,$GPRMC,120522,A,5442.9375,N,11318.4572,W,000.0,177.4,220819,017.7,E*67
01DF09,0226B4,00C49E,$GPRMC,120523,A,5442.9378,N,11318.4574,W,000.0,177.4,220819,017.7,E*6D
01DF0C,0226BA,00C4A1,$GPRMC,120524,A,5442.9381,N,11318.4577,W,000.0,177.4,220819,017.7,E*6F
01DF0B,0226B7,00C49F,$GPRMC,120525,A,5442.9384,N,11318.4579,W,000.0,177.4,220819,017.7,E*65
01DF0C,0226BA,00C49F,$GPRMC,120526,A,5442.9386,N,11318.4581,W,000.0,177.4,220819,017.7,E*63
01DF07,0226B2,00C49C,$GPRMC,120527,A,5442.9389,N,11318.4583,W,000.0,177.4,220819,017.7,E*6F
01DF0D,0226BA,00C4A0,$GPRMC,120528,A,5442.9392,N,11318.4585,W,000.0,177.4,220819,017.7,E*6C
01DF08,0226B3,00C49D,$GPRMC,120529,A,5442.9394,N,11318.4587,W,000.0,177.4,220819,017.7,E*69
01DF0A,0226B5,00C49E,$GPRMC,120530,A,5442.9397,N,11318.4589,W,000.0,177.4,220819,017.7,E*6C
01DF0D,0226B9,00C4A0,$GPRMC,120531,A,5442.9400,N,11318.4591,W,000.0,177.4,220819,017.7,E*6D
01DF09,0226B5,00C49E,$GPRMC,120532,A,5442.9402,N,11318.4592,W,000.0,177.4,220819,017.7,E*6F
01DF0A,0226B6,00C49F,$GPRMC,120533,A,5442.9405,N,11318.4594,W,000.0,177.4,220819,017.7,E*6F
01DF0D,0226B8,00C4A0,$GPRMC,120534,A,5442.9407,N,11318.4595,W,000.0,177.4,220819,017.7,E*6B
01DF07,0226B1,00C49C,$GPRMC,120535,A,5442.9410,N,11318.4597,W,000.0,177.4,220819,017.7,E*6E
01DF0A,0226B5,00C49E,$GPRMC,120536,A,5442.9413,N,11318.4598,W,000.0,177.4,220819,017.7,E*61
01DF0A,0226B5,00C49E,$GPRMC,120537,A,5442.9415,N,11318.4600,W,000.0,177.4,220819,017.7,E*64
01DF08,0226B2,00C49D,$GPRMC,120538,A,5442.9417,N,11318.4601,W,000.0,177.4,220819,017.7,E*68
01DF07,0226B0,00C49D,$GPRMC,120539,A,5442.9419,N,11318.4603,W,000.0,177.4,220819,017.7,E*65
01DF0A,0226B3,00C49E,$GPRMC,120540,A,5442.9421,N,11318.4605,W,000.0,177.4,220819,017.7,E*66
01DF0A,0226B3,00C49E,$GPRMC,120541,A,5442.9422,N,11318.4606,W,000.0,177.4,220819,017.7,E*67
01DF0B,0226B4,00C49E,$GPRMC,120542,A,5442.9423,N,11318.4607,W,000.0,177.4,220819,017.7,E*64
01DF09,0226B2,00C49E,$GPRMC,120543,A,5442.9416,N,11318.4608,W,000.0,177.4,220819,017.7,E*6C
01DF09,0226B3,00C49F,$GPRMC,120544,A,5442.9410,N,11318.4608,W,000.0,177.4,220819,017.7,E*6D
01DF08,0226B1,00C49E,$GPRMC,120545,A,5442.9408,N,11318.4609,W,000.0,177.4,220819,017.7,E*64
01DF08,0226B0,00C49E,$GPRMC,120546,A,5442.9402,N,11318.4609,W,000.0,177.4,220819,017.7,E*6D
01DF08,0226B1,00C49E,$GPRMC,120547,A,5442.9396,N,11318.4610,W,000.0,177.4,220819,017.7,E*6E
01DF0A,0226B3,00C49F,$GPRMC,120548,A,5442.9397,N,11318.4611,W,000.0,177.4,220819,017.7,E*61
01DF08,0226AE,00C49D,$GPRMC,120549,A,5442.9392,N,11318.4611,W,000.0,177.4,220819,017.7,E*65
01DF09,0226B1,00C49E,$GPRMC,120550,A,5442.9388,N,11318.4611,W,000.0,177.4,220819,017.7,E*66
01DF07,0226AC,00C49D,$GPRMC,120551,A,5442.9385,N,11318.4612,W,000.0,177.4,220819,017.7,E*69
01DF06,0226AC,00C49D,$GPRMC,120552,A,5442.9382,N,11318.4613,W,000.0,177.4,220819,017.7,E*6C
01DF0C,0226B5,00C4A0,$GPRMC,120553,A,5442.9380,N,11318.4613,W,000.0,177.4,220819,017.7,E*6F
01DF06,0226AA,00C49C,$GPRMC,120554,A,5442.9379,N,11318.4614,W,000.0,177.4,220819,017.7,E*69
01DF09,0226AF,00C49E,$GPRMC,120555,A,5442.9381,N,11318.4614,W,000.0,177.4,220819,017.7,E*6F
01DF0E,0226B6,00C4A1,$GPRMC,120556,A,5442.9383,N,11318.4615,W,000.0,177.4,220819,017.7,E*6F
01DF0D,0226B5,00C4A1,$GPRMC,120557,A,5442.9384,N,11318.4615,W,000.0,177.4,220819,017.7,E*69
01DF0C,0226B4,00C4A0,$GPRMC,120558,A,5442.9386,N,11318.4615,W,000.0,177.4,220819,017.7,E*64
01DF0B,0226B1,00C4A0,$GPRMC,120559,A,5442.9387,N,11318.4616,W,000.0,177.4,220819,017.7,E*67
01DF0C,0226B2,00C4A0,$GPRMC,120600,A,5442.9388,N,11318.4616,W,000.0,177.4,220819,017.7,E*67
01DF0A,0226AF,00C49F,$GPRMC,120601,A,5442.9389,N,11318.4616,W,000.0,177.4,220819,017.7,E*67
01DF0B,0226B0,00C49F,$GPRMC,120602,A,5442.9390,N,11318.4617,W,000.0,177.4,220819,017.7,E*6D
01DF0A,0226B0,00C49F,$GPRMC,120603,A,5442.9391,N,11318.4618,W,000.0,177.4,220819,017.7,E*62
01DF0A,0226AF,00C49F,$GPRMC,120604,A,5442.9393,N,11318.4618,W,000.0,177.4,220819,017.7,E*67
01DF0C,0226B3,00C4A1,$GPRMC,120605,A,5442.9394,N,11318.4619,W,000.0,177.4,220819,017.7,E*60
01DF0A,0226AF,00C49F,$GPRMC,120606,A,5442.9395,N,11318.4620,W,000.0,177.4,220819,017.7,E*68
01DF0B,0226B1,00C4A0,$GPRMC,120607,A,5442.9396,N,11318.4621,W,000.0,177.4,220819,017.7,E*6B
01DF0C,0226B2,00C4A0,$GPRMC,120608,A,5442.9398,N,11318.4623,W,000.0,177.4,220819,017.7,E*68
01DF09,0226AE,00C49E,$GPRMC,120609,A,5442.9399,N,11318.4624,W,000.0,177.4,220819,017.7,E*6F
01DF0A,0226AF,00C49F,$GPRMC,120610,A,5442.9401,N,11318.4626,W,000.0,177.4,220819,017.7,E*63
01DF0C,0226B2,00C4A0,$GPRMC,120611,A,5442.9402,N,11318.4628,W,000.0,177.4,220819,017.7,E*6F
01DF09,0226AE,00C49F,$GPRMC,120612,A,5442.9403,N,11318.4629,W,000.0,177.4,220819,017.7,E*6C
01DF0B,0226B1,00C4A0,$GPRMC,120613,A,5442.9405,N,11318.4631,W,000.0,177.4,220819,017.7,E*62
01DF0D,0226B2,00C4A1,$GPRMC,120614,A,5442.9406,N,11318.4633,W,000.0,177.4,220819,017.7,E*64
01DF0C,0226B3,00C4A1,$GPRMC,120615,A,5442.9408,N,11318.4634,W,000.0,177.4,220819,017.7,E*6C
01DF0C,0226B1,00C4A0,$GPRMC,120616,A,5442.9409,N,11318.4636,W,000.0,177.4,220819,017.7,E*6C
01DF0B,0226AF,00C4A0,$GPRMC,120617,A,5442.9410,N,11318.4637,W,000.0,177.4,220819,017.7,E*64
01DF0B,0226AF,00C4A0,$GPRMC,120618,A,5442.9411,N,11318.4638,W,000.0,177.4,220819,017.7,E*65
01DF0B,0226B0,00C4A0,$GPRMC,120619,A,5442.9412,N,11318.4638,W,000.0,177.4,220819,017.7,E*67
01DF0A,0226AD,00C4A0,$GPRMC,120620,A,5442.9412,N,11318.4637,W,000.0,177.4,220819,017.7,E*62
01DF0B,0226AF,00C4A1,$GPRMC,120621,A,5442.9413,N,11318.4637,W,000.0,177.4,220819,017.7,E*62
01DF0B,0226AF,00C4A1,$GPRMC,120622,A,5442.9414,N,11318.4637,W,000.0,177.4,220819,017.7,E*66
01DF0A,0226AE,00C4A0,$GPRMC,120623,A,5442.9414,N,11318.4636,W,000.0,177.4,220819,017.7,E*66
01DF0C,0226B0,00C4A2,$GPRMC,120624,A,5442.9415,N,11318.4635,W,000.0,177.4,220819,017.7,E*63
01DF0C,0226B0,00C4A2,$GPRMC,120625,A,5442.9415,N,11318.4635,W,000.0,177.4,220819,017.7,E*62
01DF0A,0226AF,00C4A1,$GPRMC,120626,A,5442.9415,N,11318.4635,W,000.0,177.4,220819,017.7,E*61
01DF08,0226AA,00C49F,$GPRMC,120627,A,5442.9415,N,11318.4635,W,000.0,177.4,220819,017.7,E*60
01DF0B,0226B0,00C4A2,$GPRMC,120628,A,5442.9415,N,11318.4636,W,000.0,177.4,220819,017.7,E*6C
01DF09,0226AC,00C4A0,$GPRMC,120629,A,5442.9414,N,11318.4637,W,000.0,177.4,220819,017.7,E*6D
01DF06,0226A9,00C49F,$GPRMC,120630,A,5442.9413,N,11318.4638,W,000.0,177.4,220819,017.7,E*6D
01DF0C,0226B1,00C4A2,$GPRMC,120631,A,5442.9413,N,11318.4640,W,000.0,177.4,220819,017.7,E*63
01DF09,0226AB,00C4A1,$GPRMC,120632,A,5442.9413,N,11318.4641,W,000.0,177.4,220819,017.7,E*61
01DF08,0226AC,00C4A2,$GPRMC,120633,A,5442.9413,N,11318.4642,W,000.0,177.4,220819,017.7,E*63
01DF06,0226A8,00C4A0,$GPRMC,120634,A,5442.9413,N,11318.4643,W,000.0,177.4,220819,017.7,E*65
01DF0B,0226AE,00C4A3,$GPRMC,120635,A,5442.9413,N,11318.4644,W,000.0,177.4,220819,017.7,E*63
01DF08,0226AA,00C4A2,$GPRMC,120636,A,5442.9414,N,11318.4645,W,000.0,177.4,220819,017.7,E*66
01DF08,0226AB,00C4A2,$GPRMC,120637,A,5442.9414,N,11318.4646,W,000.0,177.4,220819,017.7,E*64
01DF08,0226AC,00C4A2,$GPRMC,120638,A,5442.9415,N,11318.4647,W,000.0,177.4,220819,017.7,E*6B
01DF0A,0226AF,00C4A3,$GPRMC,120639,A,5442.9416,N,11318.4648,W,000.0,177.4,220819,017.7,E*66
01DF09,0226AD,00C4A2,$GPRMC,120640,A,5442.9417,N,11318.4648,W,000.0,177.4,220819,017.7,E*69
01DF08,0226AD,00C4A3,$GPRMC,120641,A,5442.9418,N,11318.4649,W,000.0,177.4,220819,017.7,E*66
01DF07,0226AC,00C4A2,$GPRMC,120642,A,5442.9419,N,11318.4649,W,000.0,177.4,220819,017.7,E*64
01DF09,0226AF,00C4A3,$GPRMC,120643,A,5442.9420,N,11318.4650,W,000.0,177.4,220819,017.7,E*67
01DF05,0226A8,00C4A0,$GPRMC,120644,A,5442.9421,N,11318.4651,W,000.0,177.4,220819,017.7,E*60
01DF08,0226AD,00C4A2,$GPRMC,120645,A,5442.9422,N,11318.4652,W,000.0,177.4,220819,017.7,E*61
01DF02,0226A5,00C49F,$GPRMC,120646,A,5442.9423,N,11318.4654,W,000.0,177.4,220819,017.7,E*65
01DF0B,0226B3,00C4A5,$GPRMC,120647,A,5442.9424,N,11318.4655,W,000.0,177.4,220819,017.7,E*62
01DF08,0226AE,00C4A3,$GPRMC,120648,A,5442.9425,N,11318.4657,W,000.0,177.4,220819,017.7,E*6E
01DF09,0226B1,00C4A4,$GPRMC,120649,A,5442.9426,N,11318.4658,W,000.0,177.4,220819,017.7,E*63
01DF06,0226AD,00C4A3,$GPRMC,120650,A,5442.9427,N,11318.4659,W,000.0,177.4,220819,017.7,E*6B
01DF0A,0226B3,00C4A5,$GPRMC,120651,A,5442.9427,N,11318.4661,W,000.0,177.4,220819,017.7,E*61
01DF06,0226AC,00C4A3,$GPRMC,120652,A,5442.9428,N,11318.4662,W,000.0,177.4,220819,017.7,E*6E
01DF07,0226AD,00C4A3,$GPRMC,120653,A,5442.9429,N,11318.4663,W,000.0,177.4,220819,017.7,E*6F
01DF08,0226AF,00C4A3,$GPRMC,120654,A,5442.9430,N,11318.4664,W,000.0,177.4,220819,017.7,E*67
01DF08,0226B0,00C4A4,$GPRMC,120655,A,5442.9430,N,11318.4665,W,000.0,177.4,220819,017.7,E*67
01DF04,0226AB,00C4A2,$GPRMC,120656,A,5442.9430,N,11318.4666,W,000.0,177.4,220819,017.7,E*67
01DF06,0226AF,00C4A3,$GPRMC,120657,A,5442.9431,N,11318.4666,W,000.0,177.4,220819,017.7,E*67
01DF05,0226AB,00C4A2,$GPRMC,120658,A,5442.9430,N,11318.4666,W,000.0,177.4,220819,017.7,E*69
01DF06,0226AF,00C4A3,$GPRMC,120659,A,5442.9428,N,11318.4667,W,000.0,177.4,220819,017.7,E*60
01DF02,0226A7,00C4A0,$GPRMC,120700,A,5442.9427,N,11318.4667,W,000.0,177.4,220819,017.7,E*62
01DF04,0226AC,00C4A2,$GPRMC,120701,A,5442.9427,N,11318.4668,W,000.0,177.4,220819,017.7,E*6C
01DF03,0226A9,00C4A2,$GPRMC,120702,A,5442.9428,N,11318.4669,W,000.0,177.4,220819,017.7,E*61
01DF04,0226AB,00C4A3,$GPRMC,120703,A,5442.9427,N,11318.4670,W,000.0,177.4,220819,017.7,E*67
01DF03,0226A8,00C4A2,$GPRMC,120704,A,5442.9428,N,11318.4670,W,000.0,177.4,220819,017.7,E*6F
01DEFF,0226A2,00C49F,$GPRMC,120705,A,5442.9427,N,11318.4671,W,000.0,177.4,220819,017.7,E*60
01DF01,0226A5,00C4A1,$GPRMC,120706,A,5442.9427,N,11318.4673,W,000.0,177.4,220819,017.7,E*61
01DEFE,0226A2,00C49F,$GPRMC,120707,A,5442.9426,N,11318.4674,W,000.0,177.4,220819,017.7,E*66
01DEFE,0226A1,00C49F,$GPRMC,120708,A,5442.9426,N,11318.4674,W,000.0,177.4,220819,017.7,E*69
01DF00,0226A4,00C4A0,$GPRMC,120709,A,5442.9426,N,11318.4674,W,000.0,177.4,220819,017.7,E*68
01DEFE,0226A0,00C49F,$GPRMC,120710,A,5442.9426,N,11318.4675,W,000.0,177.4,220819,017.7,E*61
01DF01,0226A5,00C4A1,$GPRMC,120711,A,5442.9426,N,11318.4674,W,000.0,177.4,220819,017.7,E*61
01DF00,0226A3,00C4A0,$GPRMC,120712,A,5442.9426,N,11318.4674,W,000.0,177.4,220819,017.7,E*62
01DEFE,0226A2,00C49F,$GPRMC,120713,A,5442.9429,N,11318.4675,W,000.0,177.4,220819,017.7,E*6D
01DEFF,0226A2,00C4A0,$GPRMC,120714,A,5442.9428,N,11318.4675,W,000.0,177.4,220819,017.7,E*6B
01DF00,0226A4,00C4A0,$GPRMC,120715,A,5442.9428,N,11318.4674,W,000.0,177.4,220819,017.7,E*6B
01DEFE,0226A1,00C49F,$GPRMC,120716,A,5442.9427,N,11318.4675,W,000.0,177.4,220819,017.7,E*66
01DEFC,02269D,00C49E,$GPRMC,120717,A,5442.9425,N,11318.4676,W,000.0,177.4,220819,017.7,E*66
01DEFD,0226A0,00C49F,$GPRMC,120718,A,5442.9424,N,11318.4677,W,000.0,177.4,220819,017.7,E*69
01DEFD,0226A0,00C4A0,$GPRMC,120719,A,5442.9422,N,11318.4679,W,000.0,177.4,220819,017.7,E*60
01DF01,0226A5,00C4A1,$GPRMC,120720,A,5442.9421,N,11318.4680,W,000.0,177.4,220819,017.7,E*6F
01DF02,0226A6,00C4A2,$GPRMC,120721,A,5442.9420,N,11318.4682,W,000.0,177.4,220819,017.7,E*6D
01DF00,0226A4,00C4A1,$GPRMC,120722,A,5442.9419,N,11318.4683,W,000.0,177.4,220819,017.7,E*65
01DF01,0226A6,00C4A3,$GPRMC,120723,A,5442.9418,N,11318.4684,W,000.0,177.4,220819,017.7,E*62
01DF00,0226A5,00C4A3,$GPRMC,120724,A,5442.9417,N,11318.4685,W,000.0,177.4,220819,017.7,E*6B
01DF02,0226A6,00C4A4,$GPRMC,120725,A,5442.9417,N,11318.4686,W,000.0,177.4,220819,017.7,E*69
01DEFF,0226A4,00C4A3,$GPRMC,120726,A,5442.9417,N,11318.4687,W,000.0,177.4,220819,017.7,E*6B
01DF01,0226A5,00C4A4,$GPRMC,120727,A,5442.9417,N,11318.4687,W,000.0,177.4,220819,017.7,E*6A
01DF02,0226A8,00C4A5,$GPRMC,120728,A,5442.9417,N,11318.4687,W,000.0,177.4,220819,017.7,E*65
01DEFE,0226A1,00C4A2,$GPRMC,120729,A,5442.9417,N,11318.4688,W,000.0,177.4,220819,017.7,E*6B
01DEFF,0226A2,00C4A3,$GPRMC,120730,A,5442.9417,N,11318.4688,W,000.0,177.4,220819,017.7,E*63
01DF00,0226A3,00C4A4,$GPRMC,120731,A,5442.9418,N,11318.4688,W,000.0,177.4,220819,017.7,E*6D
01DEFE,0226A1,00C4A3,$GPRMC,120732,A,5442.9418,N,11318.4688,W,000.0,177.4,220819,017.7,E*6E
01DEFF,0226A2,00C4A4,$GPRMC,120733,A,5442.9419,N,11318.4689,W,000.0,177.4,220819,017.7,E*6F
01DF01,0226A5,00C4A5,$GPRMC,120734,A,5442.9420,N,11318.4689,W,000.0,177.4,220819,017.7,E*62
01DEFC,02269E,00C4A2,$GPRMC,120735,A,5442.9421,N,11318.4690,W,000.0,177.4,220819,017.7,E*6A
01DEFE,0226A2,00C4A3,$GPRMC,120736,A,5442.9422,N,11318.4691,W,000.0,177.4,220819,017.7,E*6B
01DEFF,0226A4,00C4A4,$GPRMC,120737,A,5442.9423,N,11318.4691,W,000.0,177.4,220819,017.7,E*6B
01DEFE,0226A0,00C4A3,$GPRMC,120738,A,5442.9424,N,11318.4692,W,000.0,177.4,220819,017.7,E*60
01DEFD,0226A0,00C4A2,$GPRMC,120739,A,5442.9424,N,11318.4693,W,000.0,177.4,220819,017.7,E*60
01DEFD,0226A1,00C4A2,$GPRMC,120740,A,5442.9424,N,11318.4694,W,000.0,177.4,220819,017.7,E*69
01DEFC,0226A1,00C4A2,$GPRMC,120741,A,5442.9424,N,11318.4695,W,000.0,177.4,220819,017.7,E*69
01DF00,0226A5,00C4A4,$GPRMC,120742,A,5442.9424,N,11318.4695,W,000.0,177.4,220819,017.7,E*6A
01DEFB,02269F,00C4A1,$GPRMC,120743,A,5442.9424,N,11318.4696,W,000.0,177.4,220819,017.7,E*68
01DEFB,02269E,00C4A1,$GPRMC,120744,A,5442.9424,N,11318.4697,W,000.0,177.4,220819,017.7,E*6E
01DEFE,0226A3,00C4A3,$GPRMC,120745,A,5442.9425,N,11318.4697,W,000.0,177.4,220819,017.7,E*6E
01DEFF,0226A5,00C4A5,$GPRMC,120746,A,5442.9426,N,11318.4697,W,000.0,177.4,220819,017.7,E*6E
01DEFD,0226A3,00C4A3,$GPRMC,120747,A,5442.9427,N,11318.4697,W,000.0,177.4,220819,017.7,E*6E
01DEFE,0226A4,00C4A3,$GPRMC,120748,A,5442.9428,N,11318.4696,W,000.0,177.4,220819,017.7,E*6F
01DF01,0226A9,00C4A5,$GPRMC,120749,A,5442.9429,N,11318.4695,W,000.0,177.4,220819,017.7,E*6C
01DEFE,0226A3,00C4A3,$GPRMC,120750,A,5442.9430,N,11318.4695,W,000.0,177.4,220819,017.7,E*6C
01DEFE,0226A4,00C4A4,$GPRMC,120751,A,5442.9431,N,11318.4694,W,000.0,177.4,220819,017.7,E*6D
01DEFF,0226A5,00C4A5,$GPRMC,120752,A,5442.9432,N,11318.4693,W,000.0,177.4,220819,017.7,E*6A
01DEFB,0226A0,00C4A2,$GPRMC,120753,A,5442.9432,N,11318.4693,W,000.0,177.4,220819,017.7,E*6B
01DEFA,02269F,00C4A2,$GPRMC,120754,A,5442.9433,N,11318.4692,W,000.0,177.4,220819,017.7,E*6C
01DEFE,0226A3,00C4A4,$GPRMC,120755,A,5442.9434,N,11318.4692,W,000.0,177.4,220819,017.7,E*6A
01DEFC,0226A0,00C4A3,$GPRMC,120756,A,5442.9434,N,11318.4692,W,000.0,177.4,220819,017.7,E*69
01DEFE,0226A3,00C4A4,$GPRMC,120757,A,5442.9433,N,11318.4693,W,000.0,177.4,220819,017.7,E*6E
01DEF9,02269D,00C4A2,$GPRMC,120758,A,5442.9433,N,11318.4693,W,000.0,177.4,220819,017.7,E*61
01DEFB,02269F,00C4A2,$GPRMC,120759,A,5442.9432,N,11318.4695,W,000.0,177.4,220819,017.7,E*67
01DEFD,0226A3,00C4A4,$GPRMC,120800,A,5442.9432,N,11318.4695,W,000.0,177.4,220819,017.7,E*64
01DEFB,02269F,00C4A3,$GPRMC,120801,A,5442.9432,N,11318.4696,W,000.0,177.4,220819,017.7,E*66
01DEFE,0226A4,00C4A5,$GPRMC,120802,A,5442.9431,N,11318.4698,W,000.0,177.4,220819,017.7,E*68
01DEF9,02269C,00C4A2,$GPRMC,120803,A,5442.9431,N,11318.4699,W,000.0,177.4,220819,017.7,E*68
01DEFB,0226A0,00C4A3,$GPRMC,120804,A,5442.9430,N,11318.4700,W,000.0,177.4,220819,017.7,E*6F
01DEFA,02269E,00C4A3,$GPRMC,120805,A,5442.9429,N,11318.4700,W,000.0,177.4,220819,017.7,E*66
01DEFB,0226A1,00C4A3,$GPRMC,120806,A,5442.9429,N,11318.4701,W,000.0,177.4,220819,017.7,E*64
01DEFB,0226A1,00C4A3,$GPRMC,120807,A,5442.9429,N,11318.4702,W,000.0,177.4,220819,017.7,E*66
01DEF8,02269C,00C4A2,$GPRMC,120808,A,5442.9430,N,11318.4703,W,000.0,177.4,220819,017.7,E*60
01DEF5,022699,00C4A0,$GPRMC,120809,A,5442.9432,N,11318.4703,W,000.0,177.4,220819,017.7,E*63
01DEFD,0226A4,00C4A4,$GPRMC,120810,A,5442.9433,N,11318.4704,W,000.0,177.4,220819,017.7,E*6D
01DEFA,0226A1,00C4A3,$GPRMC,120811,A,5442.9435,N,11318.4705,W,000.0,177.4,220819,017.7,E*6B
01DEFA,0226A1,00C4A3,$GPRMC,120812,A,5442.9435,N,11318.4706,W,000.0,177.4,220819,017.7,E*6B
01DEF9,02269F,00C4A3,$GPRMC,120813,A,5442.9437,N,11318.4707,W,000.0,177.4,220819,017.7,E*69
01DEFB,0226A4,00C4A4,$GPRMC,120814,A,5442.9438,N,11318.4707,W,000.0,177.4,220819,017.7,E*61
01DEF6,02269E,00C4A3,$GPRMC,120815,A,5442.9440,N,11318.4707,W,000.0,177.4,220819,017.7,E*6F
01DEF6,02269C,00C4A2,$GPRMC,120816,A,5442.9442,N,11318.4708,W,000.0,177.4,220819,017.7,E*61
01DEF7,02269F,00C4A3,$GPRMC,120817,A,5442.9442,N,11318.4708,W,000.0,177.4,220819,017.7,E*60
01DEF7,02269E,00C4A2,$GPRMC,120818,A,5442.9450,N,11318.4705,W,000.0,177.4,220819,017.7,E*61
01DEF6,02269C,00C4A2,$GPRMC,120819,A,5442.9451,N,11318.4704,W,000.0,177.4,220819,017.7,E*60
01DEF5,02269C,00C4A2,$GPRMC,120820,A,5442.9452,N,11318.4703,W,000.0,177.4,220819,017.7,E*6E
01DEF7,02269E,00C4A2,$GPRMC,120821,A,5442.9453,N,11318.4701,W,000.0,177.4,220819,017.7,E*6C
01DEF4,02269B,00C4A0,$GPRMC,120822,A,5442.9454,N,11318.4700,W,000.0,177.4,220819,017.7,E*69
01DEF5,02269C,00C4A1,$GPRMC,120823,A,5442.9456,N,11318.4699,W,000.0,177.4,220819,017.7,E*6B
01DEF6,02269F,00C4A2,$GPRMC,120824,A,5442.9457,N,11318.4697,W,000.0,177.4,220819,017.7,E*63
01DEF6,02269D,00C4A1,$GPRMC,120825,A,5442.9458,N,11318.4696,W,000.0,177.4,220819,017.7,E*6C
01DEF8,0226A0,00C4A3,$GPRMC,120826,A,5442.9459,N,11318.4694,W,000.0,177.4,220819,017.7,E*6C
01DEF7,02269E,00C4A2,$GPRMC,120827,A,5442.9459,N,11318.4693,W,000.0,177.4,220819,017.7,E*6A
01DEF5,02269B,00C4A1,$GPRMC,120828,A,5442.9460,N,11318.4692,W,000.0,177.4,220819,017.7,E*6E
01DEFB,0226A3,00C4A4,$GPRMC,120829,A,5442.9460,N,11318.4690,W,000.0,177.4,220819,017.7,E*6D
01DEF9,0226A1,00C4A3,$GPRMC,120830,A,5442.9461,N,11318.4689,W,000.0,177.4,220819,017.7,E*6C
01DEF7,02269F,00C4A2,$GPRMC,120831,A,5442.9461,N,11318.4688,W,000.0,177.4,220819,017.7,E*6C
01DEF9,0226A2,00C4A3,$GPRMC,120832,A,5442.9462,N,11318.4686,W,000.0,177.4,220819,017.7,E*62
01DEF7,02269E,00C4A2,$GPRMC,120833,A,5442.9462,N,11318.4686,W,000.0,177.4,220819,017.7,E*63
01DEF7,02269F,00C4A2,$GPRMC,120834,A,5442.9462,N,11318.4685,W,000.0,177.4,220819,017.7,E*67
01DEF7,02269F,00C4A2,$GPRMC,120835,A,5442.9462,N,11318.4684,W,000.0,177.4,220819,017.7,E*67
01DEF8,02269F,00C4A2,$GPRMC,120836,A,5442.9462,N,11318.4683,W,000.0,177.4,220819,017.7,E*63
01DEF6,02269C,00C4A2,$GPRMC,120837,A,5442.9463,N,11318.4683,W,000.0,177.4,220819,017.7,E*63
01DEF6,02269D,00C4A2,$GPRMC,120838,A,5442.9463,N,11318.4683,W,000.0,177.4,220819,017.7,E*6C
01DEF7,0226A0,00C4A2,$GPRMC,120839,A,5442.9464,N,11318.4683,W,000.0,177.4,220819,017.7,E*6A
01DEF7,02269F,00C4A2,$GPRMC,120840,A,5442.9465,N,11318.4682,W,000.0,177.4,220819,017.7,E*64
01DEF5,02269D,00C4A1,$GPRMC,120841,A,5442.9465,N,11318.4682,W,000.0,177.4,220819,017.7,E*65
01DEF6,02269F,00C4A2,$GPRMC,120842,A,5442.9466,N,11318.4683,W,000.0,177.4,220819,017.7,E*64
01DEF7,02269F,00C4A3,$GPRMC,120843,A,5442.9466,N,11318.4683,W,000.0,177.4,220819,017.7,E*65
01DEF6,02269E,00C4A2,$GPRMC,120844,A,5442.9466,N,11318.4684,W,000.0,177.4,220819,017.7,E*65
01DEF6,0226A2,00C4A3,$GPRMC,120845,A,5442.9467,N,11318.4684,W,000.0,177.4,220819,017.7,E*65
01DEF3,0226A0,00C4A3,$GPRMC,120846,A,5442.9467,N,11318.4685,W,000.0,177.4,220819,017.7,E*67
01DEEF,02269B,00C4A0,$GPRMC,120847,A,5442.9467,N,11318.4684,W,000.0,177.4,220819,017.7,E*67
01DEF1,02269E,00C4A2,$GPRMC,120848,A,5442.9467,N,11318.4684,W,000.0,177.4,220819,017.7,E*68
01DEF0,0226A0,00C4A2,$GPRMC,120849,A,5442.9467,N,11318.4684,W,000.0,177.4,220819,017.7,E*69
01DEEF,02269F,00C4A2,$GPRMC,120850,A,5442.9468,N,11318.4684,W,000.0,177.4,220819,017.7,E*6E
01DEEF,0226A0,00C4A2,$GPRMC,120851,A,5442.9467,N,11318.4684,W,000.0,177.4,220819,017.7,E*60
01DEEC,02269D,00C4A1,$GPRMC,120852,A,5442.9467,N,11318.4684,W,000.0,177.4,220819,017.7,E*63
01DEED,02269E,00C4A1,$GPRMC,120853,A,5442.9467,N,11318.4684,W,000.0,177.4,220819,017.7,E*62
01DEEC,02269E,00C4A0,$GPRMC,120854,A,5442.9467,N,11318.4684,W,000.0,177.4,220819,017.7,E*65
01DEF0,0226A2,00C4A2,$GPRMC,120855,A,5442.9467,N,11318.4684,W,000.0,177.4,220819,017.7,E*64
01DEF0,0226A0,00C4A1,$GPRMC,120856,A,5442.9467,N,11318.4685,W,000.0,177.4,220819,017.7,E*66
01DEEF,02269F,00C4A1,$GPRMC,120857,A,5442.9467,N,11318.4686,W,000.0,177.4,220819,017.7,E*64
01DEF1,0226A2,00C4A1,$GPRMC,120858,A,5442.9467,N,11318.4686,W,000.0,177.4,220819,017.7,E*6B
01DEEE,0226A1,00C4A1,$GPRMC,120859,A,5442.9467,N,11318.4687,W,000.0,177.4,220819,017.7,E*6B
01DEF1,0226A4,00C4A3,$GPRMC,120900,A,5442.9466,N,11318.4688,W,000.0,177.4,220819,017.7,E*68
01DEEF,0226A2,00C4A1,$GPRMC,120901,A,5442.9466,N,11318.4689,W,000.0,177.4,220819,017.7,E*68
01DEEF,0226A1,00C4A1,$GPRMC,120902,A,5442.9465,N,11318.4690,W,000.0,177.4,220819,017.7,E*60
01DEF1,0226A6,00C4A4,$GPRMC,120903,A,5442.9465,N,11318.4691,W,000.0,177.4,220819,017.7,E*60
01DEEC,02269D,00C4A0,$GPRMC,120904,A,5442.9466,N,11318.4693,W,000.0,177.4,220819,017.7,E*66
01DEF1,0226A5,00C4A3,$GPRMC,120905,A,5442.9467,N,11318.4694,W,000.0,177.4,220819,017.7,E*61
01DEEC,02269C,00C49F,$GPRMC,120906,A,5442.9470,N,11318.4694,W,000.0,177.4,220819,017.7,E*64
01DEF1,0226A5,00C4A2,$GPRMC,120907,A,5442.9472,N,11318.4695,W,000.0,177.4,220819,017.7,E*66
01DEED,02269C,00C4A0,$GPRMC,120908,A,5442.9474,N,11318.4695,W,000.0,177.4,220819,017.7,E*6F
01DEEE,02269C,00C4A0,$GPRMC,120909,A,5442.9474,N,11318.4695,W,000.0,177.4,220819,017.7,E*6E
01DEEB,022698,00C49D,$GPRMC,120910,A,5442.9473,N,11318.4696,W,000.0,177.4,220819,017.7,E*62
01DEEE,02269E,00C4A0,$GPRMC,120911,A,5442.9473,N,11318.4696,W,000.0,177.4,220819,017.7,E*63
01DEEE,02269B,00C4A0,$GPRMC,120912,A,5442.9472,N,11318.4696,W,000.0,177.4,220819,017.7,E*61
01DEEF,02269C,00C4A1,$GPRMC,120913,A,5442.9472,N,11318.4696,W,000.0,177.4,220819,017.7,E*60
01DEEF,02269E,00C4A1,$GPRMC,120914,A,5442.9472,N,11318.4696,W,000.0,177.4,220819,017.7,E*67
01DEED,022698,00C49F,$GPRMC,120915,A,5442.9472,N,11318.4696,W,000.0,177.4,220819,017.7,E*66
01DEF0,02269E,00C4A1,$GPRMC,120916,A,5442.9472,N,11318.4696,W,000.0,177.4,220819,017.7,E*65
01DEF0,02269E,00C4A0,$GPRMC,120917,A,5442.9471,N,11318.4695,W,000.0,177.4,220819,017.7,E*64
01DEF1,02269F,00C4A1,$GPRMC,120918,A,5442.9470,N,11318.4695,W,000.0,177.4,220819,017.7,E*6A
01DEEF,02269B,00C49F,$GPRMC,120919,A,5442.9469,N,11318.4695,W,000.0,177.4,220819,017.7,E*63
01DEEB,022694,00C49D,$GPRMC,120920,A,5442.9467,N,11318.4694,W,000.0,177.4,220819,017.7,E*66
01DEEF,02269B,00C49F,$GPRMC,120921,A,5442.9465,N,11318.4693,W,000.0,177.4,220819,017.7,E*62
01DEED,022697,00C49E,$GPRMC,120922,A,5442.9463,N,11318.4692,W,000.0,177.4,220819,017.7,E*66
01DEF2,02269D,00C4A1,$GPRMC,120923,A,5442.9462,N,11318.4691,W,000.0,177.4,220819,017.7,E*65
01DEED,022697,00C49F,$GPRMC,120924,A,5442.9462,N,11318.4690,W,000.0,177.4,220819,017.7,E*63
01DEED,022698,00C49F,$GPRMC,120925,A,5442.9461,N,11318.4688,W,000.0,177.4,220819,017.7,E*68
01DEED,022697,00C4A0,$GPRMC,120926,A,5442.9456,N,11318.4685,W,000.0,177.4,220819,017.7,E*62
01DEED,022697,00C49F,$GPRMC,120927,A,5442.9459,N,11318.4685,W,000.0,177.4,220819,017.7,E*6C
01DEED,022696,00C49F,$GPRMC,120928,A,5442.9463,N,11318.4686,W,000.0,177.4,220819,017.7,E*69
01DEEE,022698,00C4A0,$GPRMC,120929,A,5442.9465,N,11318.4686,W,000.0,177.4,220819,017.7,E*6E
01DEEE,022699,00C4A0,$GPRMC,120930,A,5442.9467,N,11318.4687,W,000.0,177.4,220819,017.7,E*65
01DEF1,02269C,00C4A2,$GPRMC,120931,A,5442.9465,N,11318.4687,W,000.0,177.4,220819,017.7,E*66
01DEED,022697,00C49F,$GPRMC,120932,A,5442.9466,N,11318.4688,W,000.0,177.4,220819,017.7,E*69
01DEF1,02269C,00C4A1,$GPRMC,120933,A,5442.9467,N,11318.4689,W,000.0,177.4,220819,017.7,E*68
01DEF0,02269C,00C4A1,$GPRMC,120934,A,5442.9467,N,11318.4689,W,000.0,177.4,220819,017.7,E*6F
01DEF0,02269B,00C4A2,$GPRMC,120935,A,5442.9467,N,11318.4690,W,000.0,177.4,220819,017.7,E*66
01DEF0,02269B,00C4A1,$GPRMC,120936,A,5442.9467,N,11318.4690,W,000.0,177.4,220819,017.7,E*65
01DEF0,02269A,00C4A1,$GPRMC,120937,A,5442.9466,N,11318.4691,W,000.0,177.4,220819,017.7,E*64
01DEF3,02269E,00C4A3,$GPRMC,120938,A,5442.9466,N,11318.4691,W,000.0,177.4,220819,017.7,E*6B
01DEEF,022699,00C4A0,$GPRMC,120939,A,5442.9465,N,11318.4691,W,000.0,177.4,220819,017.7,E*69
01DEED,022696,00C49F,$GPRMC,120940,A,5442.9465,N,11318.4692,W,000.0,177.4,220819,017.7,E*64
01DEF2,02269D,00C4A2,$GPRMC,120941,A,5442.9465,N,11318.4692,W,000.0,177.4,220819,017.7,E*65
01DEF1,02269B,00C4A1,$GPRMC,120942,A,5442.9464,N,11318.4692,W,000.0,177.4,220819,017.7,E*67
01DEF0,02269B,00C4A0,$GPRMC,120943,A,5442.9464,N,11318.4693,W,000.0,177.4,220819,017.7,E*67
01DEEE,022696,00C4A0,$GPRMC,120944,A,5442.9463,N,11318.4694,W,000.0,177.4,220819,017.7,E*60
01DEEC,022697,00C49F,$GPRMC,120945,A,5442.9467,N,11318.4696,W,000.0,177.4,220819,017.7,E*67
01DEEF,02269D,00C4A1,$GPRMC,120946,A,5442.9468,N,11318.4697,W,000.0,177.4,220819,017.7,E*6A
01DEEA,022696,00C4A0,$GPRMC,120947,A,5442.9469,N,11318.4698,W,000.0,177.4,220819,017.7,E*65
01DEEA,02269A,00C4A1,$GPRMC,120948,A,5442.9470,N,11318.4699,W,000.0,177.4,220819,017.7,E*63
01DEE9,022698,00C4A0,$GPRMC,120949,A,5442.9471,N,11318.4700,W,000.0,177.4,220819,017.7,E*62
01DEEB,02269A,00C4A1,$GPRMC,120950,A,5442.9472,N,11318.4701,W,000.0,177.4,220819,017.7,E*68
01DEED,02269E,00C4A3,$GPRMC,120951,A,5442.9471,N,11318.4702,W,000.0,177.4,220819,017.7,E*69
01DEEA,022699,00C4A0,$GPRMC,120952,A,5442.9471,N,11318.4702,W,000.0,177.4,220819,017.7,E*6A
01DEE7,022695,00C49E,$GPRMC,120953,A,5442.9470,N,11318.4703,W,000.0,177.4,220819,017.7,E*6B
01DEEA,02269A,00C4A0,$GPRMC,120954,A,5442.9469,N,11318.4703,W,000.0,177.4,220819,017.7,E*64
01DEEB,02269B,00C4A1,$GPRMC,120955,A,5442.9471,N,11318.4703,W,000.0,177.4,220819,017.7,E*6C
01DEE8,022696,00C49F,$GPRMC,120956,A,5442.9469,N,11318.4703,W,000.0,177.4,220819,017.7,E*66
01DEEC,02269C,00C4A1,$GPRMC,120957,A,5442.9473,N,11318.4704,W,000.0,177.4,220819,017.7,E*6B
01DEE9,02269A,00C4A0,$GPRMC,120958,A,5442.9469,N,11318.4704,W,000.0,177.4,220819,017.7,E*6F
01DEEA,022698,00C4A0,$GPRMC,120959,A,5442.9470,N,11318.4705,W,000.0,177.4,220819,017.7,E*67
01DEEF,02269F,00C4A2,$GPRMC,121000,A,5442.9472,N,11318.4706,W,000.0,177.4,220819,017.7,E*62
01DEEB,02269A,00C4A0,$GPRMC,121001,A,5442.9473,N,11318.4707,W,000.0,177.4,220819,017.7,E*63
01DEED,02269D,00C4A1,$GPRMC,121002,A,5442.9474,N,11318.4708,W,000.0,177.4,220819,017.7,E*68
01DEEE,0226A0,00C4A2,$GPRMC,121003,A,5442.9476,N,11318.4709,W,000.0,177.4,220819,017.7,E*6A
01DEEB,02269B,00C4A0,$GPRMC,121004,A,5442.9477,N,11318.4710,W,000.0,177.4,220819,017.7,E*64
01DEE9,022699,00C49F,$GPRMC,121005,A,5442.9478,N,11318.4711,W,000.0,177.4,220819,017.7,E*6B
01DEEC,0226A0,00C4A1,$GPRMC,121006,A,5442.9479,N,11318.4713,W,000.0,177.4,220819,017.7,E*6B
01DEEB,02269C,00C4A0,$GPRMC,121007,A,5442.9479,N,11318.4714,W,000.0,177.4,220819,017.7,E*6D
01DEEC,02269D,00C4A1,$GPRMC,121008,A,5442.9479,N,11318.4714,W,000.0,177.4,220819,017.7,E*62
01DEE9,022699,00C49F,$GPRMC,121009,A,5442.9479,N,11318.4714,W,000.0,177.4,220819,017.7,E*63
01DEE9,022698,00C49F,$GPRMC,121010,A,5442.9478,N,11318.4714,W,000.0,177.4,220819,017.7,E*6A
01DEEC,02269D,00C4A1,$GPRMC,121011,A,5442.9477,N,11318.4714,W,000.0,177.4,220819,017.7,E*64
01DEEE,0226A0,00C4A2,$GPRMC,121012,A,5442.9476,N,11318.4714,W,000.0,177.4,220819,017.7,E*66
01DEEB,02269B,00C4A0,$GPRMC,121013,A,5442.9476,N,11318.4714,W,000.0,177.4,220819,017.7,E*67
01DEED,02269C,00C4A0,$GPRMC,121014,A,5442.9475,N,11318.4714,W,000.0,177.4,220819,017.7,E*63
01DEEB,02269C,00C49F,$GPRMC,121015,A,5442.9474,N,11318.4714,W,000.0,177.4,220819,017.7,E*63
01DEED,02269D,00C4A0,$GPRMC,121016,A,5442.9474,N,11318.4714,W,000.0,177.4,220819,017.7,E*60
01DEEC,02269D,00C4A0,$GPRMC,121017,A,5442.9474,N,11318.4713,W,000.0,177.4,220819,017.7,E*66
01DEEB,02269A,00C49F,$GPRMC,121018,A,5442.9474,N,11318.4713,W,000.0,177.4,220819,017.7,E*69
01DEEB,02269B,00C49F,$GPRMC,121019,A,5442.9472,N,11318.4710,W,000.0,177.4,220819,017.7,E*6D
01DEEA,02269A,00C49E,$GPRMC,121020,A,5442.9472,N,11318.4711,W,000.0,177.4,220819,017.7,E*66
01DEE9,022698,00C49E,$GPRMC,121021,A,5442.9471,N,11318.4710,W,000.0,177.4,220819,017.7,E*65
01DEEA,02269B,00C49F,$GPRMC,121022,A,5442.9470,N,11318.4710,W,000.0,177.4,220819,017.7,E*67
01DEE9,022699,00C49E,$GPRMC,121023,A,5442.9469,N,11318.4709,W,000.0,177.4,220819,017.7,E*66
01DEEB,02269E,00C4A0,$GPRMC,121024,A,5442.9469,N,11318.4710,W,000.0,177.4,220819,017.7,E*69
01DEEC,0226A0,00C4A1,$GPRMC,121025,A,5442.9469,N,11318.4711,W,000.0,177.4,220819,017.7,E*69
01DEED,0226A2,00C4A2,$GPRMC,121026,A,5442.9469,N,11318.4711,W,000.0,177.4,220819,017.7,E*6A
01DEEA,02269D,00C49F,$GPRMC,121027,A,5442.9467,N,11318.4711,W,000.0,177.4,220819,017.7,E*65
01DEE8,022699,00C49E,$GPRMC,121028,A,5442.9465,N,11318.4711,W,000.0,177.4,220819,017.7,E*68
01DEEB,02269E,00C4A0,$GPRMC,121029,A,5442.9463,N,11318.4711,W,000.0,177.4,220819,017.7,E*6F
01DEE8,02269B,00C49F,$GPRMC,121030,A,5442.9462,N,11318.4711,W,000.0,177.4,220819,017.7,E*66
01DEEC,02269F,00C4A1,$GPRMC,121031,A,5442.9461,N,11318.4710,W,000.0,177.4,220819,017.7,E*65
01DEE7,022698,00C49E,$GPRMC,121032,A,5442.9453,N,11318.4710,W,000.0,177.4,220819,017.7,E*67
01DEE7,022698,00C49E,$GPRMC,121033,A,5442.9445,N,11318.4709,W,000.0,177.4,220819,017.7,E*69
01DEEB,02269D,00C4A0,$GPRMC,121034,A,5442.9445,N,11318.4709,W,000.0,177.4,220819,017.7,E*6E
01DEEA,02269B,00C49F,$GPRMC,121035,A,5442.9444,N,11318.4709,W,000.0,177.4,220819,017.7,E*6E
01DEEA,02269D,00C4A1,$GPRMC,121036,A,5442.9444,N,11318.4709,W,000.0,177.4,220819,017.7,E*6D
01DEEC,02269F,00C4A1,$GPRMC,121037,A,5442.9445,N,11318.4709,W,000.0,177.4,220819,017.7,E*6D
01DEEA,02269E,00C4A0,$GPRMC,121038,A,5442.9445,N,11318.4709,W,000.0,177.4,220819,017.7,E*62
01DEEA,02269E,00C4A1,$GPRMC,121039,A,5442.9444,N,11318.4709,W,000.0,177.4,220819,017.7,E*62
01DEE9,02269D,00C4A0,$GPRMC,121040,A,5442.9443,N,11318.4708,W,000.0,177.4,220819,017.7,E*6A
01DEED,0226A3,00C4A3,$GPRMC,121041,A,5442.9441,N,11318.4707,W,000.0,177.4,220819,017.7,E*66
01DEE9,02269D,00C4A0,$GPRMC,121042,A,5442.9440,N,11318.4706,W,000.0,177.4,220819,017.7,E*65
01DEE7,02269A,00C49F,$GPRMC,121043,A,5442.9439,N,11318.4707,W,000.0,177.4,220819,017.7,E*6B
01DEE6,022699,00C49E,$GPRMC,121044,A,5442.9437,N,11318.4706,W,000.0,177.4,220819,017.7,E*63
01DEE8,02269D,00C4A0,$GPRMC,121045,A,5442.9436,N,11318.4706,W,000.0,177.4,220819,017.7,E*63
01DEEA,02269F,00C4A1,$GPRMC,121046,A,5442.9434,N,11318.4705,W,000.0,177.4,220819,017.7,E*61
01DEE7,02269C,00C49F,$GPRMC,121047,A,5442.9434,N,11318.4705,W,000.0,177.4,220819,017.7,E*60
01DEED,0226A3,00C4A2,$GPRMC,121048,A,5442.9427,N,11318.4705,W,000.0,177.4,220819,017.7,E*6D
01DEE9,02269C,00C49F,$GPRMC,121049,A,5442.9427,N,11318.4706,W,000.0,177.4,220819,017.7,E*6F
01DEEB,0226A0,00C4A0,$GPRMC,121050,A,5442.9428,N,11318.4706,W,000.0,177.4,220819,017.7,E*68
01DEEB,0226A0,00C4A0,$GPRMC,121051,A,5442.9430,N,11318.4706,W,000.0,177.4,220819,017.7,E*60
