,A,5442.9387,N,11318.4610,W,000.0,355.7,220819,017.7,E*69
01DDCC,0225BF,00C4AD,$GPRMC,035949,A,5442.9387,N,11318.4612,W,000.0,355.7,220819,017.7,E*6A
01DDCC,0225BE,00C4AC,$GPRMC,035950,A,5442.9387,N,11318.4613,W,000.0,355.7,220819,017.7,E*63
01DDCA,0225BC,00C4AB,$GPRMC,035951,A,5442.9386,N,11318.4612,W,000.0,355.7,220819,017.7,E*62
01DDCA,0225BC,00C4AB,$GPRMC,035952,A,5442.9386,N,11318.4615,W,000.0,355.7,220819,017.7,E*66
01DDCE,0225C2,00C4AD,$GPRMC,035953,A,5442.9386,N,11318.4616,W,000.0,355.7,220819,017.7,E*64
01DDD0,0225C3,00C4AE,$GPRMC,035954,A,5442.9386,N,11318.4615,W,000.0,355.7,220819,017.7,E*60
01DDCF,0225C2,00C4AD,$GPRMC,035955,A,5442.9384,N,11318.4614,W,000.0,355.7,220819,017.7,E*62
01DDCE,0225C1,00C4AD,$GPRMC,035956,A,5442.9383,N,11318.4612,W,000.0,355.7,220819,017.7,E*60
01DDD0,0225C5,00C4AF,$GPRMC,035957,A,5442.9381,N,11318.4611,W,000.0,355.7,220819,017.7,E*60
01DDC9,0225BA,00C4AA,$GPRMC,035958,A,5442.9379,N,11318.4609,W,000.0,355.7,220819,017.7,E*61
01DDCE,0225C2,00C4AD,$GPRMC,035959,A,5442.9380,N,11318.4610,W,000.0,355.7,220819,017.7,E*6E
01DDD1,0225C7,00C4AF,$GPRMC,040000,A,5442.9382,N,11318.4610,W,000.0,355.7,220819,017.7,E*6B
01DDD1,0225C6,00C4AF,$GPRMC,040001,A,5442.9383,N,11318.4610,W,000.0,355.7,220819,017.7,E*6B
01DDCF,0225C4,00C4AE,$GPRMC,040002,A,5442.9384,N,11318.4609,W,000.0,355.7,220819,017.7,E*67
01DDCE,0225C2,00C4AD,$GPRMC,040003,A,5442.9382,N,11318.4608,W,000.0,355.7,220819,017.7,E*61
01DDD1,0225C5,00C4AF,$GPRMC,040004,A,5442.9382,N,11318.4606,W,000.0,355.7,220819,017.7,E*68
01DDD0,0225C5,00C4AE,$GPRMC,040005,A,5442.9380,N,11318.4606,W,000.0,355.7,220819,017.7,E*6B
01DDCE,0225C0,00C4AC,$GPRMC,040006,A,5442.9378,N,11318.4606,W,000.0,355.7,220819,017.7,E*6F
01DDCF,0225C2,00C4AD,$GPRMC,040007,A,5442.9377,N,11318.4606,W,000.0,355.7,220819,017.7,E*61
01DDCF,0225C2,00C4AD,$GPRMC,040008,A,5442.9375,N,11318.4606,W,000.0,355.7,220819,017.7,E*6C
01DDCB,0225BB,00C4AA,$GPRMC,040009,A,5442.9374,N,11318.4606,W,000.0,355.7,220819,017.7,E*6C
01DDCE,0225C1,00C4AC,$GPRMC,040010,A,5442.9372,N,11318.4607,W,000.0,355.7,220819,017.7,E*63
01DDCF,0225C1,00C4AC,$GPRMC,040011,A,5442.9371,N,11318.4608,W,000.0,355.7,220819,017.7,E*6E
01DDD0,0225C1,00C4AD,$GPRMC,040012,A,5442.9369,N,11318.4608,W,000.0,355.7,220819,017.7,E*64
01DDCF,0225C0,00C4AD,$GPRMC,040013,A,5442.9370,N,11318.4609,W,000.0,355.7,220819,017.7,E*6C
01DDCC,0225BB,00C4AA,$GPRMC,040014,A,5442.9368,N,11318.4609,W,000.0,355.7,220819,017.7,E*62
01DDD0,0225C2,00C4AD,$GPRMC,040015,A,5442.9367,N,11318.4609,W,000.0,355.7,220819,017.7,E*6C
01DDD1,0225C4,00C4AE,$GPRMC,040016,A,5442.9366,N,11318.4610,W,000.0,355.7,220819,017.7,E*66
01DDD1,0225C2,00C4AD,$GPRMC,040017,A,5442.9366,N,11318.4610,W,000.0,355.7,220819,017.7,E*67
01DDD0,0225C2,00C4AD,$GPRMC,040018,A,5442.9366,N,11318.4608,W,000.0,355.7,220819,017.7,E*61
01DDD0,0225C2,00C4AD,$GPRMC,040019,A,5442.9367,N,11318.4606,W,000.0,355.7,220819,017.7,E*6F
01DDD1,0225C4,00C4AD,$GPRMC,040020,A,5442.9367,N,11318.4604,W,000.0,355.7,220819,017.7,E*67
01DDD0,0225C3,00C4AD,$GPRMC,040021,A,5442.9368,N,11318.4603,W,000.0,355.7,220819,017.7,E*6E
01DDCF,0225C0,00C4AD,$GPRMC,040022,A,5442.9368,N,11318.4601,W,000.0,355.7,220819,017.7,E*6F
01DDD0,0225C2,00C4AD,$GPRMC,040023,A,5442.9369,N,11318.4600,W,000.0,355.7,220819,017.7,E*6E
01DDD4,0225C8,00C4AF,$GPRMC,040024,A,5442.9368,N,11318.4599,W,000.0,355.7,220819,017.7,E*6B
01DDD1,0225C3,00C4AE,$GPRMC,040025,A,5442.9367,N,11318.4599,W,000.0,355.7,220819,017.7,E*65
01DDD3,0225C5,00C4AF,$GPRMC,040026,A,5442.9365,N,11318.4599,W,000.0,355.7,220819,017.7,E*64
01DDD0,0225C3,00C4AD,$GPRMC,040027,A,5442.9364,N,11318.4599,W,000.0,355.7,220819,017.7,E*64
01DDD4,0225C6,00C4AF,$GPRMC,040028,A,5442.9363,N,11318.4599,W,000.0,355.7,220819,017.7,E*6C
01DDD3,0225C5,00C4AE,$GPRMC,040029,A,5442.9362,N,11318.4600,W,000.0,355.7,220819,017.7,E*6F
01DDD2,0225C4,00C4AE,$GPRMC,040030,A,5442.9363,N,11318.4600,W,000.0,355.7,220819,017.7,E*66
01DDD1,0225C3,00C4AE,$GPRMC,040031,A,5442.9364,N,11318.4600,W,000.0,355.7,220819,017.7,E*60
01DDD0,0225C1,00C4AE,$GPRMC,040032,A,5442.9364,N,11318.4600,W,000.0,355.7,220819,017.7,E*63
01DDD4,0225C6,00C4AF,$GPRMC,040033,A,5442.9364,N,11318.4601,W,000.0,355.7,220819,017.7,E*63
01DDD3,0225C5,00C4AF,$GPRMC,040034,A,5442.9363,N,11318.4602,W,000.0,355.7,220819,017.7,E*60
01DDD4,0225C5,00C4AF,$GPRMC,040035,A,5442.9363,N,11318.4602,W,000.0,355.7,220819,017.7,E*61
01DDD2,0225C2,00C4AE,$GPRMC,040036,A,5442.9364,N,11318.4603,W,000.0,355.7,220819,017.7,E*64
01DDD4,0225C6,00C4AF,$GPRMC,040037,A,5442.9363,N,11318.4603,W,000.0,355.7,220819,017.7,E*62
01DDD4,0225C6,00C4AF,$GPRMC,040038,A,5442.9362,N,11318.4604,W,000.0,355.7,220819,017.7,E*6B
01DDD5,0225C7,00C4B0,$GPRMC,040039,A,5442.9361,N,11318.4605,W,000.0,355.7,220819,017.7,E*68
01DDD4,0225C6,00C4AF,$GPRMC,040040,A,5442.9360,N,11318.4605,W,000.0,355.7,220819,017.7,E*67
01DDD3,0225C2,00C4AE,$GPRMC,040041,A,5442.9358,N,11318.4607,W,000.0,355.7,220819,017.7,E*6F
01DDD3,0225C3,00C4AF,$GPRMC,040042,A,5442.9356,N,11318.4608,W,000.0,355.7,220819,017.7,E*6D
01DDD4,0225C4,00C4AF,$GPRMC,040043,A,5442.9355,N,11318.4610,W,000.0,355.7,220819,017.7,E*66
01DDD2,0225C0,00C4AD,$GPRMC,040044,A,5442.9348,N,11318.4612,W,000.0,355.7,220819,017.7,E*6F
01DDD1,0225C0,00C4AD,$GPRMC,040045,A,5442.9342,N,11318.4613,W,000.0,355.7,220819,017.7,E*65
01DDD3,0225C1,00C4AE,$GPRMC,040046,A,5442.9342,N,11318.4614,W,000.0,355.7,220819,017.7,E*61
01DDD1,0225C0,00C4AD,$GPRMC,040047,A,5442.9341,N,11318.4616,W,000.0,355.7,220819,017.7,E*61
01DDD3,0225C3,00C4AF,$GPRMC,040048,A,5442.9341,N,11318.4617,W,000.0,355.7,220819,017.7,E*6F
01DDD2,0225C0,00C4AE,$GPRMC,040049,A,5442.9341,N,11318.4619,W,000.0,355.7,220819,017.7,E*60
01DDD2,0225C3,00C4AF,$GPRMC,040050,A,5442.9342,N,11318.4619,W,000.0,355.7,220819,017.7,E*6B
01DDD2,0225C1,00C4AF,$GPRMC,040051,A,5442.9343,N,11318.4621,W,000.0,355.7,220819,017.7,E*60
01DDD2,0225C3,00C4AF,$GPRMC,040052,A,5442.9343,N,11318.4622,W,000.0,355.7,220819,017.7,E*60
01DDD0,0225BF,00C4AD,$GPRMC,040053,A,5442.9345,N,11318.4623,W,000.0,355.7,220819,017.7,E*66
01DDD2,0225C4,00C4AE,$GPRMC,040054,A,5442.9347,N,11318.4624,W,000.0,355.7,220819,017.7,E*64
01DDD3,0225C4,00C4AF,$GPRMC,040055,A,5442.9348,N,11318.4625,W,000.0,355.7,220819,017.7,E*6B
01DDD4,0225C5,00C4AF,$GPRMC,040056,A,5442.9349,N,11318.4626,W,000.0,355.7,220819,017.7,E*6A
01DDD2,0225C3,00C4AE,$GPRMC,040057,A,5442.9352,N,11318.4626,W,000.0,355.7,220819,017.7,E*61
01DDD4,0225C6,00C4AF,$GPRMC,040058,A,5442.9353,N,11318.4627,W,000.0,355.7,220819,017.7,E*6E
01DDD4,0225C5,00C4AF,$GPRMC,040059,A,5442.9354,N,11318.4628,W,000.0,355.7,220819,017.7,E*67
01DDD4,0225C4,00C4B0,$GPRMC,040100,A,5442.9355,N,11318.4629,W,000.0,355.7,220819,017.7,E*6A
01DDD2,0225C4,00C4AF,$GPRMC,040101,A,5442.9356,N,11318.4630,W,000.0,355.7,220819,017.7,E*60
01DDD1,0225C0,00C4AD,$GPRMC,040102,A,5442.9356,N,11318.4631,W,000.0,355.7,220819,017.7,E*62
01DDD2,0225C1,00C4AE,$GPRMC,040103,A,5442.9357,N,11318.4632,W,000.0,355.7,220819,017.7,E*61
01DDD4,0225C4,00C4AF,$GPRMC,040104,A,5442.9357,N,11318.4633,W,000.0,355.7,220819,017.7,E*67
01DDD4,0225C3,00C4AE,$GPRMC,040105,A,5442.9357,N,11318.4633,W,000.0,355.7,220819,017.7,E*66
01DDD1,0225BF,00C4AD,$GPRMC,040106,A,5442.9356,N,11318.4633,W,000.0,355.7,220819,017.7,E*64
01DDD2,0225C1,00C4AE,$GPRMC,040107,A,5442.9357,N,11318.4633,W,000.0,355.7,220819,017.7,E*64
01DDD1,0225C0,00C4AE,$GPRMC,040108,A,5442.9358,N,11318.4633,W,000.0,355.7,220819,017.7,E*64
01DDD2,0225C1,00C4AE,$GPRMC,040109,A,5442.9359,N,11318.4632,W,000.0,355.7,220819,017.7,E*65
01DDD3,0225C3,00C4AF,$GPRMC,040110,A,5442.9360,N,11318.4631,W,000.0,355.7,220819,017.7,E*64
01DDD1,0225BF,00C4AE,$GPRMC,040111,A,5442.9361,N,11318.4631,W,000.0,355.7,220819,017.7,E*64
01DDD2,0225C1,00C4AE,$GPRMC,040112,A,5442.9362,N,11318.4630,W,000.0,355.7,220819,017.7,E*65
01DDD4,0225C4,00C4AF,$GPRMC,040113,A,5442.9362,N,11318.4630,W,000.0,355.7,220819,017.7,E*64
01DDD3,0225C1,00C4AF,$GPRMC,040114,A,5442.9363,N,11318.4630,W,000.0,355.7,220819,017.7,E*62
01DDD1,0225C0,00C4AE,$GPRMC,040115,A,5442.9363,N,11318.4629,W,000.0,355.7,220819,017.7,E*6B
01DDD6,0225C7,00C4B1,$GPRMC,040116,A,5442.9363,N,11318.4629,W,000.0,355.7,220819,017.7,E*68
01DDD3,0225C3,00C4AF,$GPRMC,040117,A,5442.9363,N,11318.4629,W,000.0,355.7,220819,017.7,E*69
01DDD2,0225C1,00C4AE,$GPRMC,040118,A,5442.9363,N,11318.4629,W,000.0,355.7,220819,017.7,E*66
01DDD2,0225C0,00C4AD,$GPRMC,040119,A,5442.9363,N,11318.4630,W,000.0,355.7,220819,017.7,E*6F
01DDD1,0225C0,00C4AD,$GPRMC,040120,A,5442.9364,N,11318.4630,W,000.0,355.7,220819,017.7,E*62
01DDD2,0225C1,00C4AD,$GPRMC,040121,A,5442.9364,N,11318.4630,W,000.0,355.7,220819,017.7,E*63
01DDD1,0225C1,00C4AD,$GPRMC,040122,A,5442.9364,N,11318.4630,W,000.0,355.7,220819,017.7,E*60
01DDD2,0225C1,00C4AE,$GPRMC,040123,A,5442.9364,N,11318.4630,W,000.0,355.7,220819,017.7,E*61
01DDD0,0225BF,00C4AD,$GPRMC,040124,A,5442.9364,N,11318.4631,W,000.0,355.7,220819,017.7,E*67
01DDD4,0225C4,00C4AF,$GPRMC,040125,A,5442.9364,N,11318.4631,W,000.0,355.7,220819,017.7,E*66
01DDD0,0225BD,00C4AC,$GPRMC,040126,A,5442.9364,N,11318.4631,W,000.0,355.7,220819,017.7,E*65
01DDD1,0225BF,00C4AD,$GPRMC,040127,A,5442.9364,N,11318.4631,W,000.0,355.7,220819,017.7,E*64
01DDD4,0225C4,00C4AF,$GPRMC,040128,A,5442.9364,N,11318.4631,W,000.0,355.7,220819,017.7,E*6B
01DDD1,0225BE,00C4AD,$GPRMC,040129,A,5442.9364,N,11318.4631,W,000.0,355.7,220819,017.7,E*6A
01DDD4,0225C3,00C4AF,$GPRMC,040130,A,5442.9364,N,11318.4630,W,000.0,355.7,220819,017.7,E*63
01DDD3,0225C1,00C4AE,$GPRMC,040131,A,5442.9364,N,11318.4630,W,000.0,355.7,220819,017.7,E*62
01DDD4,0225C4,00C4AF,$GPRMC,040132,A,5442.9364,N,11318.4630,W,000.0,355.7,220819,017.7,E*61
01DDD3,0225C3,00C4AE,$GPRMC,040133,A,5442.9364,N,11318.4630,W,000.0,355.7,220819,017.7,E*60
01DDD5,0225C5,00C4AF,$GPRMC,040134,A,5442.9364,N,11318.4629,W,000.0,355.7,220819,017.7,E*6F
01DDD2,0225C1,00C4AD,$GPRMC,040135,A,5442.9364,N,11318.4629,W,000.0,355.7,220819,017.7,E*6E
01DDD6,0225C7,00C4B0,$GPRMC,040136,A,5442.9365,N,11318.4629,W,000.0,355.7,220819,017.7,E*6C
01DDD2,0225C2,00C4AD,$GPRMC,040137,A,5442.9365,N,11318.4629,W,000.0,355.7,220819,017.7,E*6D
01DDD6,0225C7,00C4AF,$GPRMC,040138,A,5442.9366,N,11318.4629,W,000.0,355.7,220819,017.7,E*61
01DDD3,0225C3,00C4AD,$GPRMC,040139,A,5442.9366,N,11318.4630,W,000.0,355.7,220819,017.7,E*68
01DDD4,0225C6,00C4AE,$GPRMC,040140,A,5442.9367,N,11318.4630,W,000.0,355.7,220819,017.7,E*67
01DDD2,0225C2,00C4AD,$GPRMC,040141,A,5442.9368,N,11318.4631,W,000.0,355.7,220819,017.7,E*68
01DDD4,0225C6,00C4AF,$GPRMC,040142,A,5442.9369,N,11318.4632,W,000.0,355.7,220819,017.7,E*69
01DDD0,0225C1,00C4AD,$GPRMC,040143,A,5442.9371,N,11318.4633,W,000.0,355.7,220819,017.7,E*60
01DDD2,0225C4,00C4AE,$GPRMC,040144,A,5442.9373,N,11318.4635,W,000.0,355.7,220819,017.7,E*63
01DDD2,0225C3,00C4AD,$GPRMC,040145,A,5442.9375,N,11318.4637,W,000.0,355.7,220819,017.7,E*66
01DDD4,0225C6,00C4B0,$GPRMC,040146,A,5442.9377,N,11318.4638,W,000.0,355.7,220819,017.7,E*68
01DDD1,0225C2,00C4AD,$GPRMC,040147,A,5442.9381,N,11318.4640,W,000.0,355.7,220819,017.7,E*6F
01DDD3,0225C4,00C4AE,$GPRMC,040148,A,5442.9383,N,11318.4642,W,000.0,355.7,220819,017.7,E*60
01DDCF,0225BE,00C4AC,$GPRMC,040149,A,5442.9386,N,11318.4643,W,000.0,355.7,220819,017.7,E*65
01DDD4,0225C5,00C4AF,$GPRMC,040150,A,5442.9388,N,11318.4644,W,000.0,355.7,220819,017.7,E*64
01DDCF,0225BF,00C4AC,$GPRMC,040151,A,5442.9389,N,11318.4645,W,000.0,355.7,220819,017.7,E*65
01DDD6,0225C8,00C4AF,$GPRMC,040152,A,5442.9391,N,11318.4646,W,000.0,355.7,220819,017.7,E*6C
01DDD1,0225C1,00C4AD,$GPRMC,040153,A,5442.9393,N,11318.4646,W,000.0,355.7,220819,017.7,E*6F
01DDD5,0225C8,00C4AF,$GPRMC,040154,A,5442.9394,N,11318.4646,W,000.0,355.7,220819,017.7,E*6F
01DDCF,0225BF,00C4AB,$GPRMC,040155,A,5442.9396,N,11318.4646,W,000.0,355.7,220819,017.7,E*6C
01DDD2,0225C3,00C4AD,$GPRMC,040156,A,5442.9397,N,11318.4645,W,000.0,355.7,220819,017.7,E*6D
01DDD0,0225C1,00C4AC,$GPRMC,040157,A,5442.9398,N,11318.4643,W,000.0,355.7,220819,017.7,E*65
01DDD2,0225C3,00C4AE,$GPRMC,040158,A,5442.9400,N,11318.4642,W,000.0,355.7,220819,017.7,E*6D
01DDD1,0225C2,00C4AD,$GPRMC,040159,A,5442.9399,N,11318.4641,W,000.0,355.7,220819,017.7,E*68
01DDD3,0225C4,00C4AE,$GPRMC,040200,A,5442.9398,N,11318.4639,W,000.0,355.7,220819,017.7,E*69
01DDD1,0225C0,00C4AD,$GPRMC,040201,A,5442.9398,N,11318.4638,W,000.0,355.7,220819,017.7,E*69
01DDD4,0225C6,00C4AE,$GPRMC,040202,A,5442.9397,N,11318.4637,W,000.0,355.7,220819,017.7,E*6A
01DDD1,0225C2,00C4AC,$GPRMC,040203,A,5442.9397,N,11318.4635,W,000.0,355.7,220819,017.7,E*69
01DDD3,0225C5,00C4AE,$GPRMC,040204,A,5442.9396,N,11318.4635,W,000.0,355.7,220819,017.7,E*6F
01DDD2,0225C3,00C4AE,$GPRMC,040205,A,5442.9395,N,11318.4634,W,000.0,355.7,220819,017.7,E*6C
01DDD3,0225C5,00C4AF,$GPRMC,040206,A,5442.9393,N,11318.4633,W,000.0,355.7,220819,017.7,E*6E
01DDD1,0225C1,00C4AD,$GPRMC,040207,A,5442.9392,N,11318.4633,W,000.0,355.7,220819,017.7,E*6E
01DDD3,0225C3,00C4AE,$GPRMC,040208,A,5442.9391,N,11318.4633,W,000.0,355.7,220819,017.7,E*62
01DDD3,0225C5,00C4AE,$GPRMC,040209,A,5442.9390,N,11318.4632,W,000.0,355.7,220819,017.7,E*63
01DDD2,0225C3,00C4AE,$GPRMC,040210,A,5442.9389,N,11318.4632,W,000.0,355.7,220819,017.7,E*63
01DDD1,0225C2,00C4AD,$GPRMC,040211,A,5442.9387,N,11318.4632,W,000.0,355.7,220819,017.7,E*6C
01DDD2,0225C1,00C4AD,$GPRMC,040212,A,5442.9386,N,11318.4632,W,000.0,355.7,220819,017.7,E*6E
01DDD3,0225C3,00C4AD,$GPRMC,040213,A,5442.9385,N,11318.4632,W,000.0,355.7,220819,017.7,E*6C
01DDD4,0225C4,00C4AE,$GPRMC,040214,A,5442.9383,N,11318.4632,W,000.0,355.7,220819,017.7,E*6D
01DDD3,0225C5,00C4AE,$GPRMC,040215,A,5442.9382,N,11318.4632,W,000.0,355.7,220819,017.7,E*6D
01DDD2,0225C3,00C4AD,$GPRMC,040216,A,5442.9381,N,11318.4632,W,000.0,355.7,220819,017.7,E*6D
01DDD2,0225C2,00C4AD,$GPRMC,040217,A,5442.9379,N,11318.4632,W,000.0,355.7,220819,017.7,E*6B
01DDD5,0225C7,00C4AF,$GPRMC,040218,A,5442.9378,N,11318.4632,W,000.0,355.7,220819,017.7,E*65
01DDD2,0225C2,00C4AD,$GPRMC,040219,A,5442.9376,N,11318.4632,W,000.0,355.7,220819,017.7,E*6A
01DDD0,0225BF,00C4AC,$GPRMC,040220,A,5442.9375,N,11318.4632,W,000.0,355.7,220819,017.7,E*63
01DDD3,0225C5,00C4AE,$GPRMC,040221,A,5442.9373,N,11318.4634,W,000.0,355.7,220819,017.7,E*62
01DDD2,0225C2,00C4AD,$GPRMC,040222,A,5442.9372,N,11318.4636,W,000.0,355.7,220819,017.7,E*62
01DDD2,0225C2,00C4AC,$GPRMC,040223,A,5442.9371,N,11318.4638,W,000.0,355.7,220819,017.7,E*6E
01DDD6,0225C9,00C4AF,$GPRMC,040224,A,5442.9370,N,11318.4641,W,000.0,355.7,220819,017.7,E*66
01DDD1,0225C1,00C4AC,$GPRMC,040225,A,5442.9368,N,11318.4643,W,000.0,355.7,220819,017.7,E*6C
01DDD1,0225C2,00C4AC,$GPRMC,040226,A,5442.9367,N,11318.4644,W,000.0,355.7,220819,017.7,E*67
01DDD3,0225C3,00C4AE,$GPRMC,040227,A,5442.9366,N,11318.4646,W,000.0,355.7,220819,017.7,E*65
01DDD2,0225C2,00C4AD,$GPRMC,040228,A,5442.9365,N,11318.4648,W,000.0,355.7,220819,017.7,E*67
01DDD1,0225C0,00C4AC,$GPRMC,040229,A,5442.9364,N,11318.4649,W,000.0,355.7,220819,017.7,E*66
01DDD4,0225C5,00C4AE,$GPRMC,040230,A,5442.9363,N,11318.4651,W,000.0,355.7,220819,017.7,E*60
01DDCE,0225BC,00C4AA,$GPRMC,040231,A,5442.9362,N,11318.4652,W,000.0,355.7,220819,017.7,E*63
01DDD2,0225C1,00C4AC,$GPRMC,040232,A,5442.9361,N,11318.4652,W,000.0,355.7,220819,017.7,E*63
01DDD3,0225C2,00C4AD,$GPRMC,040233,A,5442.9359,N,11318.4652,W,000.0,355.7,220819,017.7,E*69
01DDD1,0225C0,00C4AC,$GPRMC,040234,A,5442.9358,N,11318.4651,W,000.0,355.7,220819,017.7,E*6C
01DDD2,0225C1,00C4AC,$GPRMC,040235,A,5442.9357,N,11318.4650,W,000.0,355.7,220819,017.7,E*63
01DDD4,0225C3,00C4AD,$GPRMC,040236,A,5442.9357,N,11318.4650,W,000.0,355.7,220819,017.7,E*60
01DDD1,0225C0,00C4AC,$GPRMC,040237,A,5442.9356,N,11318.4649,W,000.0,355.7,220819,017.7,E*68
01DDD3,0225C4,00C4AD,$GPRMC,040238,A,5442.9356,N,11318.4648,W,000.0,355.7,220819,017.7,E*66
01DDD3,0225C3,00C4AD,$GPRMC,040239,A,5442.9355,N,11318.4647,W,000.0,355.7,220819,017.7,E*6B
01DDD0,0225C0,00C4AB,$GPRMC,040240,A,5442.9355,N,11318.4646,W,000.0,355.7,220819,017.7,E*64
01DDD1,0225C0,00C4AC,$GPRMC,040241,A,5442.9356,N,11318.4646,W,000.0,355.7,220819,017.7,E*66
01DDCF,0225BD,00C4AB,$GPRMC,040242,A,5442.9357,N,11318.4646,W,000.0,355.7,220819,017.7,E*64
01DDD2,0225C2,00C4AD,$GPRMC,040243,A,5442.9358,N,11318.4646,W,000.0,355.7,220819,017.7,E*6A
01DDD1,0225C0,00C4AD,$GPRMC,040244,A,5442.9360,N,11318.4647,W,000.0,355.7,220819,017.7,E*67
01DDD0,0225BF,00C4AC,$GPRMC,040245,A,5442.9361,N,11318.4648,W,000.0,355.7,220819,017.7,E*68
01DDD1,0225C0,00C4AD,$GPRMC,040246,A,5442.9363,N,11318.4649,W,000.0,355.7,220819,017.7,E*68
01DDD4,0225C4,00C4AF,$GPRMC,040247,A,5442.9365,N,11318.4650,W,000.0,355.7,220819,017.7,E*67
01DDD0,0225BE,00C4AC,$GPRMC,040248,A,5442.9367,N,11318.4651,W,000.0,355.7,220819,017.7,E*6B
01DDCF,0225BE,00C4AC,$GPRMC,040249,A,5442.9369,N,11318.4652,W,000.0,355.7,220819,017.7,E*67
01DDD3,0225C4,00C4AE,$GPRMC,040250,A,5442.9372,N,11318.4654,W,000.0,355.7,220819,017.7,E*63
01DDD0,0225BF,00C4AC,$GPRMC,040251,A,5442.9374,N,11318.4654,W,000.0,355.7,220819,017.7,E*64
01DDD5,0225C7,00C4B0,$GPRMC,040252,A,5442.9376,N,11318.4654,W,000.0,355.7,220819,017.7,E*65
01DDD3,0225C3,00C4AE,$GPRMC,040253,A,5442.9378,N,11318.4654,W,000.0,355.7,220819,017.7,E*6A
01DDD3,0225C3,00C4AE,$GPRMC,040254,A,5442.9380,N,11318.4654,W,000.0,355.7,220819,017.7,E*6A
01DDD2,0225C1,00C4AD,$GPRMC,040255,A,5442.9381,N,11318.4654,W,000.0,355.7,220819,017.7,E*6A
01DDD3,0225C5,00C4AF,$GPRMC,040256,A,5442.9382,N,11318.4653,W,000.0,355.7,220819,017.7,E*6D
01DDD1,0225C0,00C4AD,$GPRMC,040257,A,5442.9384,N,11318.4653,W,000.0,355.7,220819,017.7,E*6A
01DDD4,0225C6,00C4AF,$GPRMC,040258,A,5442.9385,N,11318.4652,W,000.0,355.7,220819,017.7,E*65
01DDD0,0225C1,00C4AD,$GPRMC,040259,A,5442.9386,N,11318.4651,W,000.0,355.7,220819,017.7,E*64
01DDD5,0225C6,00C4AF,$GPRMC,040300,A,5442.9386,N,11318.4650,W,000.0,355.7,220819,017.7,E*68
01DDCF,0225BF,00C4AC,$GPRMC,040301,A,5442.9386,N,11318.4649,W,000.0,355.7,220819,017.7,E*61
01DDD4,0225C5,00C4AE,$GPRMC,040302,A,5442.9386,N,11318.4648,W,000.0,355.7,220819,017.7,E*63
01DDCF,0225BE,00C4AC,$GPRMC,040303,A,5442.9386,N,11318.4647,W,000.0,355.7,220819,017.7,E*6D
01DDD0,0225C0,00C4AC,$GPRMC,040304,A,5442.9386,N,11318.4647,W,000.0,355.7,220819,017.7,E*6A
01DDD2,0225C2,00C4AC,$GPRMC,040305,A,5442.9385,N,11318.4646,W,000.0,355.7,220819,017.7,E*69
01DDD0,0225C1,00C4AC,$GPRMC,040306,A,5442.9385,N,11318.4646,W,000.0,355.7,220819,017.7,E*6A
01DDD1,0225C2,00C4AD,$GPRMC,040307,A,5442.9385,N,11318.4646,W,000.0,355.7,220819,017.7,E*6B
01DDD4,0225C4,00C4AE,$GPRMC,040308,A,5442.9384,N,11318.4646,W,000.0,355.7,220819,017.7,E*65
01DDD2,0225C2,00C4AD,$GPRMC,040309,A,5442.9384,N,11318.4645,W,000.0,355.7,220819,017.7,E*67
01DDD1,0225C2,00C4AD,$GPRMC,040310,A,5442.9384,N,11318.4645,W,000.0,355.7,220819,017.7,E*6F
01DDD1,0225C1,00C4AD,$GPRMC,040311,A,5442.9383,N,11318.4646,W,000.0,355.7,220819,017.7,E*6A
01DDD2,0225C4,00C4AD,$GPRMC,040312,A,5442.9383,N,11318.4646,W,000.0,355.7,220819,017.7,E*69
01DDD0,0225BF,00C4AC,$GPRMC,040313,A,5442.9382,N,11318.4647,W,000.0,355.7,220819,017.7,E*68
01DDCF,0225BF,00C4AB,$GPRMC,040314,A,5442.9381,N,11318.4647,W,000.0,355.7,220819,017.7,E*6C
01DDD4,0225C6,00C4AE,$GPRMC,040315,A,5442.9380,N,11318.4648,W,000.0,355.7,220819,017.7,E*63
01DDD2,0225C4,00C4AD,$GPRMC,040316,A,5442.9380,N,11318.4648,W,000.0,355.7,220819,017.7,E*60
01DDD4,0225C5,00C4AD,$GPRMC,040317,A,5442.9379,N,11318.4648,W,000.0,355.7,220819,017.7,E*67
01DDD3,0225C5,00C4AD,$GPRMC,040318,A,5442.9378,N,11318.4648,W,000.0,355.7,220819,017.7,E*69
01DDD2,0225C3,00C4AC,$GPRMC,040319,A,5442.9377,N,11318.4648,W,000.0,355.7,220819,017.7,E*67
01DDD2,0225C4,00C4AD,$GPRMC,040320,A,5442.9376,N,11318.4648,W,000.0,355.7,220819,017.7,E*6C
01DDD2,0225C4,00C4AE,$GPRMC,040321,A,5442.9375,N,11318.4648,W,000.0,355.7,220819,017.7,E*6E
01DDD3,0225C5,00C4AE,$GPRMC,040322,A,5442.9374,N,11318.4648,W,000.0,355.7,220819,017.7,E*6C
01DDD1,0225C2,00C4AD,$GPRMC,040323,A,5442.9373,N,11318.4648,W,000.0,355.7,220819,017.7,E*6A
01DDD2,0225C3,00C4AD,$GPRMC,040324,A,5442.9371,N,11318.4647,W,000.0,355.7,220819,017.7,E*60
01DDD2,0225C3,00C4AD,$GPRMC,040325,A,5442.9370,N,11318.4647,W,000.0,355.7,220819,017.7,E*60
01DDD3,0225C3,00C4AD,$GPRMC,040326,A,5442.9369,N,11318.4647,W,000.0,355.7,220819,017.7,E*6B
01DDD1,0225C2,00C4AD,$GPRMC,040327,A,5442.9367,N,11318.4647,W,000.0,355.7,220819,017.7,E*64
01DDD2,0225C2,00C4AD,$GPRMC,040328,A,5442.9366,N,11318.4646,W,000.0,355.7,220819,017.7,E*6B
01DDD2,0225C2,00C4AD,$GPRMC,040329,A,5442.9365,N,11318.4646,W,000.0,355.7,220819,017.7,E*69
01DDD3,0225C6,00C4AE,$GPRMC,040330,A,5442.9363,N,11318.4645,W,000.0,355.7,220819,017.7,E*64
01DDD2,0225C2,00C4AC,$GPRMC,040331,A,5442.9362,N,11318.4645,W,000.0,355.7,220819,017.7,E*64
01DDD3,0225C5,00C4AE,$GPRMC,040332,A,5442.9360,N,11318.4644,W,000.0,355.7,220819,017.7,E*64
01DDD4,0225C5,00C4AE,$GPRMC,040333,A,5442.9359,N,11318.4643,W,000.0,355.7,220819,017.7,E*68
01DDD4,0225C7,00C4AE,$GPRMC,040334,A,5442.9358,N,11318.4642,W,000.0,355.7,220819,017.7,E*6F
01DDD4,0225C6,00C4AE,$GPRMC,040335,A,5442.9356,N,11318.4642,W,000.0,355.7,220819,017.7,E*60
01DDD2,0225C3,00C4AD,$GPRMC,040336,A,5442.9356,N,11318.4642,W,000.0,355.7,220819,017.7,E*63
01DDD4,0225C5,00C4AE,$GPRMC,040337,A,5442.9355,N,11318.4642,W,000.0,355.7,220819,017.7,E*61
01DDD1,0225C2,00C4AC,$GPRMC,040338,A,5442.9354,N,11318.4642,W,000.0,355.7,220819,017.7,E*6F
01DDD2,0225C2,00C4AD,$GPRMC,040339,A,5442.9353,N,11318.4642,W,000.0,355.7,220819,017.7,E*69
01DDD7,0225CA,00C4B0,$GPRMC,040340,A,5442.9353,N,11318.4642,W,000.0,355.7,220819,017.7,E*67
01DDD7,0225CA,00C4B0,$GPRMC,040341,A,5442.9353,N,11318.4642,W,000.0,355.7,220819,017.7,E*66
01DDD3,0225C5,00C4AE,$GPRMC,040342,A,5442.9352,N,11318.4642,W,000.0,355.7,220819,017.7,E*64
01DDD4,0225C6,00C4AE,$GPRMC,040343,A,5442.9352,N,11318.4642,W,000.0,355.7,220819,017.7,E*65
01DDD2,0225C3,00C4AC,$GPRMC,040344,A,5442.9347,N,11318.4640,W,000.0,355.7,220819,017.7,E*64
01DDD0,0225C0,00C4AB,$GPRMC,040345,A,5442.9350,N,11318.4642,W,000.0,355.7,220819,017.7,E*61
01DDD6,0225C9,00C4AF,$GPRMC,040346,A,5442.9354,N,11318.4644,W,000.0,355.7,220819,017.7,E*60
01DDD5,0225C8,00C4AE,$GPRMC,040347,A,5442.9357,N,11318.4646,W,000.0,355.7,220819,017.7,E*60
01DDD0,0225C1,00C4AB,$GPRMC,040348,A,5442.9361,N,11318.4647,W,000.0,355.7,220819,017.7,E*6B
01DDD3,0225C4,00C4AC,$GPRMC,040349,A,5442.9365,N,11318.4649,W,000.0,355.7,220819,017.7,E*60
01DDD4,0225C7,00C4AE,$GPRMC,040350,A,5442.9368,N,11318.4650,W,000.0,355.7,220819,017.7,E*6D
01DDD1,0225C2,00C4AC,$GPRMC,040351,A,5442.9371,N,11318.4650,W,000.0,355.7,220819,017.7,E*64
01DDD2,0225C3,00C4AC,$GPRMC,040352,A,5442.9374,N,11318.4651,W,000.0,355.7,220819,017.7,E*63
01DDD6,0225C9,00C4AF,$GPRMC,040353,A,5442.9377,N,11318.4651,W,000.0,355.7,220819,017.7,E*61
01DDD2,0225C3,00C4AC,$GPRMC,040354,A,5442.9379,N,11318.4652,W,000.0,355.7,220819,017.7,E*6B
01DDD3,0225C4,00C4AD,$GPRMC,040355,A,5442.9381,N,11318.4652,W,000.0,355.7,220819,017.7,E*6D
01DDD3,0225C5,00C4AD,$GPRMC,040356,A,5442.9383,N,11318.4652,W,000.0,355.7,220819,017.7,E*6C
01DDD2,0225C3,00C4AC,$GPRMC,040357,A,5442.9384,N,11318.4651,W,000.0,355.7,220819,017.7,E*69
01DDD5,0225C5,00C4AD,$GPRMC,040358,A,5442.9385,N,11318.4651,W,000.0,355.7,220819,017.7,E*67
01DDD2,0225C2,00C4AC,$GPRMC,040359,A,5442.9385,N,11318.4649,W,000.0,355.7,220819,017.7,E*6F
01DDD1,0225C0,00C4AB,$GPRMC,040400,A,5442.9383,N,11318.4648,W,000.0,355.7,220819,017.7,E*63
01DDD2,0225C2,00C4AC,$GPRMC,040401,A,5442.9385,N,11318.4647,W,000.0,355.7,220819,017.7,E*6B
01DDD3,0225C4,00C4AC,$GPRMC,040402,A,5442.9387,N,11318.4647,W,000.0,355.7,220819,017.7,E*6A
01DDD5,0225C7,00C4AE,$GPRMC,040403,A,5442.9390,N,11318.4647,W,000.0,355.7,220819,017.7,E*6D
01DDD4,0225C6,00C4AE,$GPRMC,040404,A,5442.9393,N,11318.4647,W,000.0,355.7,220819,017.7,E*69
01DDD6,0225C7,00C4AE,$GPRMC,040405,A,5442.9396,N,11318.4647,W,000.0,355.7,220819,017.7,E*6D
01DDD4,0225C7,00C4AE,$GPRMC,040406,A,5442.9399,N,11318.4647,W,000.0,355.7,220819,017.7,E*61
01DDD5,0225C6,00C4AD,$GPRMC,040407,A,5442.9402,N,11318.4647,W,000.0,355.7,220819,017.7,E*65
01DDD5,0225C6,00C4AD,$GPRMC,040408,A,5442.9405,N,11318.4648,W,000.0,355.7,220819,017.7,E*62
01DDD5,0225C7,00C4AE,$GPRMC,040409,A,5442.9408,N,11318.4649,W,000.0,355.7,220819,017.7,E*6F
01DDD6,0225C8,00C4AE,$GPRMC,040410,A,5442.9411,N,11318.4649,W,000.0,355.7,220819,017.7,E*6F
01DDD4,0225C5,00C4AD,$GPRMC,040411,A,5442.9410,N,11318.4649,W,000.0,355.7,220819,017.7,E*6F
01DDD4,0225C6,00C4AE,$GPRMC,040412,A,5442.9410,N,11318.4649,W,000.0,355.7,220819,017.7,E*6C
01DDD2,0225C3,00C4AD,$GPRMC,040413,A,5442.9409,N,11318.4649,W,000.0,355.7,220819,017.7,E*65
01DDD2,0225C3,00C4AC,$GPRMC,040414,A,5442.9408,N,11318.4649,W,000.0,355.7,220819,017.7,E*63
01DDD4,0225C6,00C4AE,$GPRMC,040415,A,5442.9408,N,11318.4650,W,000.0,355.7,220819,017.7,E*6A
01DDD2,0225C3,00C4AD,$GPRMC,040416,A,5442.9410,N,11318.4651,W,000.0,355.7,220819,017.7,E*61
01DDD5,0225C7,00C4AE,$GPRMC,040417,A,5442.9414,N,11318.4653,W,000.0,355.7,220819,017.7,E*66
01DDD2,0225C3,00C4AD,$GPRMC,040418,A,5442.9417,N,11318.4655,W,000.0,355.7,220819,017.7,E*6C
01DDD5,0225C7,00C4AE,$GPRMC,040419,A,5442.9417,N,11318.4655,W,000.0,355.7,220819,017.7,E*6D
01DDD7,0225CB,00C4B0,$GPRMC,040420,A,5442.9421,N,11318.4656,W,000.0,355.7,220819,017.7,E*61
01DDD7,0225CA,00C4B0,$GPRMC,040421,A,5442.9424,N,11318.4657,W,000.0,355.7,220819,017.7,E*64
01DDD6,0225C9,00C4AF,$GPRMC,040422,A,5442.9427,N,11318.4657,W,000.0,355.7,220819,017.7,E*64
01DDD4,0225C6,00C4AD,$GPRMC,040423,A,5442.9429,N,11318.4657,W,000.0,355.7,220819,017.7,E*6B
01DDD7,0225CA,00C4AF,$GPRMC,040424,A,5442.9431,N,11318.4657,W,000.0,355.7,220819,017.7,E*65
01DDD5,0225C8,00C4AE,$GPRMC,040425,A,5442.9433,N,11318.4657,W,000.0,355.7,220819,017.7,E*66
01DDD5,0225C8,00C4AE,$GPRMC,040426,A,5442.9435,N,11318.4657,W,000.0,355.7,220819,017.7,E*63
01DDD4,0225C5,00C4AD,$GPRMC,040427,A,5442.9434,N,11318.4655,W,000.0,355.7,220819,017.7,E*61
01DDD3,0225C3,00C4AC,$GPRMC,040428,A,5442.9433,N,11318.4654,W,000.0,355.7,220819,017.7,E*68
01DDD1,0225C1,00C4AB,$GPRMC,040429,A,5442.9432,N,11318.4652,W,000.0,355.7,220819,017.7,E*6E
01DDD4,0225C4,00C4AD,$GPRMC,040430,A,5442.9435,N,11318.4652,W,000.0,355.7,220819,017.7,E*61
01DDD5,0225C6,00C4AE,$GPRMC,040431,A,5442.9435,N,11318.4651,W,000.0,355.7,220819,017.7,E*63
01DDD5,0225C5,00C4AE,$GPRMC,040432,A,5442.9435,N,11318.4649,W,000.0,355.7,220819,017.7,E*69
01DDD1,0225C2,00C4AC,$GPRMC,040433,A,5442.9440,N,11318.4650,W,000.0,355.7,220819,017.7,E*62
01DDD0,0225BF,00C4AB,$GPRMC,040434,A,5442.9437,N,11318.4647,W,000.0,355.7,220819,017.7,E*63
01DDD3,0225C4,00C4AC,$GPRMC,040435,A,5442.9436,N,11318.4646,W,000.0,355.7,220819,017.7,E*62
01DDD2,0225C2,00C4AC,$GPRMC,040436,A,5442.9433,N,11318.4644,W,000.0,355.7,220819,017.7,E*66
01DDD0,0225BF,00C4AB,$GPRMC,040437,A,5442.9434,N,11318.4644,W,000.0,355.7,220819,017.7,E*60
01DDCE,0225BD,00C4A9,$GPRMC,040438,A,5442.9432,N,11318.4644,W,000.0,355.7,220819,017.7,E*69
01DDD1,0225C1,00C4AB,$GPRMC,040439,A,5442.9431,N,11318.4643,W,000.0,355.7,220819,017.7,E*6C
01DDD2,0225C2,00C4AC,$GPRMC,040440,A,5442.9428,N,11318.4642,W,000.0,355.7,220819,017.7,E*6B
01DDD3,0225C2,00C4AC,$GPRMC,040441,A,5442.9429,N,11318.4642,W,000.0,355.7,220819,017.7,E*6B
01DDCF,0225BF,00C4AA,$GPRMC,040442,A,5442.9429,N,11318.4642,W,000.0,355.7,220819,017.7,E*68
01DDD3,0225C3,00C4AD,$GPRMC,040443,A,5442.9429,N,11318.4641,W,000.0,355.7,220819,017.7,E*6A
01DDD0,0225C0,00C4AC,$GPRMC,040444,A,5442.9427,N,11318.4639,W,000.0,355.7,220819,017.7,E*6C
01DDD3,0225C4,00C4AD,$GPRMC,040445,A,5442.9427,N,11318.4639,W,000.0,355.7,220819,017.7,E*6D
01DDD5,0225C7,00C4AE,$GPRMC,040446,A,5442.9427,N,11318.4639,W,000.0,355.7,220819,017.7,E*6E
01DDD1,0225C1,00C4AC,$GPRMC,040447,A,5442.9427,N,11318.4638,W,000.0,355.7,220819,017.7,E*6E
01DDD6,0225C8,00C4AE,$GPRMC,040448,A,5442.9426,N,11318.4637,W,000.0,355.7,220819,017.7,E*6F
01DDD6,0225C8,00C4AE,$GPRMC,040449,A,5442.9425,N,11318.4635,W,000.0,355.7,220819,017.7,E*6F
01DDD3,0225C3,00C4AC,$GPRMC,040450,A,5442.9425,N,11318.4634,W,000.0,355.7,220819,017.7,E*66
01DDD6,0225C8,00C4AE,$GPRMC,040451,A,5442.9425,N,11318.4633,W,000.0,355.7,220819,017.7,E*60
01DDD4,0225C6,00C4AD,$GPRMC,040452,A,5442.9425,N,11318.4632,W,000.0,355.7,220819,017.7,E*62
01DDD3,0225C4,00C4AD,$GPRMC,040453,A,5442.9426,N,11318.4631,W,000.0,355.7,220819,017.7,E*63
01DDD4,0225C7,00C4AD,$GPRMC,040454,A,5442.9425,N,11318.4629,W,000.0,355.7,220819,017.7,E*6E
01DDD2,0225C2,00C4AC,$GPRMC,040455,A,5442.9425,N,11318.4628,W,000.0,355.7,220819,017.7,E*6E
01DDD4,0225C6,00C4AE,$GPRMC,040456,A,5442.9426,N,11318.4627,W,000.0,355.7,220819,017.7,E*61
01DDD3,0225C4,00C4AD,$GPRMC,040457,A,5442.9427,N,11318.4627,W,000.0,355.7,220819,017.7,E*61
01DDD3,0225C4,00C4AD,$GPRMC,040458,A,5442.9432,N,11318.4629,W,000.0,355.7,220819,017.7,E*64
01DDD1,0225C1,00C4AC,$GPRMC,040459,A,5442.9437,N,11318.4631,W,000.0,355.7,220819,017.7,E*69
01DDD4,0225C5,00C4AE,$GPRMC,040500,A,5442.9436,N,11318.4630,W,000.0,355.7,220819,017.7,E*64
01DDD0,0225C0,00C4AC,$GPRMC,040501,A,5442.9439,N,11318.4631,W,000.0,355.7,220819,017.7,E*6B
01DDD2,0225C3,00C4AC,$GPRMC,040502,A,5442.9438,N,11318.4631,W,000.0,355.7,220819,017.7,E*69
01DDD3,0225C2,00C4AD,$GPRMC,040503,A,5442.9439,N,11318.4632,W,000.0,355.7,220819,017.7,E*6A
01DDD5,0225C7,00C4AE,$GPRMC,040504,A,5442.9439,N,11318.4632,W,000.0,355.7,220819,017.7,E*6D
01DDD2,0225C1,00C4AC,$GPRMC,040505,A,5442.9441,N,11318.4633,W,000.0,355.7,220819,017.7,E*62
01DDD3,0225C3,00C4AD,$GPRMC,040506,A,5442.9446,N,11318.4637,W,000.0,355.7,220819,017.7,E*62
01DDD2,0225C1,00C4AC,$GPRMC,040507,A,5442.9452,N,11318.4640,W,000.0,355.7,220819,017.7,E*66
01DDD2,0225C2,00C4AD,$GPRMC,040508,A,5442.9452,N,11318.4641,W,000.0,355.7,220819,017.7,E*68
01DDD1,0225C2,00C4AC,$GPRMC,040509,A,5442.9458,N,11318.4644,W,000.0,355.7,220819,017.7,E*66
01DDCE,0225BD,00C4AB,$GPRMC,040510,A,5442.9461,N,11318.4646,W,000.0,355.7,220819,017.7,E*66
01DDD2,0225C3,00C4AC,$GPRMC,040511,A,5442.9463,N,11318.4647,W,000.0,355.7,220819,017.7,E*64
01DDD1,0225C1,00C4AC,$GPRMC,040512,A,5442.9460,N,11318.4646,W,000.0,355.7,220819,017.7,E*65
01DDCF,0225BD,00C4AA,$GPRMC,040513,A,5442.9460,N,11318.4647,W,000.0,355.7,220819,017.7,E*65
01DDD2,0225C2,00C4AC,$GPRMC,040514,A,5442.9458,N,11318.4646,W,000.0,355.7,220819,017.7,E*68
01DDD1,0225C0,00C4AB,$GPRMC,040515,A,5442.9457,N,11318.4646,W,000.0,355.7,220819,017.7,E*66
01DDD5,0225C8,00C4AE,$GPRMC,040516,A,5442.9455,N,11318.4644,W,000.0,355.7,220819,017.7,E*65
01DDD1,0225C2,00C4AC,$GPRMC,040517,A,5442.9453,N,11318.4642,W,000.0,355.7,220819,017.7,E*64
01DDD5,0225C7,00C4AE,$GPRMC,040518,A,5442.9451,N,11318.4640,W,000.0,355.7,220819,017.7,E*6B
01DDD1,0225C1,00C4AC,$GPRMC,040519,A,5442.9450,N,11318.4638,W,000.0,355.7,220819,017.7,E*64
01DDD1,0225C3,00C4AC,$GPRMC,040520,A,5442.9448,N,11318.4637,W,000.0,355.7,220819,017.7,E*68
01DDCC,0225BB,00C4A9,$GPRMC,040521,A,5442.9452,N,11318.4637,W,000.0,355.7,220819,017.7,E*62
01DDCF,0225C0,00C4AB,$GPRMC,040522,A,5442.9455,N,11318.4638,W,000.0,355.7,220819,017.7,E*69
01DDD0,0225C0,00C4AB,$GPRMC,040523,A,5442.9454,N,11318.4635,W,000.0,355.7,220819,017.7,E*64
01DDD1,0225C1,00C4AC,$GPRMC,040524,A,5442.9454,N,11318.4634,W,000.0,355.7,220819,017.7,E*62
01DDCF,0225C0,00C4AB,$GPRMC,040525,A,5442.9457,N,11318.4634,W,000.0,355.7,220819,017.7,E*60
01DDD3,0225C6,00C4AD,$GPRMC,040526,A,5442.9461,N,11318.4635,W,000.0,355.7,220819,017.7,E*67
01DDD1,0225C1,00C4AC,$GPRMC,040527,A,5442.9463,N,11318.4635,W,000.0,355.7,220819,017.7,E*64
01DDD4,0225C7,00C4AE,$GPRMC,040528,A,5442.9463,N,11318.4634,W,000.0,355.7,220819,017.7,E*6A
01DDD2,0225C3,00C4AC,$GPRMC,040529,A,5442.9460,N,11318.4630,W,000.0,355.7,220819,017.7,E*6C
01DDD6,0225CA,00C4AF,$GPRMC,040530,A,5442.9457,N,11318.4627,W,000.0,355.7,220819,017.7,E*66
01DDD3,0225C5,00C4AE,$GPRMC,040531,A,5442.9454,N,11318.4624,W,000.0,355.7,220819,017.7,E*67
01DDD0,0225C1,00C4AB,$GPRMC,040532,A,5442.9451,N,11318.4621,W,000.0,355.7,220819,017.7,E*64
01DDD3,0225C6,00C4AD,$GPRMC,040533,A,5442.9449,N,11318.4618,W,000.0,355.7,220819,017.7,E*66
01DDD2,0225C2,00C4AD,$GPRMC,040534,A,5442.9446,N,11318.4615,W,000.0,355.7,220819,017.7,E*63
01DDD1,0225C2,00C4AC,$GPRMC,040535,A,5442.9448,N,11318.4616,W,000.0,355.7,220819,017.7,E*6F
01DDD0,0225C2,00C4AC,$GPRMC,040536,A,5442.9443,N,11318.4612,W,000.0,355.7,220819,017.7,E*63
01DDD0,0225C1,00C4AB,$GPRMC,040537,A,5442.9441,N,11318.4609,W,000.0,355.7,220819,017.7,E*6A
01DDD1,0225C3,00C4AD,$GPRMC,040538,A,5442.9438,N,11318.4606,W,000.0,355.7,220819,017.7,E*64
01DDCE,0225BF,00C4AA,$GPRMC,040539,A,5442.9433,N,11318.4606,W,000.0,355.7,220819,017.7,E*6E
01DDCE,0225BE,00C4AA,$GPRMC,040540,A,5442.9437,N,11318.4608,W,000.0,355.7,220819,017.7,E*6A
01DDCE,0225BE,00C4AB,$GPRMC,040541,A,5442.9437,N,11318.4608,W,000.0,355.7,220819,017.7,E*6B
01DDD2,0225C4,00C4AD,$GPRMC,040542,A,5442.9436,N,11318.4609,W,000.0,355.7,220819,017.7,E*68
01DDD0,0225C1,00C4AB,$GPRMC,040543,A,5442.9434,N,11318.4606,W,000.0,355.7,220819,017.7,E*64
01DDD3,0225C7,00C4AD,$GPRMC,040544,A,5442.9433,N,11318.4607,W,000.0,355.7,220819,017.7,E*65
01DDD4,0225C7,00C4AE,$GPRMC,040545,A,5442.9433,N,11318.4607,W,000.0,355.7,220819,017.7,E*64
01DDD5,0225C8,00C4AE,$GPRMC,040546,A,5442.9432,N,11318.4608,W,000.0,355.7,220819,017.7,E*69
01DDD1,0225C1,00C4AB,$GPRMC,040547,A,5442.9430,N,11318.4607,W,000.0,355.7,220819,017.7,E*65
01DDD2,0225C3,00C4AC,$GPRMC,040548,A,5442.9429,N,11318.4607,W,000.0,355.7,220819,017.7,E*62
01DDD4,0225C7,00C4AE,$GPRMC,040549,A,5442.9428,N,11318.4608,W,000.0,355.7,220819,017.7,E*6D
01DDCF,0225BF,00C4AB,$GPRMC,040550,A,5442.9427,N,11318.4608,W,000.0,355.7,220819,017.7,E*6A
01DDD3,0225C5,00C4AD,$GPRMC,040551,A,5442.9426,N,11318.4608,W,000.0,355.7,220819,017.7,E*6A
01DDD3,0225C6,00C4AD,$GPRMC,040552,A,5442.9425,N,11318.4608,W,000.0,355.7,220819,017.7,E*6A
01DDD1,0225C2,00C4AC,$GPRMC,040553,A,5442.9422,N,11318.4608,W,000.0,355.7,220819,017.7,E*6C
01DDD1,0225C2,00C4AB,$GPRMC,040554,A,5442.9419,N,11318.4607,W,000.0,355.7,220819,017.7,E*6C
01DDD4,0225C7,00C4AE,$GPRMC,040555,A,5442.9416,N,11318.4607,W,000.0,355.7,220819,017.7,E*62
01DDCD,0225BD,00C4AA,$GPRMC,040556,A,5442.9415,N,11318.4606,W,000.0,355.7,220819,017.7,E*63
01DDD0,0225C3,00C4AC,$GPRMC,040557,A,5442.9413,N,11318.4606,W,000.0,355.7,220819,017.7,E*64
01DDD3,0225C6,00C4AD,$GPRMC,040558,A,5442.9410,N,11318.4605,W,000.0,355.7,220819,017.7,E*6B
01DDCF,0225BF,00C4AB,$GPRMC,040559,A,5442.9406,N,11318.4604,W,000.0,355.7,220819,017.7,E*6C
01DDD0,0225C1,00C4AC,$GPRMC,040600,A,5442.9403,N,11318.4603,W,000.0,355.7,220819,017.7,E*61
01DDD4,0225C8,00C4AF,$GPRMC,040601,A,5442.9401,N,11318.4602,W,000.0,355.7,220819,017.7,E*63
01DDCD,0225BC,00C4AA,$GPRMC,040602,A,5442.9398,N,11318.4602,W,000.0,355.7,220819,017.7,E*67
01DDD0,0225C2,00C4AC,$GPRMC,040603,A,5442.9396,N,11318.4602,W,000.0,355.7,220819,017.7,E*68
01DDD1,0225C1,00C4AC,$GPRMC,040604,A,5442.9395,N,11318.4602,W,000.0,355.7,220819,017.7,E*6C
01DDD1,0225C2,00C4AC,$GPRMC,040605,A,5442.9394,N,11318.4602,W,000.0,355.7,220819,017.7,E*6C
01DDD0,0225C1,00C4AC,$GPRMC,040606,A,5442.9394,N,11318.4602,W,000.0,355.7,220819,017.7,E*6F
01DDCE,0225BF,00C4AC,$GPRMC,040607,A,5442.9393,N,11318.4603,W,000.0,355.7,220819,017.7,E*68
01DDD1,0225C2,00C4AD,$GPRMC,040608,A,5442.9395,N,11318.4604,W,000.0,355.7,220819,017.7,E*66
01DDD1,0225C2,00C4AC,$GPRMC,040609,A,5442.9396,N,11318.4605,W,000.0,355.7,220819,017.7,E*65
01DDD4,0225C7,00C4AD,$GPRMC,040610,A,5442.9395,N,11318.4607,W,000.0,355.7,220819,017.7,E*6C
01DDD1,0225C3,00C4AD,$GPRMC,040611,A,5442.9394,N,11318.4608,W,000.0,355.7,220819,017.7,E*63
01DDCF,0225C0,00C4AB,$GPRMC,040612,A,5442.9394,N,11318.4610,W,000.0,355.7,220819,017.7,E*69
01DDD4,0225C7,00C4AE,$GPRMC,040613,A,5442.9393,N,11318.4612,W,000.0,355.7,220819,017.7,E*6D
01DDCC,0225BD,00C4A9,$GPRMC,040614,A,5442.9393,N,11318.4614,W,000.0,355.7,220819,017.7,E*6C
01DDCF,0225C0,00C4AC,$GPRMC,040615,A,5442.9393,N,11318.4616,W,000.0,355.7,220819,017.7,E*6F
01DDCE,0225BF,00C4AA,$GPRMC,040616,A,5442.9393,N,11318.4619,W,000.0,355.7,220819,017.7,E*63
01DDCE,0225BF,00C4AA,$GPRMC,040617,A,5442.9394,N,11318.4621,W,000.0,355.7,220819,017.7,E*6E
01DDCC,0225BB,00C4A9,$GPRMC,040618,A,5442.9395,N,11318.4624,W,000.0,355.7,220819,017.7,E*65
01DDCC,0225BC,00C4AA,$GPRMC,040619,A,5442.9397,N,11318.4626,W,000.0,355.7,220819,017.7,E*64
01DDCF,0225BE,00C4AB,$GPRMC,040620,A,5442.9397,N,11318.4628,W,000.0,355.7,220819,017.7,E*60
01DDD0,0225C0,00C4AC,$GPRMC,040621,A,5442.9397,N,11318.4630,W,000.0,355.7,220819,017.7,E*68
01DDCE,0225BD,00C4AB,$GPRMC,040622,A,5442.9396,N,11318.4631,W,000.0,355.7,220819,017.7,E*6B
01DDCD,0225BD,00C4AA,$GPRMC,040623,A,5442.9395,N,11318.4632,W,000.0,355.7,220819,017.7,E*6A
01DDCD,0225BC,00C4AA,$GPRMC,040624,A,5442.9395,N,11318.4633,W,000.0,355.7,220819,017.7,E*6C
01DDCD,0225BC,00C4AA,$GPRMC,040625,A,5442.9395,N,11318.4634,W,000.0,355.7,220819,017.7,E*6A
01DDCC,0225BB,00C4A9,$GPRMC,040626,A,5442.9395,N,11318.4634,W,000.0,355.7,220819,017.7,E*69
01DDCD,0225BC,00C4AA,$GPRMC,040627,A,5442.9393,N,11318.4632,W,000.0,355.7,220819,017.7,E*68
01DDCE,0225BE,00C4AA,$GPRMC,040628,A,5442.9392,N,11318.4629,W,000.0,355.7,220819,017.7,E*6C
01DDD0,0225C0,00C4AB,$GPRMC,040629,A,5442.9390,N,11318.4627,W,000.0,355.7,220819,017.7,E*61
01DDD0,0225C0,00C4AB,$GPRMC,040630,A,5442.9388,N,11318.4625,W,000.0,355.7,220819,017.7,E*62
01DDCE,0225BC,00C4A9,$GPRMC,040631,A,5442.9386,N,11318.4622,W,000.0,355.7,220819,017.7,E*6A
01DDD2,0225C2,00C4AC,$GPRMC,040632,A,5442.9384,N,11318.4619,W,000.0,355.7,220819,017.7,E*63
01DDD1,0225C0,00C4AC,$GPRMC,040633,A,5442.9385,N,11318.4615,W,000.0,355.7,220819,017.7,E*6F
01DDD2,0225C3,00C4AC,$GPRMC,040634,A,5442.9385,N,11318.4612,W,000.0,355.7,220819,017.7,E*6F
01DDD3,0225C5,00C4AE,$GPRMC,040635,A,5442.9385,N,11318.4609,W,000.0,355.7,220819,017.7,E*64
01DDD2,0225C3,00C4AD,$GPRMC,040636,A,5442.9385,N,11318.4606,W,000.0,355.7,220819,017.7,E*68
01DDD5,0225C7,00C4AE,$GPRMC,040637,A,5442.9381,N,11318.4603,W,000.0,355.7,220819,017.7,E*68
01DDD3,0225C5,00C4AE,$GPRMC,040638,A,5442.9380,N,11318.4602,W,000.0,355.7,220819,017.7,E*67
01DDD5,0225C8,00C4AF,$GPRMC,040639,A,5442.9378,N,11318.4599,W,000.0,355.7,220819,017.7,E*60
01DDD3,0225C4,00C4AD,$GPRMC,040640,A,5442.9375,N,11318.4597,W,000.0,355.7,220819,017.7,E*6D
01DDD3,0225C4,00C4AC,$GPRMC,040641,A,5442.9373,N,11318.4595,W,000.0,355.7,220819,017.7,E*68
01DDD4,0225C7,00C4AE,$GPRMC,040642,A,5442.9371,N,11318.4594,W,000.0,355.7,220819,017.7,E*68
01DDD5,0225C7,00C4AE,$GPRMC,040643,A,5442.9369,N,11318.4593,W,000.0,355.7,220819,017.7,E*67
01DDD3,0225C4,00C4AD,$GPRMC,040644,A,5442.9367,N,11318.4592,W,000.0,355.7,220819,017.7,E*6F
01DDD3,0225C5,00C4AE,$GPRMC,040645,A,5442.9365,N,11318.4591,W,000.0,355.7,220819,017.7,E*6F
01DDD2,0225C4,00C4AD,$GPRMC,040646,A,5442.9363,N,11318.4591,W,000.0,355.7,220819,017.7,E*6A
01DDD5,0225C9,00C4B0,$GPRMC,040647,A,5442.9362,N,11318.4590,W,000.0,355.7,220819,017.7,E*6B
01DDD8,0225CC,00C4B0,$GPRMC,040648,A,5442.9360,N,11318.4590,W,000.0,355.7,220819,017.7,E*66
01DDD6,0225C9,00C4AF,$GPRMC,040649,A,5442.9357,N,11318.4589,W,000.0,355.7,220819,017.7,E*6B
01DDD6,0225C9,00C4AF,$GPRMC,040650,A,5442.9355,N,11318.4589,W,000.0,355.7,220819,017.7,E*61
01DDD2,0225C4,00C4AD,$GPRMC,040651,A,5442.9360,N,11318.4589,W,000.0,355.7,220819,017.7,E*66
01DDD4,0225C6,00C4AE,$GPRMC,040652,A,5442.9361,N,11318.4589,W,000.0,355.7,220819,017.7,E*64
01DDD4,0225C6,00C4AE,$GPRMC,040653,A,5442.9358,N,11318.4588,W,000.0,355.7,220819,017.7,E*6E
01DDD4,0225C6,00C4AD,$GPRMC,040654,A,5442.9361,N,11318.4587,W,000.0,355.7,220819,017.7,E*6C
01DDD5,0225C7,00C4AE,$GPRMC,040655,A,5442.9364,N,11318.4586,W,000.0,355.7,220819,017.7,E*69
01DDD6,0225C8,00C4AE,$GPRMC,040656,A,5442.9367,N,11318.4585,W,000.0,355.7,220819,017.7,E*6A
01DDD6,0225C8,00C4AF,$GPRMC,040657,A,5442.9370,N,11318.4584,W,000.0,355.7,220819,017.7,E*6C
01DDD7,0225CA,00C4AF,$GPRMC,040658,A,5442.9372,N,11318.4583,W,000.0,355.7,220819,017.7,E*66
01DDD5,0225C8,00C4AE,$GPRMC,040659,A,5442.9375,N,11318.4581,W,000.0,355.7,220819,017.7,E*62
01DDD6,0225C9,00C4AE,$GPRMC,040700,A,5442.9377,N,11318.4580,W,000.0,355.7,220819,017.7,E*6C
01DDD5,0225C8,00C4AE,$GPRMC,040701,A,5442.9379,N,11318.4579,W,000.0,355.7,220819,017.7,E*65
01DDD7,0225CB,00C4B0,$GPRMC,040702,A,5442.9381,N,11318.4578,W,000.0,355.7,220819,017.7,E*60
01DDD7,0225CA,00C4B0,$GPRMC,040703,A,5442.9384,N,11318.4577,W,000.0,355.7,220819,017.7,E*6B
01DDD8,0225CB,00C4B0,$GPRMC,040704,A,5442.9387,N,11318.4576,W,000.0,355.7,220819,017.7,E*6E
01DDD7,0225CB,00C4B0,$GPRMC,040705,A,5442.9389,N,11318.4576,W,000.0,355.7,220819,017.7,E*61
01DDD5,0225C8,00C4AE,$GPRMC,040706,A,5442.9393,N,11318.4577,W,000.0,355.7,220819,017.7,E*68
01DDD6,0225CA,00C4AF,$GPRMC,040707,A,5442.9396,N,11318.4577,W,000.0,355.7,220819,017.7,E*6C
01DDD7,0225C9,00C4AF,$GPRMC,040708,A,5442.9398,N,11318.4577,W,000.0,355.7,220819,017.7,E*6D
01DDD9,0225CD,00C4B1,$GPRMC,040709,A,5442.9401,N,11318.4578,W,000.0,355.7,220819,017.7,E*64
01DDD6,0225C9,00C4AF,$GPRMC,040710,A,5442.9400,N,11318.4579,W,000.0,355.7,220819,017.7,E*6C
01DDD6,0225C9,00C4AF,$GPRMC,040711,A,5442.9400,N,11318.4579,W,000.0,355.7,220819,017.7,E*6D
01DDD2,0225C2,00C4AB,$GPRMC,040712,A,5442.9401,N,11318.4579,W,000.0,355.7,220819,017.7,E*6F
01DDD3,0225C3,00C4AC,$GPRMC,040713,A,5442.9402,N,11318.4579,W,000.0,355.7,220819,017.7,E*6D
01DDD5,0225C6,00C4AE,$GPRMC,040714,A,5442.9406,N,11318.4582,W,000.0,355.7,220819,017.7,E*6A
01DDD4,0225C6,00C4AD,$GPRMC,040715,A,5442.9409,N,11318.4584,W,000.0,355.7,220819,017.7,E*62
01DDD5,0225C7,00C4AD,$GPRMC,040716,A,5442.9413,N,11318.4586,W,000.0,355.7,220819,017.7,E*68
01DDD8,0225CB,00C4AF,$GPRMC,040717,A,5442.9415,N,11318.4589,W,000.0,355.7,220819,017.7,E*60
01DDD4,0225C4,00C4AD,$GPRMC,040718,A,5442.9412,N,11318.4590,W,000.0,355.7,220819,017.7,E*60
01DDD5,0225C7,00C4AE,$GPRMC,040719,A,5442.9416,N,11318.4591,W,000.0,355.7,220819,017.7,E*64
01DDD5,0225C6,00C4AD,$GPRMC,040720,A,5442.9418,N,11318.4592,W,000.0,355.7,220819,017.7,E*63
01DDD4,0225C6,00C4AD,$GPRMC,040721,A,5442.9415,N,11318.4592,W,000.0,355.7,220819,017.7,E*6F
01DDD5,0225C5,00C4AD,$GPRMC,040722,A,5442.9418,N,11318.4594,W,000.0,355.7,220819,017.7,E*67
01DDD9,0225CA,00C4AF,$GPRMC,040723,A,5442.9418,N,11318.4594,W,000.0,355.7,220819,017.7,E*66
01DDD9,0225CC,00C4B0,$GPRMC,040724,A,5442.9418,N,11318.4594,W,000.0,355.7,220819,017.7,E*61
01DDD7,0225CA,00C4AF,$GPRMC,040725,A,5442.9417,N,11318.4593,W,000.0,355.7,220819,017.7,E*68
01DDD8,0225CA,00C4AF,$GPRMC,040726,A,5442.9415,N,11318.4593,W,000.0,355.7,220819,017.7,E*69
01DDD8,0225CA,00C4AF,$GPRMC,040727,A,5442.9413,N,11318.4592,W,000.0,355.7,220819,017.7,E*6F
01DDD8,0225C9,00C4AF,$GPRMC,040728,A,5442.9411,N,11318.4591,W,000.0,355.7,220819,017.7,E*61
01DDDA,0225CC,00C4B0,$GPRMC,040729,A,5442.9409,N,11318.4591,W,000.0,355.7,220819,017.7,E*69
01DDD7,0225CB,00C4AF,$GPRMC,040730,A,5442.9406,N,11318.4591,W,000.0,355.7,220819,017.7,E*6E
01DDD6,0225C8,00C4AE,$GPRMC,040731,A,5442.9403,N,11318.4590,W,000.0,355.7,220819,017.7,E*6B
01DDD5,0225C7,00C4AE,$GPRMC,040732,A,5442.9403,N,11318.4590,W,000.0,355.7,220819,017.7,E*68
01DDD6,0225C8,00C4AE,$GPRMC,040733,A,5442.9402,N,11318.4590,W,000.0,355.7,220819,017.7,E*68
01DDD3,0225C4,00C4AC,$GPRMC,040734,A,5442.9398,N,11318.4591,W,000.0,355.7,220819,017.7,E*6A
01DDD3,0225C4,00C4AB,$GPRMC,040735,A,5442.9397,N,11318.4590,W,000.0,355.7,220819,017.7,E*65
01DDD6,0225C7,00C4AE,$GPRMC,040736,A,5442.9394,N,11318.4591,W,000.0,355.7,220819,017.7,E*64
01DDD9,0225CD,00C4B0,$GPRMC,040737,A,5442.9393,N,11318.4591,W,000.0,355.7,220819,017.7,E*62
01DDD7,0225CA,00C4AF,$GPRMC,040738,A,5442.9392,N,11318.4592,W,000.0,355.7,220819,017.7,E*6F
01DDD8,0225CB,00C4B0,$GPRMC,040739,A,5442.9395,N,11318.4595,W,000.0,355.7,220819,017.7,E*6E
01DDD8,0225CA,00C4AF,$GPRMC,040740,A,5442.9398,N,11318.4599,W,000.0,355.7,220819,017.7,E*61
01DDD4,0225C4,00C4AD,$GPRMC,040741,A,5442.9397,N,11318.4599,W,000.0,355.7,220819,017.7,E*6F
01DDD4,0225C4,00C4AC,$GPRMC,040742,A,5442.9400,N,11318.4601,W,000.0,355.7,220819,017.7,E*67
01DDD7,0225C8,00C4AE,$GPRMC,040743,A,5442.9404,N,11318.4604,W,000.0,355.7,220819,017.7,E*67
01DDD5,0225C6,00C4AD,$GPRMC,040744,A,5442.9409,N,11318.4607,W,000.0,355.7,220819,017.7,E*6E
01DDD5,0225C7,00C4AE,$GPRMC,040745,A,5442.9414,N,11318.4610,W,000.0,355.7,220819,017.7,E*65
01DDD5,0225C8,00C4AE,$GPRMC,040746,A,5442.9418,N,11318.4613,W,000.0,355.7,220819,017.7,E*69
01DDD8,0225CB,00C4AF,$GPRMC,040747,A,5442.9421,N,11318.4617,W,000.0,355.7,220819,017.7,E*66
01DDD9,0225CC,00C4AF,$GPRMC,040748,A,5442.9425,N,11318.4620,W,000.0,355.7,220819,017.7,E*69
01DDD9,0225CB,00C4AE,$GPRMC,040749,A,5442.9426,N,11318.4622,W,000.0,355.7,220819,017.7,E*69
01DDD6,0225C8,00C4AE,$GPRMC,040750,A,5442.9427,N,11318.4623,W,000.0,355.7,220819,017.7,E*61
01DDD7,0225CA,00C4AF,$GPRMC,040751,A,5442.9428,N,11318.4624,W,000.0,355.7,220819,017.7,E*68
01DDD7,0225C9,00C4AE,$GPRMC,040752,A,5442.9429,N,11318.4625,W,000.0,355.7,220819,017.7,E*6B
01DDD7,0225C8,00C4AE,$GPRMC,040753,A,5442.9433,N,11318.4627,W,000.0,355.7,220819,017.7,E*63
01DDD5,0225C6,00C4AD,$GPRMC,040754,A,5442.9432,N,11318.4629,W,000.0,355.7,220819,017.7,E*6B
01DDD2,0225C4,00C4AC,$GPRMC,040755,A,5442.9431,N,11318.4630,W,000.0,355.7,220819,017.7,E*61
01DDD5,0225C9,00C4AE,$GPRMC,040756,A,5442.9431,N,11318.4631,W,000.0,355.7,220819,017.7,E*63
01DDD3,0225C6,00C4AD,$GPRMC,040757,A,5442.9431,N,11318.4632,W,000.0,355.7,220819,017.7,E*61
01DDD6,0225CA,00C4AF,$GPRMC,040758,A,5442.9431,N,11318.4634,W,000.0,355.7,220819,017.7,E*68
01DDD6,0225C6,00C4AE,$GPRMC,040759,A,5442.9432,N,11318.4634,W,000.0,355.7,220819,017.7,E*6A
01DDD8,0225C5,00C4AD,$GPRMC,040800,A,5442.9433,N,11318.4635,W,000.0,355.7,220819,017.7,E*69
01DDDF,0225C7,00C4AD,$GPRMC,040801,A,5442.9434,N,11318.4637,W,000.0,355.7,220819,017.7,E*6D
01DDE6,0225D3,00C4AB,$GPRMC,040802,A,5442.9436,N,11318.4638,W,000.0,355.7,220819,017.7,E*63
01DDD8,0225D1,00C4AD,$GPRMC,040803,A,5442.9438,N,11318.4639,W,000.0,355.7,220819,017.7,E*6D
01DDD7,0225CB,00C4AE,$GPRMC,040804,A,5442.9439,N,11318.4640,W,000.0,355.7,220819,017.7,E*65
01DDD7,0225CA,00C4AE,$GPRMC,040805,A,5442.9441,N,11318.4641,W,000.0,355.7,220819,017.7,E*6A
01DDD4,0225C5,00C4AC,$GPRMC,040806,A,5442.9441,N,11318.4643,W,000.0,355.7,220819,017.7,E*6B
01DDD7,0225CA,00C4AD,$GPRMC,040807,A,5442.9441,N,11318.4645,W,000.0,355.7,220819,017.7,E*6C
01DDD4,0225C6,00C4AC,$GPRMC,040808,A,5442.9441,N,11318.4647,W,000.0,355.7,220819,017.7,E*61
01DDD3,0225C3,00C4AB,$GPRMC,040809,A,5442.9441,N,11318.4649,W,000.0,355.7,220819,017.7,E*6E
01DDD5,0225C5,00C4AC,$GPRMC,040810,A,5442.9444,N,11318.4653,W,000.0,355.7,220819,017.7,E*68
01DDD4,0225C5,00C4AC,$GPRMC,040811,A,5442.9442,N,11318.4655,W,000.0,355.7,220819,017.7,E*69
01DDDB,0225CE,00C4B0,$GPRMC,040812,A,5442.9440,N,11318.4656,W,000.0,355.7,220819,017.7,E*6B
01DDD5,0225C0,00C4AB,$GPRMC,040813,A,5442.9440,N,11318.4657,W,000.0,355.7,220819,017.7,E*6B
01DDD7,0225C3,00C4AD,$GPRMC,040814,A,5442.9439,N,11318.4658,W,000.0,355.7,220819,017.7,E*6D
01DDD4,0225C0,00C4AB,$GPRMC,040815,A,5442.9438,N,11318.4659,W,000.0,355.7,220819,017.7,E*6C
01DDD7,0225C5,00C4AD,$GPRMC,040816,A,5442.9437,N,11318.4659,W,000.0,355.7,220819,017.7,E*60
01DDD5,0225C3,00C4AB,$GPRMC,040817,A,5442.9435,N,11318.4659,W,000.0,355.7,220819,017.7,E*63
01DDD6,0225C5,00C4AD,$GPRMC,040818,A,5442.9433,N,11318.4659,W,000.0,355.7,220819,017.7,E*6A
01DDD5,0225C4,00C4AC,$GPRMC,040819,A,5442.9433,N,11318.4659,W,000.0,355.7,220819,017.7,E*6B
01DDD8,0225C7,00C4AE,$GPRMC,040820,A,5442.9432,N,11318.4659,W,000.0,355.7,220819,017.7,E*60
01DDD2,0225C0,00C4AB,$GPRMC,040821,A,5442.9429,N,11318.4659,W,000.0,355.7,220819,017.7,E*6B
01DDD7,0225C8,00C4AE,$GPRMC,040822,A,5442.9429,N,11318.4659,W,000.0,355.7,220819,017.7,E*68
01DDD4,0225C3,00C4AC,$GPRMC,040823,A,5442.9428,N,11318.4660,W,000.0,355.7,220819,017.7,E*62
01DDDA,0225CA,00C4AF,$GPRMC,040824,A,5442.9427,N,11318.4660,W,000.0,355.7,220819,017.7,E*6A
01DDD7,0225C6,00C4AE,$GPRMC,040825,A,5442.9427,N,11318.4660,W,000.0,355.7,220819,017.7,E*6B
01DDD7,0225C8,00C4AE,$GPRMC,040826,A,5442.9427,N,11318.4660,W,000.0,355.7,220819,017.7,E*68
01DDD7,0225C6,00C4AD,$GPRMC,040827,A,5442.9426,N,11318.4660,W,000.0,355.7,220819,017.7,E*68
01DDDA,0225CB,00C4AF,$GPRMC,040828,A,5442.9423,N,11318.4660,W,000.0,355.7,220819,017.7,E*62
01DDD8,0225C8,00C4AE,$GPRMC,040829,A,5442.9421,N,11318.4660,W,000.0,355.7,220819,017.7,E*61
01DDD8,0225C9,00C4AE,$GPRMC,040830,A,5442.9418,N,11318.4659,W,000.0,355.7,220819,017.7,E*69
01DDD9,0225C9,00C4AE,$GPRMC,040831,A,5442.9415,N,11318.4659,W,000.0,355.7,220819,017.7,E*65
01DDD7,0225C6,00C4AD,$GPRMC,040832,A,5442.9412,N,11318.4659,W,000.0,355.7,220819,017.7,E*61
01DDDA,0225CB,00C4AF,$GPRMC,040833,A,5442.9409,N,11318.4659,W,000.0,355.7,220819,017.7,E*6A
01DDD6,0225C5,00C4AC,$GPRMC,040834,A,5442.9407,N,11318.4660,W,000.0,355.7,220819,017.7,E*69
01DDD4,0225C1,00C4AB,$GPRMC,040835,A,5442.9405,N,11318.4659,W,000.0,355.7,220819,017.7,E*60
01DDD4,0225C2,00C4AC,$GPRMC,040836,A,5442.9403,N,11318.4659,W,000.0,355.7,220819,017.7,E*65
01DDD7,0225C6,00C4AE,$GPRMC,040837,A,5442.9403,N,11318.4660,W,000.0,355.7,220819,017.7,E*6E
01DDD5,0225C4,00C4AC,$GPRMC,040838,A,5442.9403,N,11318.4660,W,000.0,355.7,220819,017.7,E*61
01DDD7,0225C6,00C4AD,$GPRMC,040839,A,5442.9402,N,11318.4660,W,000.0,355.7,220819,017.7,E*61
01DDDA,0225CA,00C4B0,$GPRMC,040840,A,5442.9401,N,11318.4660,W,000.0,355.7,220819,017.7,E*6C
01DDDA,0225C9,00C4AF,$GPRMC,040841,A,5442.9401,N,11318.4660,W,000.0,355.7,220819,017.7,E*6D
01DDD6,0225C4,00C4AD,$GPRMC,040842,A,5442.9402,N,11318.4660,W,000.0,355.7,220819,017.7,E*6D
01DDD5,0225C3,00C4AC,$GPRMC,040843,A,5442.9401,N,11318.4660,W,000.0,355.7,220819,017.7,E*6F
01DDD5,0225C2,00C4AC,$GPRMC,040844,A,5442.9402,N,11318.4660,W,000.0,355.7,220819,017.7,E*6B
01DDDA,0225CA,00C4AF,$GPRMC,040845,A,5442.9403,N,11318.4660,W,000.0,355.7,220819,017.7,E*6B
01DDD5,0225C1,00C4AC,$GPRMC,040846,A,5442.9405,N,11318.4660,W,000.0,355.7,220819,017.7,E*6E
01DDDC,0225CC,00C4B0,$GPRMC,040847,A,5442.9406,N,11318.4659,W,000.0,355.7,220819,017.7,E*66
01DDD7,0225C4,00C4AD,$GPRMC,040848,A,5442.9407,N,11318.4659,W,000.0,355.7,220819,017.7,E*68
01DDD8,0225C6,00C4AE,$GPRMC,040849,A,5442.9409,N,11318.4659,W,000.0,355.7,220819,017.7,E*67
01DDD8,0225C6,00C4AE,$GPRMC,040850,A,5442.9410,N,11318.4659,W,000.0,355.7,220819,017.7,E*67
01DDD8,0225C8,00C4AE,$GPRMC,040851,A,5442.9412,N,11318.4659,W,000.0,355.7,220819,017.7,E*64
01DDD7,0225C5,00C4AD,$GPRMC,040852,A,5442.9414,N,11318.4660,W,000.0,355.7,220819,017.7,E*6B
01DDDA,0225C9,00C4AF,$GPRMC,040853,A,5442.9416,N,11318.4660,W,000.0,355.7,220819,017.7,E*68
01DDD9,0225C9,00C4AE,$GPRMC,040854,A,5442.9417,N,11318.4661,W,000.0,355.7,220819,017.7,E*6F
01DDD8,0225C7,00C4AD,$GPRMC,040855,A,5442.9419,N,11318.4662,W,000.0,355.7,220819,017.7,E*63
01DDD7,0225C5,00C4AC,$GPRMC,040856,A,5442.9419,N,11318.4663,W,000.0,355.7,220819,017.7,E*61
01DDDA,0225CA,00C4AE,$GPRMC,040857,A,5442.9419,N,11318.4663,W,000.0,355.7,220819,017.7,E*60
01DDD8,0225C7,00C4AE,$GPRMC,040858,A,5442.9420,N,11318.4664,W,000.0,355.7,220819,017.7,E*62
01DDD9,0225C9,00C4AE,$GPRMC,040859,A,5442.9420,N,11318.4666,W,000.0,355.7,220819,017.7,E*61
01DDD8,0225C6,00C4AD,$GPRMC,040900,A,5442.9419,N,11318.4668,W,000.0,355.7,220819,017.7,E*68
01DDD9,0225CA,00C4AF,$GPRMC,040901,A,5442.9418,N,11318.4670,W,000.0,355.7,220819,017.7,E*61
01DDD6,0225C4,00C4AC,$GPRMC,040902,A,5442.9418,N,11318.4672,W,000.0,355.7,220819,017.7,E*60
01DDD7,0225C5,00C4AD,$GPRMC,040903,A,5442.9417,N,11318.4671,W,000.0,355.7,220819,017.7,E*6D
01DDD5,0225C4,00C4AC,$GPRMC,040904,A,5442.9416,N,11318.4671,W,000.0,355.7,220819,017.7,E*6B
01DDD6,0225C5,00C4AC,$GPRMC,040905,A,5442.9415,N,11318.4670,W,000.0,355.7,220819,017.7,E*68
01DDD6,0225C4,00C4AC,$GPRMC,040906,A,5442.9414,N,11318.4669,W,000.0,355.7,220819,017.7,E*62
01DDDB,0225CA,00C4AF,$GPRMC,040907,A,5442.9412,N,11318.4671,W,000.0,355.7,220819,017.7,E*6C
01DDD9,0225C8,00C4AD,$GPRMC,040908,A,5442.9411,N,11318.4674,W,000.0,355.7,220819,017.7,E*65
01DDD8,0225C8,00C4AD,$GPRMC,040909,A,5442.9410,N,11318.4676,W,000.0,355.7,220819,017.7,E*67
01DDD8,0225C7,00C4AD,$GPRMC,040910,A,5442.9408,N,11318.4677,W,000.0,355.7,220819,017.7,E*67
01DDDB,0225CA,00C4AE,$GPRMC,040911,A,5442.9406,N,11318.4678,W,000.0,355.7,220819,017.7,E*67
01DDDA,0225CB,00C4AE,$GPRMC,040912,A,5442.9405,N,11318.4676,W,000.0,355.7,220819,017.7,E*69
01DDD8,0225C6,00C4AD,$GPRMC,040913,A,5442.9404,N,11318.4675,W,000.0,355.7,220819,017.7,E*6A
01DDD9,0225C9,00C4AE,$GPRMC,040914,A,5442.9403,N,11318.4675,W,000.0,355.7,220819,017.7,E*6A
01DDD8,0225C8,00C4AE,$GPRMC,040915,A,5442.9402,N,11318.4674,W,000.0,355.7,220819,017.7,E*6B
01DDD7,0225C5,00C4AC,$GPRMC,040916,A,5442.9401,N,11318.4674,W,000.0,355.7,220819,017.7,E*6B
01DDD4,0225C1,00C4AB,$GPRMC,040917,A,5442.9401,N,11318.4674,W,000.0,355.7,220819,017.7,E*6A
01DDD6,0225C3,00C4AC,$GPRMC,040918,A,5442.9399,N,11318.4674,W,000.0,355.7,220819,017.7,E*63
01DDD8,0225C7,00C4AE,$GPRMC,040919,A,5442.9400,N,11318.4674,W,000.0,355.7,220819,017.7,E*65
01DDD8,0225C6,00C4AD,$GPRMC,040920,A,5442.9400,N,11318.4675,W,000.0,355.7,220819,017.7,E*6E
01DDD7,0225C6,00C4AD,$GPRMC,040921,A,5442.9400,N,11318.4675,W,000.0,355.7,220819,017.7,E*6F
01DDDB,0225CB,00C4AF,$GPRMC,040922,A,5442.9400,N,11318.4675,W,000.0,355.7,220819,017.7,E*6C
01DDD7,0225C5,00C4AC,$GPRMC,040923,A,5442.9400,N,11318.4675,W,000.0,355.7,220819,017.7,E*6D
01DDD7,0225C7,00C4AE,$GPRMC,040924,A,5442.9399,N,11318.4675,W,000.0,355.7,220819,017.7,E*6D
01DDD8,0225C6,00C4AD,$GPRMC,040925,A,5442.9399,N,11318.4675,W,000.0,355.7,220819,017.7,E*6C
01DDD8,0225C7,00C4AD,$GPRMC,040926,A,5442.9398,N,11318.4675,W,000.0,355.7,220819,017.7,E*6E
01DDD7,0225C5,00C4AD,$GPRMC,040927,A,5442.9398,N,11318.4676,W,000.0,355.7,220819,017.7,E*6C
01DDD8,0225C7,00C4AD,$GPRMC,040928,A,5442.9399,N,11318.4677,W,000.0,355.7,220819,017.7,E*63
01DDD7,0225C4,00C4AC,$GPRMC,040929,A,5442.9400,N,11318.4678,W,000.0,355.7,220819,017.7,E*6A
01DDD6,0225C3,00C4AC,$GPRMC,040930,A,5442.9400,N,11318.4679,W,000.0,355.7,220819,017.7,E*63
01DDD8,0225C6,00C4AD,$GPRMC,040931,A,5442.9398,N,11318.4680,W,000.0,355.7,220819,017.7,E*62
01DDD7,0225C4,00C4AC,$GPRMC,040932,A,5442.9397,N,11318.4682,W,000.0,355.7,220819,017.7,E*6C
01DDD8,0225C6,00C4AD,$GPRMC,040933,A,5442.9396,N,11318.4683,W,000.0,355.7,220819,017.7,E*6D
01DDD9,0225C7,00C4AD,$GPRMC,040934,A,5442.9395,N,11318.4684,W,000.0,355.7,220819,017.7,E*6E
01DDD7,0225C6,00C4AC,$GPRMC,040935,A,5442.9394,N,11318.4684,W,000.0,355.7,220819,017.7,E*6E
01DDD6,0225C3,00C4AB,$GPRMC,040936,A,5442.9393,N,11318.4685,W,000.0,355.7,220819,017.7,E*6B
01DDD5,0225C2,00C4AB,$GPRMC,040937,A,5442.9391,N,11318.4686,W,000.0,355.7,220819,017.7,E*6B
01DDD8,0225C7,00C4AD,$GPRMC,040938,A,5442.9390,N,11318.4686,W,000.0,355.7,220819,017.7,E*65
01DDD6,0225C5,00C4AC,$GPRMC,040939,A,5442.9389,N,11318.4687,W,000.0,355.7,220819,017.7,E*6D
01DDDA,0225C9,00C4AE,$GPRMC,040940,A,5442.9388,N,11318.4687,W,000.0,355.7,220819,017.7,E*62
01DDD6,0225C4,00C4AC,$GPRMC,040941,A,5442.9386,N,11318.4686,W,000.0,355.7,220819,017.7,E*6C
01DDD8,0225C8,00C4AE,$GPRMC,040942,A,5442.9385,N,11318.4685,W,000.0,355.7,220819,017.7,E*6F
01DDD6,0225C4,00C4AC,$GPRMC,040943,A,5442.9383,N,11318.4685,W,000.0,355.7,220819,017.7,E*68
01DDD6,0225C4,00C4AC,$GPRMC,040944,A,5442.9382,N,11318.4683,W,000.0,355.7,220819,017.7,E*68
01DDD5,0225C3,00C4AB,$GPRMC,040945,A,5442.9382,N,11318.4684,W,000.0,355.7,220819,017.7,E*6E
01DDD6,0225C5,00C4AC,$GPRMC,040946,A,5442.9381,N,11318.4683,W,000.0,355.7,220819,017.7,E*69
01DDD6,0225C4,00C4AC,$GPRMC,040947,A,5442.9379,N,11318.4681,W,000.0,355.7,220819,017.7,E*6D
01DDD6,0225C3,00C4AB,$GPRMC,040948,A,5442.9378,N,11318.4680,W,000.0,355.7,220819,017.7,E*62
01DDD4,0225C1,00C4AB,$GPRMC,040949,A,5442.9376,N,11318.4679,W,000.0,355.7,220819,017.7,E*6B
01DDD5,0225C4,00C4AC,$GPRMC,040950,A,5442.9375,N,11318.4678,W,000.0,355.7,220819,017.7,E*61
01DDD9,0225C8,00C4AE,$GPRMC,040951,A,5442.9374,N,11318.4677,W,000.0,355.7,220819,017.7,E*6E
01DDD7,0225C5,00C4AC,$GPRMC,040952,A,5442.9372,N,11318.4676,W,000.0,355.7,220819,017.7,E*6A
01DDD9,0225C9,00C4AD,$GPRMC,040953,A,5442.9371,N,11318.4675,W,000.0,355.7,220819,017.7,E*6B
01DDD2,0225BE,00C4A9,$GPRMC,040954,A,5442.9369,N,11318.4674,W,000.0,355.7,220819,017.7,E*64
01DDD8,0225C7,00C4AD,$GPRMC,040955,A,5442.9367,N,11318.4672,W,000.0,355.7,220819,017.7,E*6D
01DDD5,0225C2,00C4AC,$GPRMC,040956,A,5442.9366,N,11318.4672,W,000.0,355.7,220819,017.7,E*6F
01DDDA,0225C9,00C4AE,$GPRMC,040957,A,5442.9365,N,11318.4671,W,000.0,355.7,220819,017.7,E*6E
01DDD5,0225C2,00C4AB,$GPRMC,040958,A,5442.9364,N,11318.4668,W,000.0,355.7,220819,017.7,E*68
01DDDA,0225C9,00C4AE,$GPRMC,040959,A,5442.9362,N,11318.4666,W,000.0,355.7,220819,017.7,E*61
01DDD8,0225C5,00C4AD,$GPRMC,041000,A,5442.9360,N,11318.4663,W,000.0,355.7,220819,017.7,E*62
01DDDB,0225CC,00C4AF,$GPRMC,041001,A,5442.9358,N,11318.4660,W,000.0,355.7,220819,017.7,E*6B
01DDD7,0225C5,00C4AD,$GPRMC,041002,A,5442.9357,N,11318.4657,W,000.0,355.7,220819,017.7,E*63
01DDDB,0225CA,00C4AF,$GPRMC,041003,A,5442.9355,N,11318.4655,W,000.0,355.7,220819,017.7,E*62
01DDD9,0225C8,00C4AE,$GPRMC,041004,A,5442.9353,N,11318.4652,W,000.0,355.7,220819,017.7,E*64
01DDDA,0225C8,00C4AE,$GPRMC,041005,A,5442.9352,N,11318.4650,W,000.0,355.7,220819,017.7,E*66
01DDD8,0225C6,00C4AD,$GPRMC,041006,A,5442.9351,N,11318.4649,W,000.0,355.7,220819,017.7,E*6E
01DDD7,0225C4,00C4AC,$GPRMC,041007,A,5442.9351,N,11318.4648,W,000.0,355.7,220819,017.7,E*6E
01DDD9,0225C7,00C4AD,$GPRMC,041008,A,5442.9350,N,11318.4648,W,000.0,355.7,220819,017.7,E*60
01DDD7,0225C6,00C4AD,$GPRMC,041009,A,5442.9350,N,11318.4647,W,000.0,355.7,220819,017.7,E*6E
01DDD7,0225C4,00C4AC,$GPRMC,041010,A,5442.9350,N,11318.4650,W,000.0,355.7,220819,017.7,E*60
01DDD5,0225C3,00C4AB,$GPRMC,041011,A,5442.9351,N,11318.4652,W,000.0,355.7,220819,017.7,E*62
01DDDA,0225C9,00C4AF,$GPRMC,041012,A,5442.9352,N,11318.4654,W,000.0,355.7,220819,017.7,E*64
01DDD4,0225C2,00C4AB,$GPRMC,041013,A,5442.9352,N,11318.4655,W,000.0,355.7,220819,017.7,E*64
01DDD3,0225C0,00C4AA,$GPRMC,041014,A,5442.9353,N,11318.4655,W,000.0,355.7,220819,017.7,E*62
01DDD7,0225C6,00C4AC,$GPRMC,041015,A,5442.9354,N,11318.4655,W,000.0,355.7,220819,017.7,E*64
01DDD4,0225C0,00C4AA,$GPRMC,041016,A,5442.9355,N,11318.4656,W,000.0,355.7,220819,017.7,E*65
01DDD6,0225C5,00C4AD,$GPRMC,041017,A,5442.9355,N,11318.4656,W,000.0,355.7,220819,017.7,E*64
01DDD4,0225C1,00C4AA,$GPRMC,041018,A,5442.9354,N,11318.4656,W,000.0,355.7,220819,017.7,E*6A
01DDD7,0225C5,00C4AC,$GPRMC,041019,A,5442.9354,N,11318.4656,W,000.0,355.7,220819,017.7,E*6B
01DDD8,0225C6,00C4AC,$GPRMC,041020,A,5442.9356,N,11318.4657,W,000.0,355.7,220819,017.7,E*62
01DDD7,0225C7,00C4AC,$GPRMC,041021,A,5442.9358,N,11318.4657,W,000.0,355.7,220819,017.7,E*6D
01DDD5,0225C2,00C4AB,$GPRMC,041022,A,5442.9360,N,11318.4657,W,000.0,355.7,220819,017.7,E*65
01DDD6,0225C3,00C4AB,$GPRMC,041023,A,5442.9360,N,11318.4658,W,000.0,355.7,220819,017.7,E*6B
01DDD2,0225BE,00C4AA,$GPRMC,041024,A,5442.9360,N,11318.4657,W,000.0,355.7,220819,017.7,E*63
01DDD4,0225C0,00C4AB,$GPRMC,041025,A,5442.9357,N,11318.4654,W,000.0,355.7,220819,017.7,E*65
01DDD4,0225C0,00C4AB,$GPRMC,041026,A,5442.9357,N,11318.4653,W,000.0,355.7,220819,017.7,E*61
01DDD7,0225C4,00C4AC,$GPRMC,041027,A,5442.9358,N,11318.4652,W,000.0,355.7,220819,017.7,E*6E
01DDD3,0225BE,00C4A9,$GPRMC,041028,A,5442.9358,N,11318.4651,W,000.0,355.7,220819,017.7,E*62
01DDD8,0225C6,00C4AE,$GPRMC,041029,A,5442.9359,N,11318.4651,W,000.0,355.7,220819,017.7,E*62
01DDD8,0225C6,00C4AD,$GPRMC,041030,A,5442.9359,N,11318.4650,W,000.0,355.7,220819,017.7,E*6B
01DDD6,0225C3,00C4AC,$GPRMC,041031,A,5442.9359,N,11318.4649,W,000.0,355.7,220819,017.7,E*62
01DDD8,0225C5,00C4AC,$GPRMC,041032,A,5442.9359,N,11318.4647,W,000.0,355.7,220819,017.7,E*6F
01DDD5,0225C0,00C4AB,$GPRMC,041033,A,5442.9358,N,11318.4646,W,000.0,355.7,220819,017.7,E*6E
01DDDA,0225C8,00C4AD,$GPRMC,041034,A,5442.9358,N,11318.4645,W,000.0,355.7,220819,017.7,E*6A
01DDD7,0225C4,00C4AC,$GPRMC,041035,A,5442.9358,N,11318.4644,W,000.0,355.7,220819,017.7,E*6A
01DDD3,0225BF,00C4AA,$GPRMC,041036,A,5442.9358,N,11318.4643,W,000.0,355.7,220819,017.7,E*6E
01DDD7,0225C6,00C4AD,$GPRMC,041037,A,5442.9359,N,11318.4642,W,000.0,355.7,220819,017.7,E*6F
01DDDA,0225C8,00C4AE,$GPRMC,041038,A,5442.9359,N,11318.4641,W,000.0,355.7,220819,017.7,E*63
01DDD8,0225C8,00C4AD,$GPRMC,041039,A,5442.9358,N,11318.4640,W,000.0,355.7,220819,017.7,E*62
