MC,204338,A,5442.9372,N,11318.4666,W,000.0,168.4,210819,017.7,E*63
01DD9F,0224C4,00C4E0,$GPRMC,204339,A,5442.9372,N,11318.4666,W,000.0,168.4,210819,017.7,E*62
01DD9E,0224C4,00C4DF,$GPRMC,204340,A,5442.9375,N,11318.4667,W,000.0,168.4,210819,017.7,E*6A
01DD9D,0224C0,00C4DD,$GPRMC,204341,A,5442.9377,N,11318.4667,W,000.0,168.4,210819,017.7,E*69
01DD9F,0224C2,00C4DF,$GPRMC,20434201DD9D,0224D2,00C4E1,$GPRMC,204751,A,5442.9410,N,11318.4594,W,000.0,168.4,210819,017.7,E*65
01DD94,0224C6,00C4DA,$GPRMC,204752,A,5442.9410,N,11318.4594,W,000.0,168.4,210819,017.7,E*66
01DD9D,0224D3,00C4E0,$GPRMC,204753,A,5442.9410,N,11318.4596,W,000.0,168.4,210819,017.7,E*65
01DD99,0224CC,00C4DD,$GPRMC,204754,A,5442.9409,N,11318.4598,W,000.0,168.4,210819,017.7,E*64
01DD9C,0224D2,00C4E0,$GPRMC,204755,A,5442.9409,N,11318.4601,W,000.0,168.4,210819,017.7,E*66
01DD99,0224CC,00C4DD,$GPRMC,204756,A,5442.9409,N,11318.4604,W,000.0,168.4,210819,017.7,E*60
01DD9D,0224D3,00C4DF,$GPRMC,204757,A,5442.9408,N,11318.4605,W,000.0,168.4,210819,017.7,E*61
01DD96,0224CA,00C4DC,$GPRMC,204758,A,5442.9408,N,11318.4606,W,000.0,168.4,210819,017.7,E*6D
01DD9B,0224D1,00C4DF,$GPRMC,204759,A,5442.9408,N,11318.4607,W,000.0,168.4,210819,017.7,E*6D
01DD98,0224CB,00C4DC,$GPRMC,204800,A,5442.9408,N,11318.4608,W,000.0,168.4,210819,017.7,E*61
01DD99,0224CE,00C4DD,$GPRMC,204801,A,5442.9408,N,11318.4609,W,000.0,168.4,210819,017.7,E*61
01DD9D,0224D2,00C4E0,$GPRMC,204802,A,5442.9407,N,11318.4610,W,000.0,168.4,210819,017.7,E*65
01DD9C,0224D1,00C4DF,$GPRMC,204803,A,5442.9406,N,11318.4611,W,000.0,168.4,210819,017.7,E*64
01DD9B,0224CF,00C4DE,$GPRMC,204804,A,5442.9406,N,11318.4611,W,000.0,168.4,210819,017.7,E*63
01DD9B,0224D1,00C4DF,$GPRMC,204805,A,5442.9405,N,11318.4610,W,000.0,168.4,210819,017.7,E*60
01DD9F,0224D4,00C4E1,$GPRMC,204806,A,5442.9405,N,11318.4610,W,000.0,168.4,210819,017.7,E*63
01DD9D,0224D1,00C4E0,$GPRMC,204807,A,5442.9405,N,11318.4610,W,000.0,168.4,210819,017.7,E*62
01DDA0,0224D6,00C4E2,$GPRMC,204808,A,5442.9405,N,11318.4611,W,000.0,168.4,210819,017.7,E*6C
01DD9B,0224CD,00C4DF,$GPRMC,204809,A,5442.9406,N,11318.4608,W,000.0,168.4,210819,017.7,E*66
01DD9E,0224D2,00C4E0,$GPRMC,204810,A,5442.9405,N,11318.4598,W,000.0,168.4,210819,017.7,E*67
01DD9C,0224D0,00C4E0,$GPRMC,204811,A,5442.9406,N,11318.4598,W,000.0,168.4,210819,017.7,E*65
01DD9B,0224CE,00C4DE,$GPRMC,204812,A,5442.9405,N,11318.4598,W,000.0,168.4,210819,017.7,E*65
01DD9D,0224CF,00C4E0,$GPRMC,204813,A,5442.9406,N,11318.4598,W,000.0,168.4,210819,017.7,E*67
01DD9E,0224D1,00C4E1,$GPRMC,204814,A,5442.9406,N,11318.4598,W,000.0,168.4,210819,017.7,E*60
01DD9D,0224D0,00C4E0,$GPRMC,204815,A,5442.9406,N,11318.4599,W,000.0,168.4,210819,017.7,E*60
01DD9F,0224D3,00C4E1,$GPRMC,204816,A,5442.9408,N,11318.4601,W,000.0,168.4,210819,017.7,E*6F
01DD9C,0224CF,00C4E0,$GPRMC,204817,A,5442.9409,N,11318.4601,W,000.0,168.4,210819,017.7,E*6F
01DD99,0224CB,00C4DF,$GPRMC,204818,A,5442.9410,N,11318.4598,W,000.0,168.4,210819,017.7,E*6B
01DD9B,0224CF,00C4E0,$GPRMC,204819,A,5442.9410,N,11318.4596,W,000.0,168.4,210819,017.7,E*64
01DD9E,0224D3,00C4E1,$GPRMC,204820,A,5442.9411,N,11318.4594,W,000.0,168.4,210819,017.7,E*6D
01DD9E,0224D2,00C4E1,$GPRMC,204821,A,5442.9411,N,11318.4593,W,000.0,168.4,210819,017.7,E*6B
01DD9A,0224CE,00C4DE,$GPRMC,204822,A,5442.9410,N,11318.4585,W,000.0,168.4,210819,017.7,E*6E
01DD97,0224CA,00C4DD,$GPRMC,204823,A,5442.9408,N,11318.4576,W,000.0,168.4,210819,017.7,E*6A
01DD9D,0224D4,00C4E1,$GPRMC,204824,A,5442.9411,N,11318.4580,W,000.0,168.4,210819,017.7,E*6C
01DD98,0224CC,00C4DE,$GPRMC,204825,A,5442.9410,N,11318.4572,W,000.0,168.4,210819,017.7,E*61
01DD96,0224CB,00C4DE,$GPRMC,204826,A,5442.9409,N,11318.4570,W,000.0,168.4,210819,017.7,E*68
01DD9A,0224D0,00C4DF,$GPRMC,204827,A,5442.9408,N,11318.4562,W,000.0,168.4,210819,017.7,E*6B
01DD9A,0224CF,00C4DF,$GPRMC,204828,A,5442.9408,N,11318.4566,W,000.0,168.4,210819,017.7,E*60
01DD9B,0224D1,00C4E0,$GPRMC,204829,A,5442.9409,N,11318.4570,W,000.0,168.4,210819,017.7,E*67
01DD9E,0224D5,00C4E2,$GPRMC,204830,A,5442.9410,N,11318.4574,W,000.0,168.4,210819,017.7,E*63
01DD97,0224CC,00C4DE,$GPRMC,204831,A,5442.9411,N,11318.4577,W,000.0,168.4,210819,017.7,E*60
01DD97,0224CB,00C4DD,$GPRMC,204832,A,5442.9412,N,11318.4577,W,000.0,168.4,210819,017.7,E*60
01DD98,0224CE,00C4DE,$GPRMC,204833,A,5442.9412,N,11318.4576,W,000.0,168.4,210819,017.7,E*60
01DD99,0224CD,00C4DE,$GPRMC,204834,A,5442.9412,N,11318.4576,W,000.0,168.4,210819,017.7,E*67
01DD9A,0224D0,00C4DF,$GPRMC,204835,A,5442.9412,N,11318.4578,W,000.0,168.4,210819,017.7,E*68
01DD9C,0224D3,00C4E1,$GPRMC,204836,A,5442.9412,N,11318.4579,W,000.0,168.4,210819,017.7,E*6A
01DD9C,0224D1,00C4E0,$GPRMC,204837,A,5442.9412,N,11318.4578,W,000.0,168.4,210819,017.7,E*6A
01DD96,0224C8,00C4DC,$GPRMC,204838,A,5442.9410,N,11318.4574,W,000.0,168.4,210819,017.7,E*6B
01DD9E,0224D4,00C4E2,$GPRMC,204839,A,5442.9408,N,11318.4570,W,000.0,168.4,210819,017.7,E*67
01DD95,0224C8,00C4DD,$GPRMC,204840,A,5442.9407,N,11318.4567,W,000.0,168.4,210819,017.7,E*60
01DD9A,0224CF,00C4E0,$GPRMC,204841,A,5442.9408,N,11318.4570,W,000.0,168.4,210819,017.7,E*68
01DD97,0224CA,00C4DE,$GPRMC,204842,A,5442.9407,N,11318.4567,W,000.0,168.4,210819,017.7,E*62
01DD9B,0224CE,00C4E0,$GPRMC,204843,A,5442.9408,N,11318.4570,W,000.0,168.4,210819,017.7,E*6A
01DD9B,0224CF,00C4E0,$GPRMC,204844,A,5442.9408,N,11318.4569,W,000.0,168.4,210819,017.7,E*65
01DD98,0224CB,00C4DE,$GPRMC,204845,A,5442.9408,N,11318.4565,W,000.0,168.4,210819,017.7,E*68
01DD99,0224CB,00C4DE,$GPRMC,204846,A,5442.9409,N,11318.4563,W,000.0,168.4,210819,017.7,E*6C
01DD98,0224CB,00C4DE,$GPRMC,204847,A,5442.9408,N,11318.4559,W,000.0,168.4,210819,017.7,E*65
01DD98,0224C9,00C4DD,$GPRMC,204848,A,5442.9407,N,11318.4552,W,000.0,168.4,210819,017.7,E*6E
01DD97,0224C9,00C4DD,$GPRMC,204849,A,5442.9407,N,11318.4547,W,000.0,168.4,210819,017.7,E*6B
01DD97,0224C8,00C4DD,$GPRMC,204850,A,5442.9406,N,11318.4542,W,000.0,168.4,210819,017.7,E*67
01DD9C,0224CF,00C4E0,$GPRMC,204851,A,5442.9405,N,11318.4534,W,000.0,168.4,210819,017.7,E*64
01DD9D,0224D0,00C4E0,$GPRMC,204852,A,5442.9407,N,11318.4532,W,000.0,168.4,210819,017.7,E*63
01DD99,0224CA,00C4DE,$GPRMC,204853,A,5442.9411,N,11318.4542,W,000.0,168.4,210819,017.7,E*62
01DD9C,0224CD,00C4DF,$GPRMC,204854,A,5442.9413,N,11318.4539,W,000.0,168.4,210819,017.7,E*6B
01DD9B,0224CB,00C4DE,$GPRMC,204855,A,5442.9414,N,11318.4536,W,000.0,168.4,210819,017.7,E*62
01DDA0,0224D1,00C4E1,$GPRMC,204856,A,5442.9416,N,11318.4534,W,000.0,168.4,210819,017.7,E*61
01DD9A,0224C8,00C4DE,$GPRMC,204857,A,5442.9419,N,11318.4538,W,000.0,168.4,210819,017.7,E*63
01DD9B,0224CA,00C4DF,$GPRMC,204858,A,5442.9422,N,11318.4543,W,000.0,168.4,210819,017.7,E*68
01DD9A,0224C9,00C4DF,$GPRMC,204859,A,5442.9421,N,11318.4548,W,000.0,168.4,210819,017.7,E*61
01DD95,0224C3,00C4DC,$GPRMC,204900,A,5442.9422,N,11318.4547,W,000.0,168.4,210819,017.7,E*60
01DD9B,0224CA,00C4DF,$GPRMC,204901,A,5442.9422,N,11318.4549,W,000.0,168.4,210819,017.7,E*6F
01DD9F,0224CF,00C4E1,$GPRMC,204902,A,5442.9422,N,11318.4555,W,000.0,168.4,210819,017.7,E*61
01DDA1,0224D2,00C4E2,$GPRMC,204903,A,5442.9424,N,11318.4560,W,000.0,168.4,210819,017.7,E*60
01DD9B,0224C7,00C4DE,$GPRMC,204904,A,5442.9425,N,11318.4560,W,000.0,168.4,210819,017.7,E*66
01DDA0,0224D0,00C4E2,$GPRMC,204905,A,5442.9426,N,11318.4568,W,000.0,168.4,210819,017.7,E*6C
01DD9E,0224CD,00C4E1,$GPRMC,204906,A,5442.9427,N,11318.4571,W,000.0,168.4,210819,017.7,E*66
01DD9D,0224CC,00C4E0,$GPRMC,204907,A,5442.9427,N,11318.4573,W,000.0,168.4,210819,017.7,E*65
01DD9A,0224C8,00C4DE,$GPRMC,204908,A,5442.9425,N,11318.4578,W,000.0,168.4,210819,017.7,E*63
01DD9B,0224C8,00C4DE,$GPRMC,204909,A,5442.9424,N,11318.4580,W,000.0,168.4,210819,017.7,E*64
01DD9E,0224CF,00C4E0,$GPRMC,204910,A,5442.9426,N,11318.4580,W,000.0,168.4,210819,017.7,E*6E
01DD98,0224C6,00C4DD,$GPRMC,204911,A,5442.9428,N,11318.4580,W,000.0,168.4,210819,017.7,E*61
01DD9C,0224CD,00C4DF,$GPRMC,204912,A,5442.9429,N,11318.4580,W,000.0,168.4,210819,017.7,E*63
01DD9C,0224CF,00C4E0,$GPRMC,204913,A,5442.9427,N,11318.4579,W,000.0,168.4,210819,017.7,E*6A
01DD9B,0224CE,00C4DF,$GPRMC,204914,A,5442.9427,N,11318.4581,W,000.0,168.4,210819,017.7,E*6A
01DD9B,0224CC,00C4DF,$GPRMC,204915,A,5442.9427,N,11318.4581,W,000.0,168.4,210819,017.7,E*6B
01DD9E,0224D2,00C4E1,$GPRMC,204916,A,5442.9427,N,11318.4586,W,000.0,168.4,210819,017.7,E*6F
01DD9D,0224D0,00C4DF,$GPRMC,204917,A,5442.9427,N,11318.4590,W,000.0,168.4,210819,017.7,E*69
01DD9D,0224D2,00C4E0,$GPRMC,204918,A,5442.9427,N,11318.4591,W,000.0,168.4,210819,017.7,E*67
01DD9B,0224D0,00C4E0,$GPRMC,204919,A,5442.9427,N,11318.4592,W,000.0,168.4,210819,017.7,E*65
01DD9E,0224D4,00C4E1,$GPRMC,204920,A,5442.9426,N,11318.4593,W,000.0,168.4,210819,017.7,E*6F
01DD9A,0224D0,00C4DF,$GPRMC,204921,A,5442.9426,N,11318.4595,W,000.0,168.4,210819,017.7,E*68
01DD9A,0224D0,00C4E0,$GPRMC,204922,A,5442.9426,N,11318.4596,W,000.0,168.4,210819,017.7,E*68
01DD9C,0224D3,00C4E1,$GPRMC,204923,A,5442.9426,N,11318.4597,W,000.0,168.4,210819,017.7,E*68
01DDA0,0224D9,00C4E3,$GPRMC,204924,A,5442.9427,N,11318.4599,W,000.0,168.4,210819,017.7,E*60
01DD9C,0224D3,00C4E1,$GPRMC,204925,A,5442.9427,N,11318.4600,W,000.0,168.4,210819,017.7,E*62
01DD9F,0224D8,00C4E3,$GPRMC,204926,A,5442.9427,N,11318.4601,W,000.0,168.4,210819,017.7,E*60
01DD9C,0224D4,00C4E1,$GPRMC,204927,A,5442.9427,N,11318.4603,W,000.0,168.4,210819,017.7,E*63
01DD9C,0224D6,00C4E1,$GPRMC,204928,A,5442.9427,N,11318.4605,W,000.0,168.4,210819,017.7,E*6A
01DD9A,0224D2,00C4E0,$GPRMC,204929,A,5442.9428,N,11318.4601,W,000.0,168.4,210819,017.7,E*60
01DD98,0224CE,00C4DE,$GPRMC,204930,A,5442.9427,N,11318.4603,W,000.0,168.4,210819,017.7,E*65
01DD98,0224D0,00C4DE,$GPRMC,204931,A,5442.9426,N,11318.4603,W,000.0,168.4,210819,017.7,E*65
01DD9A,0224D1,00C4E0,$GPRMC,204932,A,5442.9426,N,11318.4605,W,000.0,168.4,210819,017.7,E*60
01DD97,0224CE,00C4DE,$GPRMC,204933,A,5442.9427,N,11318.4605,W,000.0,168.4,210819,017.7,E*60
01DD9C,0224D6,00C4E1,$GPRMC,204934,A,5442.9427,N,11318.4604,W,000.0,168.4,210819,017.7,E*66
01DD9B,0224D2,00C4E0,$GPRMC,204935,A,5442.9427,N,11318.4604,W,000.0,168.4,210819,017.7,E*67
01DD9B,0224D3,00C4E0,$GPRMC,204936,A,5442.9429,N,11318.4599,W,000.0,168.4,210819,017.7,E*6D
01DD97,0224CF,00C4DD,$GPRMC,204937,A,5442.9429,N,11318.4597,W,000.0,168.4,210819,017.7,E*62
01DD9B,0224D3,00C4E0,$GPRMC,204938,A,5442.9428,N,11318.4599,W,000.0,168.4,210819,017.7,E*62
01DD98,0224CF,00C4DE,$GPRMC,204939,A,5442.9429,N,11318.4597,W,000.0,168.4,210819,017.7,E*6C
01DD9F,0224D9,00C4E2,$GPRMC,204940,A,5442.9430,N,11318.4596,W,000.0,168.4,210819,017.7,E*6B
01DD9C,0224D4,00C4E0,$GPRMC,204941,A,5442.9430,N,11318.4599,W,000.0,168.4,210819,017.7,E*65
01DDA0,0224D9,00C4E3,$GPRMC,204942,A,5442.9429,N,11318.4600,W,000.0,168.4,210819,017.7,E*6D
01DD99,0224CF,00C4DE,$GPRMC,204943,A,5442.9429,N,11318.4602,W,000.0,168.4,210819,017.7,E*6E
01DD97,0224CD,00C4DD,$GPRMC,204944,A,5442.9428,N,11318.4607,W,000.0,168.4,210819,017.7,E*6D
01DD9B,0224D3,00C4E0,$GPRMC,204945,A,5442.9427,N,11318.4609,W,000.0,168.4,210819,017.7,E*6D
01DD96,0224CB,00C4DC,$GPRMC,204946,A,5442.9427,N,11318.4610,W,000.0,168.4,210819,017.7,E*66
01DD9A,0224D2,00C4DE,$GPRMC,204947,A,5442.9428,N,11318.4609,W,000.0,168.4,210819,017.7,E*60
01DD9C,0224D5,00C4DF,$GPRMC,204948,A,5442.9429,N,11318.4608,W,000.0,168.4,210819,017.7,E*6F
01DD9E,0224D8,00C4E1,$GPRMC,204949,A,5442.9429,N,11318.4609,W,000.0,168.4,210819,017.7,E*6F
01DD9F,0224D9,00C4E1,$GPRMC,204950,A,5442.9430,N,11318.4609,W,000.0,168.4,210819,017.7,E*6F
01DD9F,0224DA,00C4E3,$GPRMC,204951,A,5442.9430,N,11318.4609,W,000.0,168.4,210819,017.7,E*6E
01DDA1,0224DD,00C4E2,$GPRMC,204952,A,5442.9431,N,11318.4608,W,000.0,168.4,210819,017.7,E*6D
01DDA1,0224DC,00C4E2,$GPRMC,204953,A,5442.9431,N,11318.4609,W,000.0,168.4,210819,017.7,E*6D
01DD9E,0224D8,00C4E1,$GPRMC,204954,A,5442.9433,N,11318.4609,W,000.0,168.4,210819,017.7,E*68
01DD9A,0224D3,00C4DF,$GPRMC,204955,A,5442.9434,N,11318.4609,W,000.0,168.4,210819,017.7,E*6E
01DD9C,0224D6,00C4E0,$GPRMC,204956,A,5442.9434,N,11318.4609,W,000.0,168.4,210819,017.7,E*6D
01DD9B,0224D4,00C4DF,$GPRMC,204957,A,5442.9435,N,11318.4608,W,000.0,168.4,210819,017.7,E*6C
01DD96,0224CF,00C4DC,$GPRMC,204958,A,5442.9433,N,11318.4607,W,000.0,168.4,210819,017.7,E*6A
01DD97,0224CF,00C4DC,$GPRMC,204959,A,5442.9433,N,11318.4606,W,000.0,168.4,210819,017.7,E*6A
01DD98,0224D0,00C4DD,$GPRMC,205000,A,5442.9432,N,11318.4608,W,000.0,168.4,210819,017.7,E*61
01DD9B,0224D6,00C4E0,$GPRMC,205001,A,5442.9432,N,11318.4609,W,000.0,168.4,210819,017.7,E*61
01DD9A,0224D5,00C4DF,$GPRMC,205002,A,5442.9431,N,11318.4610,W,000.0,168.4,210819,017.7,E*69
01DD9C,0224D8,00C4E0,$GPRMC,205003,A,5442.9431,N,11318.4611,W,000.0,168.4,210819,017.7,E*69
01DD95,0224CD,00C4DC,$GPRMC,205004,A,5442.9431,N,11318.4611,W,000.0,168.4,210819,017.7,E*6E
01DD98,0224D2,00C4DF,$GPRMC,205005,A,5442.9431,N,11318.4612,W,000.0,168.4,210819,017.7,E*6C
01DD9F,0224DC,00C4E3,$GPRMC,205006,A,5442.9433,N,11318.4614,W,000.0,168.4,210819,017.7,E*6B
01DD96,0224CF,00C4DE,$GPRMC,205007,A,5442.9432,N,11318.4614,W,000.0,168.4,210819,017.7,E*6B
01DD9A,0224D6,00C4E1,$GPRMC,205008,A,5442.9433,N,11318.4613,W,000.0,168.4,210819,017.7,E*62
01DD9C,0224D8,00C4E1,$GPRMC,205009,A,5442.9433,N,11318.4614,W,000.0,168.4,210819,017.7,E*64
01DD9D,0224D9,00C4E2,$GPRMC,205010,A,5442.9434,N,11318.4615,W,000.0,168.4,210819,017.7,E*6A
01DD98,0224D2,00C4DF,$GPRMC,205011,A,5442.9433,N,11318.4615,W,000.0,168.4,210819,017.7,E*6C
01DD97,0224D2,00C4E0,$GPRMC,205012,A,5442.9433,N,11318.4616,W,000.0,168.4,210819,017.7,E*6C
01DD97,0224D1,00C4DF,$GPRMC,205013,A,5442.9433,N,11318.4618,W,000.0,168.4,210819,017.7,E*63
01DD9D,0224DA,00C4E2,$GPRMC,205014,A,5442.9433,N,11318.4620,W,000.0,168.4,210819,017.7,E*6F
01DD9B,0224D8,00C4E1,$GPRMC,205015,A,5442.9432,N,11318.4624,W,000.0,168.4,210819,017.7,E*6B
01DD98,0224D4,00C4DF,$GPRMC,205016,A,5442.9431,N,11318.4628,W,000.0,168.4,210819,017.7,E*67
01DD96,0224D3,00C4DF,$GPRMC,205017,A,5442.9431,N,11318.4629,W,000.0,168.4,210819,017.7,E*67
01DD98,0224D3,00C4E0,$GPRMC,205018,A,5442.9431,N,11318.4630,W,000.0,168.4,210819,017.7,E*60
01DD99,0224D4,00C4E0,$GPRMC,205019,A,5442.9432,N,11318.4631,W,000.0,168.4,210819,017.7,E*63
01DD98,0224D4,00C4E0,$GPRMC,205020,A,5442.9433,N,11318.4633,W,000.0,168.4,210819,017.7,E*6A
01DD97,0224D3,00C4E0,$GPRMC,205021,A,5442.9433,N,11318.4635,W,000.0,168.4,210819,017.7,E*6D
01DD99,0224D3,00C4E0,$GPRMC,205022,A,5442.9433,N,11318.4634,W,000.0,168.4,210819,017.7,E*6F
01DD9D,0224DA,00C4E3,$GPRMC,205023,A,5442.9432,N,11318.4634,W,000.0,168.4,210819,017.7,E*6F
01DD9B,0224D6,00C4E1,$GPRMC,205024,A,5442.9432,N,11318.4635,W,000.0,168.4,210819,017.7,E*69
01DD9E,0224DA,00C4E3,$GPRMC,205025,A,5442.9431,N,11318.4635,W,000.0,168.4,210819,017.7,E*6B
01DD9B,0224D8,00C4E1,$GPRMC,205026,A,5442.9431,N,11318.4635,W,000.0,168.4,210819,017.7,E*68
01DD9B,0224D7,00C4E1,$GPRMC,205027,A,5442.9430,N,11318.4635,W,000.0,168.4,210819,017.7,E*68
01DD9D,0224D9,00C4E2,$GPRMC,205028,A,5442.9430,N,11318.4633,W,000.0,168.4,210819,017.7,E*61
01DD99,0224D4,00C4E0,$GPRMC,205029,A,5442.9429,N,11318.4632,W,000.0,168.4,210819,017.7,E*69
01DD99,0224D3,00C4E0,$GPRMC,205030,A,5442.9424,N,11318.4641,W,000.0,168.4,210819,017.7,E*68
01DD95,0224CF,00C4DF,$GPRMC,205031,A,5442.9421,N,11318.4643,W,000.0,168.4,210819,017.7,E*6E
01DD96,0224D0,00C4DF,$GPRMC,205032,A,5442.9418,N,11318.4646,W,000.0,168.4,210819,017.7,E*62
01DD98,0224D3,00C4E0,$GPRMC,205033,A,5442.9418,N,11318.4647,W,000.0,168.4,210819,017.7,E*62
01DD9B,0224D7,00C4E2,$GPRMC,205034,A,5442.9418,N,11318.4646,W,000.0,168.4,210819,017.7,E*64
01DD98,0224D3,00C4E0,$GPRMC,205035,A,5442.9418,N,11318.4646,W,000.0,168.4,210819,017.7,E*65
01DD98,0224D3,00C4E0,$GPRMC,205036,A,5442.9418,N,11318.4646,W,000.0,168.4,210819,017.7,E*66
01DD96,0224D0,00C4DF,$GPRMC,205037,A,5442.9419,N,11318.4648,W,000.0,168.4,210819,017.7,E*68
01DD98,0224D2,00C4E1,$GPRMC,205038,A,5442.9420,N,11318.4649,W,000.0,168.4,210819,017.7,E*6C
01DD98,0224D2,00C4E1,$GPRMC,205039,A,5442.9420,N,11318.4646,W,000.0,168.4,210819,017.7,E*62
01DD96,0224CF,00C4DF,$GPRMC,205040,A,5442.9421,N,11318.4645,W,000.0,168.4,210819,017.7,E*6E
01DD99,0224D3,00C4E2,$GPRMC,205041,A,5442.9422,N,11318.4643,W,000.0,168.4,210819,017.7,E*6A
01DD97,0224D0,00C4E0,$GPRMC,205042,A,5442.9424,N,11318.4639,W,000.0,168.4,210819,017.7,E*62
01DD9A,0224D5,00C4E2,$GPRMC,205043,A,5442.9423,N,11318.4641,W,000.0,168.4,210819,017.7,E*6B
01DD9C,0224D8,00C4E3,$GPRMC,205044,A,5442.9424,N,11318.4639,W,000.0,168.4,210819,017.7,E*64
01DD9B,0224D6,00C4E2,$GPRMC,205045,A,5442.9425,N,11318.4639,W,000.0,168.4,210819,017.7,E*64
01DD9A,0224D5,00C4E2,$GPRMC,205046,A,5442.9426,N,11318.4637,W,000.0,168.4,210819,017.7,E*6A
01DD9C,0224D7,00C4E3,$GPRMC,205047,A,5442.9427,N,11318.4635,W,000.0,168.4,210819,017.7,E*68
01DD99,0224D4,00C4E1,$GPRMC,205048,A,5442.9428,N,11318.4632,W,000.0,168.4,210819,017.7,E*6F
01DD97,0224CF,00C4E0,$GPRMC,205049,A,5442.9428,N,11318.4632,W,000.0,168.4,210819,017.7,E*6E
01DD96,0224D0,00C4E1,$GPRMC,205050,A,5442.9428,N,11318.4629,W,000.0,168.4,210819,017.7,E*6C
01DD97,0224D0,00C4E1,$GPRMC,205051,A,5442.9429,N,11318.4627,W,000.0,168.4,210819,017.7,E*62
01DD98,0224D3,00C4E1,$GPRMC,205052,A,5442.9429,N,11318.4626,W,000.0,168.4,210819,017.7,E*60
01DD9A,0224D6,00C4E2,$GPRMC,205053,A,5442.9429,N,11318.4625,W,000.0,168.4,210819,017.7,E*62
01DD98,0224D3,00C4E2,$GPRMC,205054,A,5442.9429,N,11318.4624,W,000.0,168.4,210819,017.7,E*64
01DD97,0224D3,00C4E1,$GPRMC,205055,A,5442.9429,N,11318.4624,W,000.0,168.4,210819,017.7,E*65
01DD9A,0224D7,00C4E4,$GPRMC,205056,A,5442.9429,N,11318.4625,W,000.0,168.4,210819,017.7,E*67
01DD98,0224D5,00C4E2,$GPRMC,205057,A,5442.9429,N,11318.4626,W,000.0,168.4,210819,017.7,E*65
01DD9B,0224DA,00C4E3,$GPRMC,205058,A,5442.9429,N,11318.4628,W,000.0,168.4,210819,017.7,E*64
01DD9A,0224D8,00C4E2,$GPRMC,205059,A,5442.9429,N,11318.4629,W,000.0,168.4,210819,017.7,E*64
01DD97,0224D3,00C4E0,$GPRMC,205100,A,5442.9429,N,11318.4629,W,000.0,168.4,210819,017.7,E*69
01DD98,0224D7,00C4E2,$GPRMC,205101,A,5442.9425,N,11318.4633,W,000.0,168.4,210819,017.7,E*6F
01DD9B,0224DA,00C4E3,$GPRMC,205102,A,5442.9421,N,11318.4637,W,000.0,168.4,210819,017.7,E*6C
01DD97,0224D5,00C4E1,$GPRMC,205103,A,5442.9420,N,11318.4635,W,000.0,168.4,210819,017.7,E*6E
01DD97,0224D4,00C4E1,$GPRMC,205104,A,5442.9418,N,11318.4637,W,000.0,168.4,210819,017.7,E*60
01DD95,0224D1,00C4DF,$GPRMC,205105,A,5442.9419,N,11318.4632,W,000.0,168.4,210819,017.7,E*65
01DD98,0224D6,00C4E1,$GPRMC,205106,A,5442.9416,N,11318.4632,W,000.0,168.4,210819,017.7,E*69
01DD97,0224D4,00C4E1,$GPRMC,205107,A,5442.9416,N,11318.4633,W,000.0,168.4,210819,017.7,E*69
01DD96,0224D5,00C4E1,$GPRMC,205108,A,5442.9416,N,11318.4634,W,000.0,168.4,210819,017.7,E*61
01DD99,0224D7,00C4E2,$GPRMC,205109,A,5442.9414,N,11318.4634,W,000.0,168.4,210819,017.7,E*62
01DD99,0224D9,00C4E2,$GPRMC,205110,A,5442.9412,N,11318.4634,W,000.0,168.4,210819,017.7,E*6C
01DD96,0224D5,00C4E0,$GPRMC,205111,A,5442.9414,N,11318.4636,W,000.0,168.4,210819,017.7,E*69
01DD98,0224D7,00C4E2,$GPRMC,205112,A,5442.9413,N,11318.4636,W,000.0,168.4,210819,017.7,E*6D
01DD97,0224D6,00C4E1,$GPRMC,205113,A,5442.9413,N,11318.4638,W,000.0,168.4,210819,017.7,E*62
01DD96,0224D3,00C4E0,$GPRMC,205114,A,5442.9414,N,11318.4639,W,000.0,168.4,210819,017.7,E*63
01DD9A,0224D8,00C4E3,$GPRMC,205115,A,5442.9414,N,11318.4641,W,000.0,168.4,210819,017.7,E*6D
01DD98,0224D4,00C4E1,$GPRMC,205116,A,5442.9414,N,11318.4641,W,000.0,168.4,210819,017.7,E*6E
01DD99,0224D6,00C4E2,$GPRMC,205117,A,5442.9414,N,11318.4636,W,000.0,168.4,210819,017.7,E*6F
01DD99,0224D6,00C4E2,$GPRMC,205118,A,5442.9412,N,11318.4631,W,000.0,168.4,210819,017.7,E*61
01DD9B,0224D8,00C4E3,$GPRMC,205119,A,5442.9422,N,11318.4629,W,000.0,168.4,210819,017.7,E*6A
01DD9C,0224DA,00C4E4,$GPRMC,205120,A,5442.9421,N,11318.4629,W,000.0,168.4,210819,017.7,E*63
01DD95,0224D2,00C4E0,$GPRMC,205121,A,5442.9422,N,11318.4631,W,000.0,168.4,210819,017.7,E*68
01DD9B,0224DA,00C4E4,$GPRMC,205122,A,5442.9422,N,11318.4631,W,000.0,168.4,210819,017.7,E*6B
01DD99,0224D9,00C4E3,$GPRMC,205123,A,5442.9422,N,11318.4631,W,000.0,168.4,210819,017.7,E*6A
01DD97,0224D5,00C4E1,$GPRMC,205124,A,5442.9416,N,11318.4639,W,000.0,168.4,210819,017.7,E*62
01DD96,0224D4,00C4E1,$GPRMC,205125,A,5442.9415,N,11318.4643,W,000.0,168.4,210819,017.7,E*6D
01DD96,0224D3,00C4E1,$GPRMC,205126,A,5442.9417,N,11318.4639,W,000.0,168.4,210819,017.7,E*61
01DD9B,0224DA,00C4E4,$GPRMC,205127,A,5442.9416,N,11318.4637,W,000.0,168.4,210819,017.7,E*6F
01DD98,0224D7,00C4E2,$GPRMC,205128,A,5442.9417,N,11318.4638,W,000.0,168.4,210819,017.7,E*6E
01DD97,0224D7,00C4E2,$GPRMC,205129,A,5442.9417,N,11318.4639,W,000.0,168.4,210819,017.7,E*6E
01DD96,0224D4,00C4E0,$GPRMC,205130,A,5442.9416,N,11318.4640,W,000.0,168.4,210819,017.7,E*69
01DD9D,0224E0,00C4E5,$GPRMC,205131,A,5442.9415,N,11318.4642,W,000.0,168.4,210819,017.7,E*69
01DD97,0224D7,00C4E3,$GPRMC,205132,A,5442.9414,N,11318.4642,W,000.0,168.4,210819,017.7,E*6B
01DD96,0224D6,00C4E1,$GPRMC,205133,A,5442.9413,N,11318.4647,W,000.0,168.4,210819,017.7,E*68
01DD9C,0224DF,00C4E4,$GPRMC,205134,A,5442.9409,N,11318.4644,W,000.0,168.4,210819,017.7,E*67
01DD93,0224D3,00C4DF,$GPRMC,205135,A,5442.9409,N,11318.4646,W,000.0,168.4,210819,017.7,E*64
01DD9B,0224DD,00C4E4,$GPRMC,205136,A,5442.9409,N,11318.4648,W,000.0,168.4,210819,017.7,E*69
01DD96,0224D6,00C4E0,$GPRMC,205137,A,5442.9408,N,11318.4651,W,000.0,168.4,210819,017.7,E*61
01DD9B,0224DF,00C4E3,$GPRMC,205138,A,5442.9407,N,11318.4654,W,000.0,168.4,210819,017.7,E*64
01DD99,0224DB,00C4E2,$GPRMC,205139,A,5442.9406,N,11318.4655,W,000.0,168.4,210819,017.7,E*65
01DD99,0224DC,00C4E2,$GPRMC,205140,A,5442.9405,N,11318.4657,W,000.0,168.4,210819,017.7,E*6A
01DD97,0224D9,00C4E0,$GPRMC,205141,A,5442.9405,N,11318.4659,W,000.0,168.4,210819,017.7,E*65
01DD9C,0224E0,00C4E3,$GPRMC,205142,A,5442.9402,N,11318.4656,W,000.0,168.4,210819,017.7,E*6E
01DD9B,0224DE,00C4E3,$GPRMC,205143,A,5442.9401,N,11318.4654,W,000.0,168.4,210819,017.7,E*6E
01DD99,0224DC,00C4E1,$GPRMC,205144,A,5442.9400,N,11318.4655,W,000.0,168.4,210819,017.7,E*69
01DD9B,0224DD,00C4E2,$GPRMC,205145,A,5442.9399,N,11318.4655,W,000.0,168.4,210819,017.7,E*6F
01DD9A,0224DE,00C4E2,$GPRMC,205146,A,5442.9398,N,11318.4654,W,000.0,168.4,210819,017.7,E*6C
01DD99,0224DA,00C4E1,$GPRMC,205147,A,5442.9398,N,11318.4654,W,000.0,168.4,210819,017.7,E*6D
01DD99,0224DD,00C4E1,$GPRMC,205148,A,5442.9399,N,11318.4647,W,000.0,168.4,210819,017.7,E*61
01DD9A,0224DC,00C4E0,$GPRMC,205149,A,5442.9398,N,11318.4644,W,000.0,168.4,210819,017.7,E*62
01DD9C,0224E0,00C4E2,$GPRMC,205150,A,5442.9394,N,11318.4641,W,000.0,168.4,210819,017.7,E*63
01DD9B,0224DD,00C4E1,$GPRMC,205151,A,5442.9389,N,11318.4637,W,000.0,168.4,210819,017.7,E*6F
01DD9C,0224E0,00C4E2,$GPRMC,205152,A,5442.9389,N,11318.4636,W,000.0,168.4,210819,017.7,E*6D
01DD9D,0224E0,00C4E2,$GPRMC,205153,A,5442.9390,N,11318.4636,W,000.0,168.4,210819,017.7,E*64
01DD9B,0224DD,00C4E2,$GPRMC,205154,A,5442.9386,N,11318.4633,W,000.0,168.4,210819,017.7,E*61
01DD9B,0224DE,00C4E2,$GPRMC,205155,A,5442.9385,N,11318.4632,W,000.0,168.4,210819,017.7,E*62
01DD9E,0224E2,00C4E4,$GPRMC,205156,A,5442.9386,N,11318.4633,W,000.0,168.4,210819,017.7,E*63
01DD9E,0224E1,00C4E3,$GPRMC,205157,A,5442.9387,N,11318.4633,W,000.0,168.4,210819,017.7,E*63
01DD98,0224D8,00C4E0,$GPRMC,205158,A,5442.9387,N,11318.4632,W,000.0,168.4,210819,017.7,E*6D
01DD97,0224D5,00C4DF,$GPRMC,205159,A,5442.9397,N,11318.4631,W,000.0,168.4,210819,017.7,E*6E
01DD9A,0224DA,00C4E0,$GPRMC,205200,A,5442.9398,N,11318.4631,W,000.0,168.4,210819,017.7,E*6E
01DD9D,0224DE,00C4E2,$GPRMC,205201,A,5442.9398,N,11318.4630,W,000.0,168.4,210819,017.7,E*6E
01DD9B,0224DB,00C4E2,$GPRMC,205202,A,5442.9398,N,11318.4628,W,000.0,168.4,210819,017.7,E*64
01DDA0,0224E1,00C4E5,$GPRMC,205203,A,5442.9395,N,11318.4626,W,000.0,168.4,210819,017.7,E*66
01DD99,0224D8,00C4E1,$GPRMC,205204,A,5442.9394,N,11318.4622,W,000.0,168.4,210819,017.7,E*64
01DD9C,0224DC,00C4E2,$GPRMC,205205,A,5442.9392,N,11318.4622,W,000.0,168.4,210819,017.7,E*63
01DD9D,0224ED,00C4DC,$GPRMC,205206,A,5442.9391,N,11318.4622,W,000.0,168.4,210819,017.7,E*63
01DD9E,02250D,00C4D7,$GPRMC,205207,A,5442.9390,N,11318.4622,W,000.0,168.4,210819,017.7,E*63
01DD98,02250D,00C4D4,$GPRMC,205208,A,5442.9388,N,11318.4624,W,001.0,168.4,210819,017.7,E*62
01DD9C,022510,00C4D6,$GPRMC,205209,A,5442.9388,N,11318.4622,W,000.0,168.4,210819,017.7,E*64
01DD98,02250B,00C4D4,$GPRMC,205210,A,5442.9387,N,11318.4618,W,000.0,168.4,210819,017.7,E*6A
01DD9C,022511,00C4D7,$GPRMC,205211,A,5442.9387,N,11318.4617,W,000.0,168.4,210819,017.7,E*64
01DD97,02250A,00C4D4,$GPRMC,205212,A,5442.9385,N,11318.4615,W,000.0,168.4,210819,017.7,E*67
01DD9B,022510,00C4D5,$GPRMC,205213,A,5442.9386,N,11318.4616,W,000.0,168.4,210819,017.7,E*66
01DD95,022509,00C4D3,$GPRMC,205214,A,5442.9379,N,11318.4610,W,000.0,168.4,210819,017.7,E*67
01DD97,02250A,00C4D4,$GPRMC,205215,A,5442.9378,N,11318.4613,W,000.0,168.4,210819,017.7,E*64
01DD99,02250D,00C4D4,$GPRMC,205216,A,5442.9377,N,11318.4614,W,000.0,168.4,210819,017.7,E*6F
01DD9A,022510,00C4D6,$GPRMC,205217,A,5442.9378,N,11318.4615,W,000.0,168.4,210819,017.7,E*60
01DD9A,02250F,00C4D5,$GPRMC,205218,A,5442.9378,N,11318.4615,W,000.0,168.4,210819,017.7,E*6F
01DD99,022510,00C4D5,$GPRMC,205219,A,5442.9383,N,11318.4619,W,000.0,168.4,210819,017.7,E*66
01DD9C,022513,00C4D7,$GPRMC,205220,A,5442.9379,N,11318.4617,W,000.0,168.4,210819,017.7,E*67
01DD99,02250F,00C4D5,$GPRMC,205221,A,5442.9379,N,11318.4618,W,000.0,168.4,210819,017.7,E*69
01DD99,022511,00C4D5,$GPRMC,205222,A,5442.9377,N,11318.4619,W,000.0,168.4,210819,017.7,E*65
01DD98,02250E,00C4D3,$GPRMC,205223,A,5442.9378,N,11318.4619,W,000.0,168.4,210819,017.7,E*6B
01DD9A,022511,00C4D5,$GPRMC,205224,A,5442.9380,N,11318.4615,W,001.5,228.6,210819,017.7,E*66
01DD98,02250D,00C4D4,$GPRMC,205225,A,5442.9377,N,11318.4621,W,001.5,228.6,210819,017.7,E*68
01DD9B,022513,00C4D5,$GPRMC,205226,A,5442.9374,N,11318.4626,W,001.5,228.6,210819,017.7,E*6F
01DD9D,022517,00C4D7,$GPRMC,205227,A,5442.9369,N,11318.4630,W,001.1,228.6,210819,017.7,E*61
01DD96,02250E,00C4D3,$GPRMC,205228,A,5442.9368,N,11318.4633,W,000.9,228.6,210819,017.7,E*65
01DD9A,022512,00C4D5,$GPRMC,205229,A,5442.9366,N,11318.4630,W,000.0,228.6,210819,017.7,E*60
01DD95,02250B,00C4D2,$GPRMC,205230,A,5442.9366,N,11318.4629,W,000.0,228.6,210819,017.7,E*60
01DD98,02250E,00C4D4,$GPRMC,205231,A,5442.9366,N,11318.4629,W,000.0,228.6,210819,017.7,E*61
01DD9B,022513,00C4D5,$GPRMC,205232,A,5442.9367,N,11318.4629,W,000.0,228.6,210819,017.7,E*63
01DD99,022510,00C4D4,$GPRMC,205233,A,5442.9368,N,11318.4630,W,000.0,228.6,210819,017.7,E*65
01DD93,022508,00C4D1,$GPRMC,205234,A,5442.9368,N,11318.4630,W,000.0,228.6,210819,017.7,E*62
01DD9D,022516,00C4D7,$GPRMC,205235,A,5442.9368,N,11318.4629,W,000.0,228.6,210819,017.7,E*6B
01DD98,02250E,00C4D3,$GPRMC,205236,A,5442.9369,N,11318.4628,W,000.0,228.6,210819,017.7,E*68
01DD9D,022515,00C4D6,$GPRMC,205237,A,5442.9369,N,11318.4627,W,000.0,228.6,210819,017.7,E*66
01DD99,02250F,00C4D4,$GPRMC,205238,A,5442.9370,N,11318.4626,W,000.0,228.6,210819,017.7,E*60
01DD97,02250B,00C4D3,$GPRMC,205239,A,5442.9370,N,11318.4626,W,000.0,228.6,210819,017.7,E*61
01DD9A,022510,00C4D4,$GPRMC,205240,A,5442.9370,N,11318.4625,W,000.0,228.6,210819,017.7,E*6C
01DD9C,022510,00C4D6,$GPRMC,205241,A,5442.9370,N,11318.4623,W,000.0,228.6,210819,017.7,E*6B
01DD9D,022512,00C4D7,$GPRMC,205242,A,5442.9370,N,11318.4622,W,000.0,228.6,210819,017.7,E*69
01DD9B,022510,00C4D5,$GPRMC,205243,A,5442.9368,N,11318.4619,W,000.0,228.6,210819,017.7,E*69
01DD97,022508,00C4D3,$GPRMC,205244,A,5442.9368,N,11318.4619,W,000.0,228.6,210819,017.7,E*6E
01DD9E,022513,00C4D8,$GPRMC,205245,A,5442.9368,N,11318.4619,W,000.0,228.6,210819,017.7,E*6F
01DD9B,022510,00C4D6,$GPRMC,205246,A,5442.9367,N,11318.4618,W,000.0,228.6,210819,017.7,E*62
01DD9B,02250E,00C4D5,$GPRMC,205247,A,5442.9367,N,11318.4617,W,000.0,228.6,210819,017.7,E*6C
01DD99,02250C,00C4D4,$GPRMC,205248,A,5442.9366,N,11318.4616,W,000.0,228.6,210819,017.7,E*63
01DD9E,022513,00C4D7,$GPRMC,205249,A,5442.9366,N,11318.4615,W,000.0,228.6,210819,017.7,E*61
01DD9D,022511,00C4D7,$GPRMC,205250,A,5442.9366,N,11318.4614,W,000.0,228.6,210819,017.7,E*68
01DD9D,022510,00C4D6,$GPRMC,205251,A,5442.9366,N,11318.4614,W,000.0,228.6,210819,017.7,E*69
01DDA1,022518,00C4D9,$GPRMC,205252,A,5442.9366,N,11318.4614,W,000.0,228.6,210819,017.7,E*6A
01DD98,02250A,00C4D5,$GPRMC,205253,A,5442.9366,N,11318.4614,W,000.0,228.6,210819,017.7,E*6B
01DD9B,02250E,00C4D6,$GPRMC,205254,A,5442.9367,N,11318.4610,W,000.0,228.6,210819,017.7,E*69
01DDA1,022519,00C4DA,$GPRMC,205255,A,5442.9367,N,11318.4607,W,000.0,228.6,210819,017.7,E*6E
01DD9B,02250F,00C4D6,$GPRMC,205256,A,5442.9366,N,11318.4605,W,000.0,228.6,210819,017.7,E*6E
01DD9A,02250D,00C4D5,$GPRMC,205257,A,5442.9366,N,11318.4602,W,000.0,228.6,210819,017.7,E*68
01DD9E,022513,00C4D7,$GPRMC,205258,A,5442.9366,N,11318.4599,W,000.0,228.6,210819,017.7,E*66
01DD9F,022516,00C4D8,$GPRMC,205259,A,5442.9366,N,11318.4600,W,000.0,228.6,210819,017.7,E*64
01DD9A,02250F,00C4D5,$GPRMC,205300,A,5442.9366,N,11318.4600,W,000.0,228.6,210819,017.7,E*69
01DD9E,022514,00C4D8,$GPRMC,205301,A,5442.9366,N,11318.4599,W,000.0,228.6,210819,017.7,E*6B
01DD9D,022513,00C4D7,$GPRMC,205302,A,5442.9365,N,11318.4598,W,000.0,228.6,210819,017.7,E*6A
01DD9B,022510,00C4D6,$GPRMC,205303,A,5442.9365,N,11318.4596,W,000.0,228.6,210819,017.7,E*65
01DD97,02250B,00C4D4,$GPRMC,205304,A,5442.9365,N,11318.4596,W,000.0,228.6,210819,017.7,E*62
01DD9C,022512,00C4D7,$GPRMC,205305,A,5442.9365,N,11318.4596,W,000.0,228.6,210819,017.7,E*63
01DD9A,022510,00C4D5,$GPRMC,205306,A,5442.9364,N,11318.4596,W,000.0,228.6,210819,017.7,E*61
01DD9B,022512,00C4D6,$GPRMC,205307,A,5442.9363,N,11318.4593,W,000.0,228.6,210819,017.7,E*62
01DD9B,022512,00C4D6,$GPRMC,205308,A,5442.9363,N,11318.4592,W,000.0,228.6,210819,017.7,E*6C
01DD9B,022512,00C4D6,$GPRMC,205309,A,5442.9363,N,11318.4590,W,000.0,228.6,210819,017.7,E*6F
01DD9C,022513,00C4D6,$GPRMC,205310,A,5442.9364,N,11318.4589,W,000.0,228.6,210819,017.7,E*68
01DD9C,022513,00C4D6,$GPRMC,205311,A,5442.9364,N,11318.4587,W,000.0,228.6,210819,017.7,E*67
01DD98,02250D,00C4D4,$GPRMC,205312,A,5442.9365,N,11318.4586,W,000.0,228.6,210819,017.7,E*64
01DD98,02250D,00C4D3,$GPRMC,205313,A,5442.9365,N,11318.4586,W,000.0,228.6,210819,017.7,E*65
01DD9C,022511,00C4D6,$GPRMC,205314,A,5442.9365,N,11318.4586,W,000.0,228.6,210819,017.7,E*62
01DD99,02250D,00C4D4,$GPRMC,205315,A,5442.9365,N,11318.4585,W,000.0,228.6,210819,017.7,E*60
01DD9E,022513,00C4D7,$GPRMC,205316,A,5442.9365,N,11318.4585,W,000.0,228.6,210819,017.7,E*63
01DD99,02250C,00C4D3,$GPRMC,205317,A,5442.9364,N,11318.4585,W,000.0,228.6,210819,017.7,E*63
01DD99,02250D,00C4D4,$GPRMC,205318,A,5442.9364,N,11318.4584,W,000.0,228.6,210819,017.7,E*6D
01DD9A,02250F,00C4D5,$GPRMC,205319,A,5442.9364,N,11318.4584,W,000.0,228.6,210819,017.7,E*6C
01DD9C,022511,00C4D5,$GPRMC,205320,A,5442.9364,N,11318.4584,W,000.0,228.6,210819,017.7,E*66
01DD97,02250B,00C4D2,$GPRMC,205321,A,5442.9364,N,11318.4584,W,000.0,228.6,210819,017.7,E*67
01DD9D,022512,00C4D6,$GPRMC,205322,A,5442.9364,N,11318.4584,W,000.0,228.6,210819,017.7,E*64
01DD9B,02250D,00C4D4,$GPRMC,205323,A,5442.9363,N,11318.4583,W,000.0,228.6,210819,017.7,E*65
01DD9C,02250F,00C4D5,$GPRMC,205324,A,5442.9360,N,11318.4579,W,000.0,228.6,210819,017.7,E*64
01DD97,022508,00C4D3,$GPRMC,205325,A,5442.9359,N,11318.4576,W,000.0,228.6,210819,017.7,E*60
01DD9F,022513,00C4D8,$GPRMC,205326,A,5442.9358,N,11318.4575,W,000.0,228.6,210819,017.7,E*61
01DD99,022509,00C4D5,$GPRMC,205327,A,5442.9358,N,11318.4574,W,000.0,228.6,210819,017.7,E*61
01DD9E,02250F,00C4D7,$GPRMC,205328,A,5442.9357,N,11318.4573,W,000.0,228.6,210819,017.7,E*66
01DD9B,02250B,00C4D6,$GPRMC,205329,A,5442.9356,N,11318.4572,W,000.0,228.6,210819,017.7,E*67
01DD9E,022510,00C4D7,$GPRMC,205330,A,5442.9355,N,11318.4572,W,000.0,228.6,210819,017.7,E*6C
01DD9C,02250B,00C4D5,$GPRMC,205331,A,5442.9354,N,11318.4572,W,000.0,228.6,210819,017.7,E*6C
01DD9A,022509,00C4D6,$GPRMC,205332,A,5442.9354,N,11318.4572,W,000.0,228.6,210819,017.7,E*6F
01DD9C,02250B,00C4D6,$GPRMC,205333,A,5442.9354,N,11318.4572,W,000.0,228.6,210819,017.7,E*6E
01DDA0,022510,00C4D9,$GPRMC,205334,A,5442.9353,N,11318.4571,W,000.0,228.6,210819,017.7,E*6D
01DD9A,022506,00C4D5,$GPRMC,205335,A,5442.9352,N,11318.4571,W,000.0,228.6,210819,017.7,E*6D
01DD9B,02250A,00C4D6,$GPRMC,205336,A,5442.9351,N,11318.4571,W,000.0,228.6,210819,017.7,E*6D
01DD9B,022509,00C4D6,$GPRMC,205337,A,5442.9351,N,11318.4570,W,000.0,228.6,210819,017.7,E*6D
01DD9C,02250B,00C4D7,$GPRMC,205338,A,5442.9350,N,11318.4569,W,000.0,228.6,210819,017.7,E*6B
01DD9C,02250D,00C4D8,$GPRMC,205339,A,5442.9350,N,11318.4569,W,000.0,228.6,210819,017.7,E*6A
01DD99,022509,00C4D6,$GPRMC,205340,A,5442.9349,N,11318.4570,W,000.0,228.6,210819,017.7,E*64
01DD9A,02250B,00C4D6,$GPRMC,205341,A,5442.9348,N,11318.4570,W,000.0,228.6,210819,017.7,E*64
01DD9B,02250B,00C4D7,$GPRMC,205342,A,5442.9348,N,11318.4570,W,000.0,228.6,210819,017.7,E*67
01DD95,022505,00C4D3,$GPRMC,205343,A,5442.9346,N,11318.4571,W,000.0,228.6,210819,017.7,E*69
01DD97,022508,00C4D4,$GPRMC,205344,A,5442.9346,N,11318.4571,W,000.0,228.6,210819,017.7,E*6E
01DD9B,02250E,00C4D7,$GPRMC,205345,A,5442.9343,N,11318.4568,W,000.0,228.6,210819,017.7,E*62
01DD9D,022511,00C4D8,$GPRMC,205346,A,5442.9342,N,11318.4567,W,000.0,228.6,210819,017.7,E*6F
01DD99,02250B,00C4D5,$GPRMC,205347,A,5442.9341,N,11318.4566,W,000.0,228.6,210819,017.7,E*6C
01DD9A,02250E,00C4D6,$GPRMC,205348,A,5442.9341,N,11318.4566,W,000.0,228.6,210819,017.7,E*63
01DD97,02250C,00C4D5,$GPRMC,205349,A,5442.9341,N,11318.4566,W,000.0,228.6,210819,017.7,E*62
01DD9B,022513,00C4D8,$GPRMC,205350,A,5442.9341,N,11318.4565,W,000.0,228.6,210819,017.7,E*69
01DD96,02250C,00C4D5,$GPRMC,205351,A,5442.9341,N,11318.4565,W,000.0,228.6,210819,017.7,E*68
01DD9E,022517,00C4DA,$GPRMC,205352,A,5442.9342,N,11318.4564,W,000.0,228.6,210819,017.7,E*69
01DD92,022507,00C4D2,$GPRMC,205353,A,5442.9342,N,11318.4565,W,000.0,228.6,210819,017.7,E*69
01DD9E,022518,00C4DA,$GPRMC,205354,A,5442.9342,N,11318.4564,W,000.0,228.6,210819,017.7,E*6F
01DD96,02250C,00C4D4,$GPRMC,205355,A,5442.9342,N,11318.4563,W,000.0,228.6,210819,017.7,E*69
01DD9B,022513,00C4D7,$GPRMC,205356,A,5442.9342,N,11318.4561,W,000.0,228.6,210819,017.7,E*68
01DD97,02250E,00C4D4,$GPRMC,205357,A,5442.9342,N,11318.4561,W,000.0,228.6,210819,017.7,E*69
01DD98,02250F,00C4D5,$GPRMC,205358,A,5442.9342,N,11318.4561,W,000.0,228.6,210819,017.7,E*66
01DD9C,022516,00C4D7,$GPRMC,205359,A,5442.9344,N,11318.4565,W,000.0,228.6,210819,017.7,E*65
01DD9A,022512,00C4D6,$GPRMC,205400,A,5442.9342,N,11318.4569,W,000.0,228.6,210819,017.7,E*64
01DD96,02250D,00C4D4,$GPRMC,205401,A,5442.9340,N,11318.4573,W,000.0,228.6,210819,017.7,E*6C
01DD9B,022514,00C4D7,$GPRMC,205402,A,5442.9340,N,11318.4575,W,000.0,228.6,210819,017.7,E*69
01DD98,02250E,00C4D5,$GPRMC,205403,A,5442.9340,N,11318.4577,W,000.0,228.6,210819,017.7,E*6A
01DD9C,022514,00C4D7,$GPRMC,205404,A,5442.9341,N,11318.4579,W,000.0,228.6,210819,017.7,E*62
01DD99,022510,00C4D6,$GPRMC,205405,A,5442.9340,N,11318.4581,W,000.0,228.6,210819,017.7,E*65
01DD9D,022515,00C4D8,$GPRMC,205406,A,5442.9340,N,11318.4584,W,000.0,228.6,210819,017.7,E*63
01DD98,02250E,00C4D5,$GPRMC,205407,A,5442.9342,N,11318.4587,W,000.0,228.6,210819,017.7,E*63
01DD9F,022517,00C4DA,$GPRMC,205408,A,5442.9343,N,11318.4588,W,000.0,228.6,210819,017.7,E*62
01DD99,02250E,00C4D5,$GPRMC,205409,A,5442.9344,N,11318.4591,W,000.0,228.6,210819,017.7,E*6C
01DD9D,022513,00C4D7,$GPRMC,205410,A,5442.9345,N,11318.4593,W,000.0,228.6,210819,017.7,E*67
01DD9B,022510,00C4D6,$GPRMC,205411,A,5442.9344,N,11318.4598,W,000.0,228.6,210819,017.7,E*6C
01DD9B,022511,00C4D7,$GPRMC,205412,A,5442.9343,N,11318.4601,W,000.0,228.6,210819,017.7,E*6B
01DD99,02250D,00C4D6,$GPRMC,205413,A,5442.9342,N,11318.4605,W,000.0,228.6,210819,017.7,E*6F
01DD9B,022510,00C4D8,$GPRMC,205414,A,5442.9342,N,11318.4605,W,000.0,228.6,210819,017.7,E*68
01DD9A,02250E,00C4D7,$GPRMC,205415,A,5442.9342,N,11318.4607,W,000.0,228.6,210819,017.7,E*6B
01DD9B,02250F,00C4D7,$GPRMC,205416,A,5442.9342,N,11318.4607,W,000.0,228.6,210819,017.7,E*68
01DD9C,022510,00C4D8,$GPRMC,205417,A,5442.9344,N,11318.4614,W,000.0,228.6,210819,017.7,E*6D
01DD9D,022512,00C4D9,$GPRMC,205418,A,5442.9345,N,11318.4614,W,000.0,228.6,210819,017.7,E*63
01DD9B,02250F,00C4D8,$GPRMC,205419,A,5442.9342,N,11318.4610,W,000.0,228.6,210819,017.7,E*61
01DD9E,022513,00C4D9,$GPRMC,205420,A,5442.9340,N,11318.4606,W,000.0,228.6,210819,017.7,E*6E
01DD99,02250C,00C4D7,$GPRMC,205421,A,5442.9338,N,11318.4603,W,000.0,228.6,210819,017.7,E*65
01DD9F,022512,00C4DB,$GPRMC,205422,A,5442.9340,N,11318.4606,W,000.0,228.6,210819,017.7,E*6C
01DD9A,02250B,00C4D8,$GPRMC,205423,A,5442.9341,N,11318.4609,W,000.0,228.6,210819,017.7,E*63
01DD9D,022511,00C4D9,$GPRMC,205424,A,5442.9343,N,11318.4613,W,000.0,228.6,210819,017.7,E*6D
01DD99,02250C,00C4D7,$GPRMC,205425,A,5442.9344,N,11318.4616,W,000.0,228.6,210819,017.7,E*6E
01DD9F,022515,00C4DC,$GPRMC,205426,A,5442.9345,N,11318.4618,W,000.0,228.6,210819,017.7,E*62
01DD99,02250B,00C4D8,$GPRMC,205427,A,5442.9346,N,11318.4619,W,000.0,228.6,210819,017.7,E*61
01DD9C,022511,00C4DA,$GPRMC,205428,A,5442.9346,N,11318.4621,W,000.0,228.6,210819,017.7,E*65
01DD9B,02250E,00C4D9,$GPRMC,205429,A,5442.9347,N,11318.4623,W,000.0,228.6,210819,017.7,E*67
01DD99,02250E,00C4D8,$GPRMC,205430,A,5442.9346,N,11318.4625,W,000.0,228.6,210819,017.7,E*68
01DD99,02250E,00C4D8,$GPRMC,205431,A,5442.9347,N,11318.4628,W,000.0,228.6,210819,017.7,E*65
01DD9C,022513,00C4D9,$GPRMC,205432,A,5442.9348,N,11318.4629,W,000.0,228.6,210819,017.7,E*68
01DD9C,02250E,00C4D8,$GPRMC,205433,A,5442.9349,N,11318.4632,W,000.0,228.6,210819,017.7,E*62
01DD9D,02250E,00C4D8,$GPRMC,205434,A,5442.9350,N,11318.4633,W,000.0,228.6,210819,017.7,E*6C
01DD9A,02250B,00C4D6,$GPRMC,205435,A,5442.9351,N,11318.4635,W,000.0,228.6,210819,017.7,E*6A
01DDA2,022519,00C4DB,$GPRMC,205436,A,5442.9352,N,11318.4636,W,000.0,228.6,210819,017.7,E*69
01DD98,02250C,00C4D5,$GPRMC,205437,A,5442.9354,N,11318.4638,W,000.0,228.6,210819,017.7,E*60
01DD9E,022517,00C4D9,$GPRMC,205438,A,5442.9355,N,11318.4639,W,000.0,228.6,210819,017.7,E*6F
01DD9A,022513,00C4D7,$GPRMC,205439,A,5442.9356,N,11318.4641,W,000.0,228.6,210819,017.7,E*62
01DD9A,022514,00C4D7,$GPRMC,205440,A,5442.9356,N,11318.4642,W,000.0,228.6,210819,017.7,E*6F
01DD97,02250F,00C4D5,$GPRMC,205441,A,5442.9357,N,11318.4643,W,000.0,228.6,210819,017.7,E*6E
01DD9B,022517,00C4D8,$GPRMC,205442,A,5442.9359,N,11318.4644,W,000.0,228.6,210819,017.7,E*64
01DD9A,022516,00C4D8,$GPRMC,205443,A,5442.9360,N,11318.4646,W,000.0,228.6,210819,017.7,E*6D
01DD98,022512,00C4D6,$GPRMC,205444,A,5442.9361,N,11318.4646,W,000.0,228.6,210819,017.7,E*6B
01DD99,022515,00C4D7,$GPRMC,205445,A,5442.9362,N,11318.4646,W,000.0,228.6,210819,017.7,E*69
01DD99,022516,00C4D7,$GPRMC,205446,A,5442.9362,N,11318.4645,W,000.0,228.6,210819,017.7,E*69
01DD98,022513,00C4D6,$GPRMC,205447,A,5442.9363,N,11318.4645,W,000.0,228.6,210819,017.7,E*69
01DD9B,022519,00C4D8,$GPRMC,205448,A,5442.9364,N,11318.4645,W,000.0,228.6,210819,017.7,E*61
01DD9A,022518,00C4D7,$GPRMC,205449,A,5442.9366,N,11318.4647,W,000.0,228.6,210819,017.7,E*60
01DD99,022515,00C4D7,$GPRMC,205450,A,5442.9367,N,11318.4649,W,000.0,228.6,210819,017.7,E*67
01DD9A,022518,00C4D7,$GPRMC,205451,A,5442.9368,N,11318.4650,W,000.0,228.6,210819,017.7,E*61
01DD99,022516,00C4D6,$GPRMC,205452,A,5442.9370,N,11318.4652,W,000.0,228.6,210819,017.7,E*69
01DD99,022517,00C4D6,$GPRMC,205453,A,5442.9372,N,11318.4654,W,000.0,228.6,210819,017.7,E*6C
01DD99,022517,00C4D7,$GPRMC,205454,A,5442.9373,N,11318.4655,W,000.0,228.6,210819,017.7,E*6B
01DD9C,02251B,00C4D8,$GPRMC,205455,A,5442.9373,N,11318.4655,W,000.0,228.6,210819,017.7,E*6A
01DD98,022516,00C4D5,$GPRMC,205456,A,5442.9373,N,11318.4656,W,000.0,228.6,210819,017.7,E*6A
01DD97,022513,00C4D5,$GPRMC,205457,A,5442.9370,N,11318.4659,W,000.0,228.6,210819,017.7,E*67
01DD99,022517,00C4D6,$GPRMC,205458,A,5442.9371,N,11318.4661,W,000.0,228.6,210819,017.7,E*62
01DD99,022516,00C4D6,$GPRMC,205459,A,5442.9369,N,11318.4662,W,000.0,228.6,210819,017.7,E*69
01DD97,022513,00C4D4,$GPRMC,205500,A,5442.9370,N,11318.4662,W,000.0,228.6,210819,017.7,E*6C
01DD9B,02251B,00C4D7,$GPRMC,205501,A,5442.9372,N,11318.4662,W,000.0,228.6,210819,017.7,E*6F
01DD95,022510,00C4D3,$GPRMC,205502,A,5442.9372,N,11318.4662,W,000.0,228.6,210819,017.7,E*6C
01DD98,022514,00C4D5,$GPRMC,205503,A,5442.9374,N,11318.4662,W,000.0,228.6,210819,017.7,E*6B
01DD9E,02251E,00C4D9,$GPRMC,205504,A,5442.9378,N,11318.4667,W,000.0,228.6,210819,017.7,E*65
01DD9A,022519,00C4D6,$GPRMC,205505,A,5442.9383,N,11318.4672,W,000.0,228.6,210819,017.7,E*64
01DD9B,02251C,00C4D6,$GPRMC,205506,A,5442.9386,N,11318.4675,W,000.0,228.6,210819,017.7,E*65
01DD97,022518,00C4D5,$GPRMC,205507,A,5442.9388,N,11318.4673,W,000.0,228.6,210819,017.7,E*6C
01DD99,022519,00C4D6,$GPRMC,205508,A,5442.9391,N,11318.4674,W,000.0,228.6,210819,017.7,E*6C
01DD96,022515,00C4D5,$GPRMC,205509,A,5442.9392,N,11318.4675,W,000.0,228.6,210819,017.7,E*6F
01DD9A,02251D,00C4D7,$GPRMC,205510,A,5442.9392,N,11318.4676,W,000.0,228.6,210819,017.7,E*64
01DD97,02251B,00C4D6,$GPRMC,205511,A,5442.9393,N,11318.4677,W,000.0,228.6,210819,017.7,E*65
01DD96,022518,00C4D6,$GPRMC,205512,A,5442.9394,N,11318.4679,W,000.0,228.6,210819,017.7,E*6F
01DD97,02251B,00C4D6,$GPRMC,205513,A,5442.9399,N,11318.4686,W,000.0,228.6,210819,017.7,E*63
01DD96,02251C,00C4D5,$GPRMC,205514,A,5442.9403,N,11318.4692,W,000.0,228.6,210819,017.7,E*65
01DD96,02251D,00C4D7,$GPRMC,205515,A,5442.9407,N,11318.4696,W,000.0,228.6,210819,017.7,E*64
01DD96,02251E,00C4D6,$GPRMC,205516,A,5442.9411,N,11318.4701,W,000.0,228.6,210819,017.7,E*6F
01DD92,022518,00C4D3,$GPRMC,205517,A,5442.9412,N,11318.4696,W,000.0,228.6,210819,017.7,E*62
01DD93,022518,00C4D4,$GPRMC,205518,A,5442.9414,N,11318.4691,W,000.0,228.6,210819,017.7,E*6C
01DD93,022519,00C4D4,$GPRMC,205519,A,5442.9415,N,11318.4691,W,000.0,228.6,210819,017.7,E*6C
01DD8D,02250F,00C4D0,$GPRMC,205520,A,5442.9415,N,11318.4692,W,000.0,228.6,210819,017.7,E*65
01DD94,022519,00C4D4,$GPRMC,205521,A,5442.9421,N,11318.4701,W,000.0,228.6,210819,017.7,E*68
01DD95,02251B,00C4D5,$GPRMC,205522,A,5442.9426,N,11318.4708,W,000.0,228.6,210819,017.7,E*65
01DD94,02251A,00C4D5,$GPRMC,205523,A,5442.9427,N,11318.4709,W,000.0,228.6,210819,017.7,E*64
01DD93,022517,00C4D4,$GPRMC,205524,A,5442.9428,N,11318.4711,W,000.0,228.6,210819,017.7,E*65
01DD8D,02250E,00C4D0,$GPRMC,205525,A,5442.9428,N,11318.4712,W,000.0,228.6,210819,017.7,E*67
01DD92,022517,00C4D3,$GPRMC,205526,A,5442.9429,N,11318.4713,W,000.0,228.6,210819,017.7,E*64
01DD91,022513,00C4D3,$GPRMC,205527,A,5442.9432,N,11318.4717,W,000.0,228.6,210819,017.7,E*6B
01DD92,022516,00C4D3,$GPRMC,205528,A,5442.9435,N,11318.4720,W,000.0,228.6,210819,017.7,E*67
01DD92,022516,00C4D3,$GPRMC,205529,A,5442.9436,N,11318.4722,W,000.0,228.6,210819,017.7,E*67
01DD96,02251A,00C4D6,$GPRMC,205530,A,5442.9437,N,11318.4724,W,000.0,228.6,210819,017.7,E*68
01DD91,022513,00C4D2,$GPRMC,205531,A,5442.9439,N,11318.4722,W,000.0,228.6,210819,017.7,E*61
01DD91,022513,00C4D3,$GPRMC,205532,A,5442.9440,N,11318.4720,W,000.0,228.6,210819,017.7,E*6E
01DD96,02251B,00C4D6,$GPRMC,205533,A,5442.9441,N,11318.4723,W,000.0,228.6,210819,017.7,E*6D
01DD93,022515,00C4D4,$GPRMC,205534,A,5442.9443,N,11318.4726,W,000.0,228.6,210819,017.7,E*6D
01DD90,022511,00C4D2,$GPRMC,205535,A,5442.9443,N,11318.4728,W,000.0,228.6,210819,017.7,E*62
01DD95,022518,00C4D4,$GPRMC,205536,A,5442.9443,N,11318.4729,W,000.0,228.6,210819,017.7,E*60
01DD93,022514,00C4D3,$GPRMC,205537,A,5442.9442,N,11318.4730,W,000.0,228.6,210819,017.7,E*68
01DD95,022519,00C4D4,$GPRMC,205538,A,5442.9442,N,11318.4732,W,000.0,228.6,210819,017.7,E*65
01DD99,02251D,00C4D7,$GPRMC,205539,A,5442.9441,N,11318.4732,W,000.0,228.6,210819,017.7,E*67
01DD91,022512,00C4D3,$GPRMC,205540,A,5442.9440,N,11318.4733,W,000.0,228.6,210819,017.7,E*69
01DD93,022515,00C4D3,$GPRMC,205541,A,5442.9439,N,11318.4733,W,000.0,228.6,210819,017.7,E*66
01DD97,022517,00C4D5,$GPRMC,205542,A,5442.9439,N,11318.4734,W,000.0,228.6,210819,017.7,E*62
01DD97,022517,00C4D5,$GPRMC,205543,A,5442.9439,N,11318.4734,W,000.0,228.6,210819,017.7,E*63
01DD94,022515,00C4D4,$GPRMC,205544,A,5442.9438,N,11318.4733,W,000.0,228.6,210819,017.7,E*62
01DD99,02251D,00C4D7,$GPRMC,205545,A,5442.9438,N,11318.4729,W,000.0,228.6,210819,017.7,E*68
01DD93,022514,00C4D3,$GPRMC,205546,A,5442.9437,N,11318.4726,W,000.0,228.6,210819,017.7,E*6B
01DD97,02251A,00C4D6,$GPRMC,205547,A,5442.9437,N,11318.4722,W,000.0,228.6,210819,017.7,E*6E
01DD97,02251B,00C4D6,$GPRMC,205548,A,5442.9437,N,11318.4722,W,000.0,228.6,210819,017.7,E*61
01DD99,02251D,00C4D7,$GPRMC,205549,A,5442.9436,N,11318.4717,W,000.0,228.6,210819,017.7,E*67
01DD95,022517,00C4D5,$GPRMC,205550,A,5442.9436,N,11318.4712,W,000.0,228.6,210819,017.7,E*6A
01DD95,022519,00C4D5,$GPRMC,205551,A,5442.9436,N,11318.4708,W,000.0,228.6,210819,017.7,E*60
01DD94,022518,00C4D4,$GPRMC,205552,A,5442.9436,N,11318.4703,W,000.0,228.6,210819,017.7,E*68
01DD96,02251B,00C4D6,$GPRMC,205553,A,5442.9436,N,11318.4703,W,000.0,228.6,210819,017.7,E*69
01DD94,022518,00C4D5,$GPRMC,205554,A,5442.9433,N,11318.4700,W,000.0,228.6,210819,017.7,E*68
01DD96,02251B,00C4D6,$GPRMC,205555,A,5442.9433,N,11318.4697,W,000.0,228.6,210819,017.7,E*66
01DD96,02251C,00C4D6,$GPRMC,205556,A,5442.9434,N,11318.4694,W,000.0,228.6,210819,017.7,E*61
01DD96,02251C,00C4D6,$GPRMC,205557,A,5442.9434,N,11318.4695,W,000.0,228.6,210819,017.7,E*61
01DD93,02251B,00C4D5,$GPRMC,205558,A,5442.9435,N,11318.4699,W,000.0,228.6,210819,017.7,E*63
01DD96,02251E,00C4D6,$GPRMC,205559,A,5442.9437,N,11318.4702,W,000.0,228.6,210819,017.7,E*63
01DD95,02251E,00C4D6,$GPRMC,205600,A,5442.9438,N,11318.4704,W,000.0,228.6,210819,017.7,E*65
01DD96,022521,00C4D7,$GPRMC,205601,A,5442.9439,N,11318.4701,W,000.0,228.6,210819,017.7,E*60
01DD96,022520,00C4D6,$GPRMC,205602,A,5442.9439,N,11318.4699,W,000.0,228.6,210819,017.7,E*63
01DD95,02251E,00C4D6,$GPRMC,205603,A,5442.9440,N,11318.4699,W,000.0,228.6,210819,017.7,E*6C
01DD94,02251E,00C4D5,$GPRMC,205604,A,5442.9440,N,11318.4697,W,000.0,228.6,210819,017.7,E*65
01DD95,02251E,00C4D6,$GPRMC,205605,A,5442.9440,N,11318.4695,W,000.0,228.6,210819,017.7,E*66
01DD92,022518,00C4D4,$GPRMC,205606,A,5442.9439,N,11318.4693,W,000.0,228.6,210819,017.7,E*6D
01DD93,02251B,00C4D5,$GPRMC,205607,A,5442.9441,N,11318.4689,W,000.0,228.6,210819,017.7,E*68
01DD93,02251C,00C4D5,$GPRMC,205608,A,5442.9441,N,11318.4690,W,000.0,228.6,210819,017.7,E*6F
01DD95,02251D,00C4D6,$GPRMC,205609,A,5442.9442,N,11318.4689,W,000.0,228.6,210819,017.7,E*65
01DD91,022518,00C4D4,$GPRMC,205610,A,5442.9438,N,11318.4686,W,000.0,228.6,210819,017.7,E*6F
01DD96,022521,00C4D7,$GPRMC,205611,A,5442.9436,N,11318.4684,W,000.0,228.6,210819,017.7,E*62
01DD92,022519,00C4D4,$GPRMC,205612,A,5442.9433,N,11318.4682,W,000.0,228.6,210819,017.7,E*62
01DD95,02251C,00C4D5,$GPRMC,205613,A,5442.9436,N,11318.4690,W,000.0,228.6,210819,017.7,E*65
01DD95,02251C,00C4D5,$GPRMC,205614,A,5442.9436,N,11318.4689,W,000.0,228.6,210819,017.7,E*6A
01DD98,022521,00C4D8,$GPRMC,205615,A,5442.9433,N,11318.4687,W,000.0,228.6,210819,017.7,E*60
01DD93,02251A,00C4D5,$GPRMC,205616,A,5442.9436,N,11318.4692,W,000.0,228.6,210819,017.7,E*62
01DD96,02251D,00C4D7,$GPRMC,205617,A,5442.9438,N,11318.4696,W,000.0,228.6,210819,017.7,E*69
01DD92,022518,00C4D5,$GPRMC,205618,A,5442.9440,N,11318.4699,W,000.0,228.6,210819,017.7,E*66
01DD93,022518,00C4D5,$GPRMC,205619,A,5442.9440,N,11318.4701,W,000.0,228.6,210819,017.7,E*67
01DD99,022522,00C4D9,$GPRMC,205620,A,5442.9440,N,11318.4702,W,000.0,228.6,210819,017.7,E*6E
01DD93,022518,00C4D5,$GPRMC,205621,A,5442.9439,N,11318.4703,W,000.0,228.6,210819,017.7,E*60
01DD93,022517,00C4D5,$GPRMC,205622,A,5442.9437,N,11318.4702,W,000.0,228.6,210819,017.7,E*6C
01DD96,02251B,00C4D7,$GPRMC,205623,A,5442.9436,N,11318.4701,W,000.0,228.6,210819,017.7,E*6F
01DD92,022518,00C4D6,$GPRMC,205624,A,5442.9435,N,11318.4700,W,000.0,228.6,210819,017.7,E*6A
01DD92,022516,00C4D6,$GPRMC,205625,A,5442.9434,N,11318.4698,W,000.0,228.6,210819,017.7,E*6A
01DD91,022519,00C4D6,$GPRMC,205626,A,5442.9433,N,11318.4699,W,000.0,228.6,210819,017.7,E*6F
01DD57,0224CD,00C4B4,$GPRMC,205627,A,5442.9433,N,11318.4699,W,000.0,228.6,210819,017.7,E*6E
01DD7C,022500,00C4CD,$GPRMC,205628,A,5442.9433,N,11318.4695,W,000.0,228.6,210819,017.7,E*6D
01DD81,02250D,00C4D2,$GPRMC,205629,A,5442.9432,N,11318.4691,W,000.0,228.6,210819,017.7,E*69
01DD86,022513,00C4D5,$GPRMC,205630,A,5442.9433,N,11318.4687,W,000.0,228.6,210819,017.7,E*67
01DD88,022518,00C4D6,$GPRMC,205631,A,5442.9433,N,11318.4684,W,000.0,228.6,210819,017.7,E*65
01DD88,022516,00C4D6,$GPRMC,205632,A,5442.9434,N,11318.4683,W,000.0,228.6,210819,017.7,E*66
00D084,00EFCC,0055FA,010CE9,013534,006EDA,$GPRMC,205633,A,5442.9434,N,11318.4683,W,000.0,228.6,210819,017.7,E*67
01DD94,02251A,00C4DA,$GPRMC,205634,A,5442.9434,N,11318.4684,W,000.0,228.6,210819,017.7,E*67
01DD95,022535,00C4E2,$GPRMC,205635,A,5442.9434,N,11318.4684,W,000.0,228.6,210819,017.7,E*66
01DDAE,022525,00C4E5,$GPRMC,205636,A,5442.9434,N,11318.4685,W,000.0,228.6,210819,017.7,E*64
01DDA8,0224EB,00C4E6,$GPRMC,205637,A,5442.9434,N,11318.4686,W,000.0,228.6,210819,017.7,E*66
01DDA9,0224EA,00C4E6,$GPRMC,205638,A,5442.9432,N,11318.4683,W,000.0,228.6,210819,017.7,E*6A
01DDAD,0224F0,00C4E8,$GPRMC,205639,A,5442.9433,N,11318.4680,W,000.0,228.6,210819,017.7,E*69
01DDA8,0224E9,00C4E4,$GPRMC,205640,A,5442.9433,N,11318.4677,W,000.0,228.6,210819,017.7,E*6F
01DDAE,0224F4,00C4E8,$GPRMC,205641,A,5442.9434,N,11318.4674,W,000.0,228.6,210819,017.7,E*6A
01DDAF,0224F5,00C4E8,$GPRMC,205642,A,5442.9435,N,11318.4672,W,000.0,228.6,210819,017.7,E*6E
01DDAA,0224EB,00C4E5,$GPRMC,205643,A,5442.9433,N,11318.4672,W,000.0,228.6,210819,017.7,E*69
01DDAE,0224F4,00C4E8,$GPRMC,205644,A,5442.9434,N,11318.4670,W,000.0,228.6,210819,017.7,E*6B
01DDB6,0225FF,00C4ED,$GPRMC,205645,A,5442.9434,N,11318.4668,W,000.0,228.6,210819,017.7,E*63
01DDB4,0224FC,00C4EB,$GPRMC,205646,A,5442.9433,N,11318.4667,W,000.0,228.6,210819,017.7,E*68
01DDB0,0224F7,00C4E8,$GPRMC,205647,A,5442.9432,N,11318.4668,W,000.0,228.6,210819,017.7,E*67
01DDB4,0224FD,00C4EB,$GPRMC,205648,A,5442.9432,N,11318.4667,W,000.0,228.6,210819,017.7,E*67
01DDB3,0224FC,00C4EB,$GPRMC,205649,A,5442.9435,N,11318.4669,W,000.0,228.6,210819,017.7,E*6F
01DDB5,0225FF,00C4EC,$GPRMC,205650,A,5442.9434,N,11318.4672,W,000.0,228.6,210819,017.7,E*6C
01DDAF,0224F7,00C4E8,$GPRMC,205651,A,5442.9438,N,11318.4671,W,000.0,228.6,210819,017.7,E*62
01DDB1,0224FA,00C4E9,$GPRMC,205652,A,5442.9435,N,11318.4673,W,000.0,228.6,210819,017.7,E*6E
01DDB4,0224FD,00C4EA,$GPRMC,205653,A,5442.9432,N,11318.4676,W,000.0,228.6,210819,017.7,E*6D
01DDAF,0224F6,00C4E8,$GPRMC,205654,A,5442.9429,N,11318.4679,W,000.0,228.6,210819,017.7,E*6F
01DDB3,0224F9,00C4E9,$GPRMC,205655,A,5442.9427,N,11318.4681,W,000.0,228.6,210819,017.7,E*67
01DDB3,0224FC,00C4E9,$GPRMC,205656,A,5442.9426,N,11318.4682,W,000.0,228.6,210819,017.7,E*66
01DDB5,022501,00C4EB,$GPRMC,205657,A,5442.9426,N,11318.4681,W,000.0,228.6,210819,017.7,E*64
01DDB2,0224FC,00C4E9,$GPRMC,205658,A,5442.9425,N,11318.4682,W,000.0,228.6,210819,017.7,E*6B
01DDB0,0224F7,00C4E8,$GPRMC,205659,A,5442.9423,N,11318.4683,W,000.0,228.6,210819,017.7,E*6D
01DDB2,0224F8,00C4E8,$GPRMC,205700,A,5442.9424,N,11318.4681,W,000.0,228.6,210819,017.7,E*65
01DDB4,0224FC,00C4EA,$GPRMC,205701,A,5442.9423,N,11318.4680,W,000.0,228.6,210819,017.7,E*62
01DDB4,0224FA,00C4E9,$GPRMC,205702,A,5442.9423,N,11318.4680,W,000.0,228.6,210819,017.7,E*61
01DDB4,0224FB,00C4E9,$GPRMC,205703,A,5442.9422,N,11318.4680,W,000.0,228.6,210819,017.7,E*61
01DDBE,022509,00C4F0,$GPRMC,205704,A,5442.9421,N,11318.4681,W,000.0,228.6,210819,017.7,E*64
01DDB2,0224F7,00C4E8,$GPRMC,205705,A,5442.9421,N,11318.4682,W,000.0,228.6,210819,017.7,E*66
01DDB5,0224FB,00C4EA,$GPRMC,205706,A,5442.9420,N,11318.4683,W,000.0,228.6,210819,017.7,E*65
01DDB5,0224FC,00C4EA,$GPRMC,205707,A,5442.9420,N,11318.4684,W,000.0,228.6,210819,017.7,E*63
01DDBB,022502,00C4ED,$GPRMC,205708,A,5442.9420,N,11318.4685,W,000.0,228.6,210819,017.7,E*6D
01DDBC,022504,00C4ED,$GPRMC,205709,A,5442.9419,N,11318.4688,W,000.0,228.6,210819,017.7,E*6B
01DDBC,022502,00C4EE,$GPRMC,205710,A,5442.9418,N,11318.4690,W,000.0,228.6,210819,017.7,E*6B
01DDB9,022500,00C4EC,$GPRMC,205711,A,5442.9418,N,11318.4689,W,000.0,228.6,210819,017.7,E*62
01DDBC,022504,00C4EE,$GPRMC,205712,A,5442.9417,N,11318.4691,W,000.0,228.6,210819,017.7,E*67
01DDB7,0225FF,00C4EB,$GPRMC,205713,A,5442.9417,N,11318.4693,W,000.0,228.6,210819,017.7,E*64
01DDBC,022507,00C4EE,$GPRMC,205714,A,5442.9417,N,11318.4692,W,000.0,228.6,210819,017.7,E*62
01DDBB,022503,00C4ED,$GPRMC,205715,A,5442.9417,N,11318.4693,W,000.0,228.6,210819,017.7,E*62
01DDB2,0224F7,00C4E7,$GPRMC,205716,A,5442.9418,N,11318.4693,W,000.0,228.6,210819,017.7,E*6E
01DDB9,022502,00C4EC,$GPRMC,205717,A,5442.9417,N,11318.4695,W,000.0,228.6,210819,017.7,E*66
01DDB6,0224FC,00C4E9,$GPRMC,205718,A,5442.9417,N,11318.4697,W,000.0,228.6,210819,017.7,E*6B
01DDB6,0224FC,00C4E9,$GPRMC,205719,A,5442.9417,N,11318.4699,W,000.0,228.6,210819,017.7,E*64
01DDB8,022501,00C4EB,$GPRMC,205720,A,5442.9416,N,11318.4701,W,000.0,228.6,210819,017.7,E*6F
01DDB7,0225FF,00C4EA,$GPRMC,205721,A,5442.9418,N,11318.4698,W,000.0,228.6,210819,017.7,E*61
01DDB3,0224F9,00C4E7,$GPRMC,205722,A,5442.9417,N,11318.4698,W,000.0,228.6,210819,017.7,E*6D
01DDB6,0224FE,00C4E9,$GPRMC,205723,A,5442.9417,N,11318.4699,W,000.0,228.6,210819,017.7,E*6D
01DDB5,0224FD,00C4E9,$GPRMC,205724,A,5442.9416,N,11318.4701,W,000.0,228.6,210819,017.7,E*6B
01DDB9,022503,00C4EB,$GPRMC,205725,A,5442.9416,N,11318.4702,W,000.0,228.6,210819,017.7,E*69
01DDB5,0224FE,00C4E8,$GPRMC,205726,A,5442.9415,N,11318.4704,W,000.0,228.6,210819,017.7,E*6F
01DDB4,0224FC,00C4E8,$GPRMC,205727,A,5442.9414,N,11318.4706,W,000.0,228.6,210819,017.7,E*6D
01DDB7,022501,00C4E9,$GPRMC,205728,A,5442.9412,N,11318.4710,W,000.0,228.6,210819,017.7,E*63
01DDB4,0224FC,00C4E8,$GPRMC,205729,A,5442.9411,N,11318.4713,W,000.0,228.6,210819,017.7,E*62
01DDB3,0224FB,00C4E8,$GPRMC,205730,A,5442.9410,N,11318.4714,W,000.0,228.6,210819,017.7,E*6C
01DDB4,0224FC,00C4E8,$GPRMC,205731,A,5442.9409,N,11318.4715,W,000.0,228.6,210819,017.7,E*64
01DDB3,0224FD,00C4E7,$GPRMC,205732,A,5442.9416,N,11318.4704,W,000.0,228.6,210819,017.7,E*69
01DDB3,0224FC,00C4E7,$GPRMC,205733,A,5442.9416,N,11318.4705,W,000.0,228.6,210819,017.7,E*69
01DDB5,0224FD,00C4E8,$GPRMC,205734,A,5442.9416,N,11318.4705,W,000.0,228.6,210819,017.7,E*6E
01DDB5,0224FD,00C4E8,$GPRMC,205735,A,5442.9416,N,11318.4706,W,000.0,228.6,210819,017.7,E*6C
01DDB6,022500,00C4E9,$GPRMC,205736,A,5442.9416,N,11318.4706,W,000.0,228.6,210819,017.7,E*6F
01DDB7,022500,00C4E9,$GPRMC,205737,A,5442.9416,N,11318.4706,W,000.0,228.6,210819,017.7,E*6E
01DDB7,0224F8,00C4E7,$GPRMC,205738,A,5442.9415,N,11318.4706,W,000.0,228.6,210819,017.7,E*62
01DDBC,0224F1,00C4E7,$GPRMC,205739,A,5442.9416,N,11318.4705,W,000.0,228.6,210819,017.7,E*63
01DDB6,0224FD,00C4E9,$GPRMC,205740,A,5442.9414,N,11318.4706,W,000.0,228.6,210819,017.7,E*6C
01DDB6,022500,00C4E9,$GPRMC,205741,A,5442.9415,N,11318.4705,W,000.0,228.6,210819,017.7,E*6F
01DDBA,022509,00C4EC,$GPRMC,205742,A,5442.9413,N,11318.4706,W,000.0,228.6,210819,017.7,E*69
01DDB4,022502,00C4E8,$GPRMC,205743,A,5442.9412,N,11318.4708,W,000.0,228.6,210819,017.7,E*67
01DDB3,022501,00C4E9,$GPRMC,205744,A,5442.9411,N,11318.4710,W,000.0,228.6,210819,017.7,E*6A
01DDB3,022501,00C4E8,$GPRMC,205745,A,5442.9409,N,11318.4713,W,000.0,228.6,210819,017.7,E*61
01DDB3,022501,00C4E9,$GPRMC,205746,A,5442.9407,N,11318.4716,W,000.0,228.6,210819,017.7,E*69
01DDB6,022506,00C4EA,$GPRMC,205747,A,5442.9406,N,11318.4718,W,000.0,228.6,210819,017.7,E*67
01DDB7,022506,00C4EA,$GPRMC,205748,A,5442.9405,N,11318.4719,W,000.0,228.6,210819,017.7,E*6A
01DDB3,0225FF,00C4E7,$GPRMC,205749,A,5442.9405,N,11318.4721,W,000.0,228.6,210819,017.7,E*60
01DDB1,0224FC,00C4E6,$GPRMC,205750,A,5442.9405,N,11318.4723,W,000.0,228.6,210819,017.7,E*6A
01DDB4,022500,00C4E8,$GPRMC,205751,A,5442.9406,N,11318.4723,W,000.0,228.6,210819,017.7,E*68
01DDB7,022503,00C4E9,$GPRMC,205752,A,5442.9408,N,11318.4721,W,000.0,228.6,210819,017.7,E*67
01DDB8,022505,00C4EA,$GPRMC,205753,A,5442.9411,N,11318.4719,W,000.0,228.6,210819,017.7,E*65
01DDB6,022503,00C4E9,$GPRMC,205754,A,5442.9412,N,11318.4718,W,000.0,228.6,210819,017.7,E*60
01DDB2,0224FE,00C4E7,$GPRMC,205755,A,5442.9414,N,11318.4716,W,000.0,228.6,210819,017.7,E*69
01DDB5,022501,00C4E8,$GPRMC,205756,A,5442.9416,N,11318.4716,W,000.0,228.6,210819,017.7,E*68
01DDB3,0225FE,00C4E6,$GPRMC,205757,A,5442.9416,N,11318.4716,W,000.0,228.6,210819,017.7,E*69
01DDB9,022507,00C4EA,$GPRMC,205758,A,5442.9420,N,11318.4709,W,000.0,228.6,210819,017.7,E*6D
01DDB8,022506,00C4EA,$GPRMC,205759,A,5442.9423,N,11318.4705,W,000.0,228.6,210819,017.7,E*63
01DDB4,0225FF,00C4E7,$GPRMC,205800,A,5442.9426,N,11318.4701,W,000.0,228.6,210819,017.7,E*61
01DDBA,022509,00C4EB,$GPRMC,205801,A,5442.9429,N,11318.4698,W,000.0,228.6,210819,017.7,E*6E
01DDB6,022503,00C4E9,$GPRMC,205802,A,5442.9429,N,11318.4696,W,000.0,228.6,210819,017.7,E*63
01DDB5,022503,00C4E9,$GPRMC,205803,A,5442.9431,N,11318.4695,W,000.0,228.6,210819,017.7,E*68
01DDB5,022501,00C4E8,$GPRMC,205804,A,5442.9432,N,11318.4694,W,000.0,228.6,210819,017.7,E*6D
01DDB8,022506,00C4EA,$GPRMC,205805,A,5442.9434,N,11318.4694,W,000.0,228.6,210819,017.7,E*6A
01DDB1,0224FD,00C4E6,$GPRMC,205806,A,5442.9435,N,11318.4694,W,000.0,228.6,210819,017.7,E*68
01DDB0,0224FC,00C4E6,$GPRMC,205807,A,5442.9436,N,11318.4694,W,000.0,228.6,210819,017.7,E*6A
01DDB3,022502,00C4E8,$GPRMC,205808,A,5442.9438,N,11318.4693,W,000.0,228.6,210819,017.7,E*6C
01DDB2,0225FF,00C4E7,$GPRMC,205809,A,5442.9439,N,11318.4694,W,000.0,228.6,210819,017.7,E*6B
01DDB3,022500,00C4E8,$GPRMC,205810,A,5442.9440,N,11318.4694,W,000.0,228.6,210819,017.7,E*6D
01DDB3,022505,00C4E9,$GPRMC,205811,A,5442.9442,N,11318.4693,W,000.0,228.6,210819,017.7,E*69
01DDB5,022504,00C4EA,$GPRMC,205812,A,5442.9445,N,11318.4690,W,000.0,228.6,210819,017.7,E*6E
01DDB4,022503,00C4E9,$GPRMC,205813,A,5442.9445,N,11318.4690,W,000.0,228.6,210819,017.7,E*6F
01DDB4,022505,00C4E9,$GPRMC,205814,A,5442.9449,N,11318.4690,W,000.0,228.6,210819,017.7,E*64
01DDB5,022504,00C4E9,$GPRMC,205815,A,5442.9452,N,11318.4684,W,000.0,228.6,210819,017.7,E*6A
01DDB3,022502,00C4E8,$GPRMC,205816,A,5442.9456,N,11318.4677,W,000.0,228.6,210819,017.7,E*61
01DDB5,022501,00C4E8,$GPRMC,205817,A,5442.9461,N,11318.4668,W,000.0,228.6,210819,017.7,E*6A
01DDA3,0225FE,00C4E4,$GPRMC,205818,A,5442.9466,N,11318.4661,W,000.0,228.6,210819,017.7,E*6B
01DDA4,0224FE,00C4E3,$GPRMC,205819,A,5442.9471,N,11318.4653,W,000.0,228.6,210819,017.7,E*6D
01DDA3,0224FE,00C4E3,$GPRMC,205820,A,5442.9476,N,11318.4644,W,000.0,228.6,210819,017.7,E*66
01DDA2,0224FA,00C4E2,$GPRMC,205821,A,5442.9475,N,11318.4647,W,000.0,228.6,210819,017.7,E*67
01DDA3,0224FC,00C4E2,$GPRMC,205822,A,5442.9476,N,11318.4648,W,000.0,228.6,210819,017.7,E*68
01DDA3,0224FE,00C4E1,$GPRMC,205823,A,5442.9477,N,11318.4647,W,000.0,228.6,210819,017.7,E*67
01DDA8,022504,00C4E5,$GPRMC,205824,A,5442.9479,N,11318.4644,W,000.0,228.6,210819,017.7,E*6D
01DDA5,022500,00C4E4,$GPRMC,205825,A,5442.9483,N,11318.4640,W,000.0,228.6,210819,017.7,E*6D
01DDA9,022507,00C4E6,$GPRMC,205826,A,5442.9487,N,11318.4634,W,000.0,228.6,210819,017.7,E*69
01DDA8,022504,00C4E5,$GPRMC,205827,A,5442.9491,N,11318.4628,W,000.0,228.6,210819,017.7,E*62
01DDA6,022500,00C4E3,$GPRMC,205828,A,5442.9494,N,11318.4622,W,000.0,228.6,210819,017.7,E*62
01DDAA,022507,00C4E5,$GPRMC,205829,A,5442.9502,N,11318.4615,W,000.0,228.6,210819,017.7,E*69
01DDA5,0224FE,00C4E2,$GPRMC,205830,A,5442.9507,N,11318.4607,W,000.0,228.6,210819,017.7,E*67
01DDA9,022503,00C4E5,$GPRMC,205831,A,5442.9513,N,11318.4600,W,000.0,228.6,210819,017.7,E*64
01DDA8,022501,00C4E4,$GPRMC,205832,A,5442.9517,N,11318.4595,W,000.0,228.6,210819,017.7,E*6C
01DDA5,0224FD,00C4E2,$GPRMC,205833,A,5442.9520,N,11318.4590,W,000.0,228.6,210819,017.7,E*6C
01DDA6,0225FF,00C4E3,$GPRMC,205834,A,5442.9520,N,11318.4588,W,000.0,228.6,210819,017.7,E*62
01DDB5,022503,00C4E7,$GPRMC,205835,A,5442.9521,N,11318.4584,W,000.0,228.6,210819,017.7,E*6E
01DDB9,0225FF,00C4E7,$GPRMC,205836,A,5442.9520,N,11318.4580,W,000.0,228.6,210819,017.7,E*68
01DDBD,022505,00C4E9,$GPRMC,205837,A,5442.9522,N,11318.4577,W,000.0,228.6,210819,017.7,E*63
