01DEC7,0226BE,00C4A3,$GPRMC,105945,A,5442.9395,N,11318.4486,W,000.0,202.4,220819,017.7,E*68
01DEC9,0226C0,00C4A4,$GPRMC,105946,A,5442.9387,N,11318.4490,W,000.0,202.4,220819,017.7,E*6F
01DEC9,0226C2,00C4A5,$GPRMC,105947,A,5442.9385,N,11318.4493,W,000.0,202.4,220819,017.7,E*6F
01DEC8,0226BF,00C4A4,$GPRMC,105948,A,5442.9383,N,11318.4493,W,000.0,202.4,220819,017.7,E*66
01DECA,0226C3,00C4A5,$GPRMC,105949,A,5442.9384,N,11318.4491,W,000.0,202.4,220819,017.7,E*62
01DEC7,0226BE,00C4A4,$GPRMC,105950,A,5442.9377,N,11318.4495,W,000.0,202.4,220819,017.7,E*62
01DECC,0226C5,00C4A6,$GPRMC,105951,A,5442.9376,N,11318.4495,W,000.0,202.4,220819,017.7,E*62
01DEC8,0226C0,00C4A5,$GPRMC,105952,A,5442.9371,N,11318.4498,W,000.0,202.4,220819,017.7,E*6B
01DECC,0226C5,00C4A7,$GPRMC,105953,A,5442.9367,N,11318.4502,W,000.0,202.4,220819,017.7,E*6F
01DEC6,0226BD,00C4A3,$GPRMC,105954,A,5442.9363,N,11318.4505,W,000.0,202.4,220819,017.7,E*6B
01DEC7,0226BF,00C4A4,$GPRMC,105955,A,5442.9360,N,11318.4508,W,000.0,202.4,220819,017.7,E*64
01DEC7,0226BE,00C4A3,$GPRMC,105956,A,5442.9357,N,11318.4512,W,000.0,202.4,220819,017.7,E*68
01DEC9,0226C0,00C4A5,$GPRMC,105957,A,5442.9354,N,11318.4515,W,000.0,202.4,220819,017.7,E*6D
01DEC8,0226C0,00C4A4,$GPRMC,105958,A,5442.9352,N,11318.4518,W,000.0,202.4,220819,017.7,E*69
01DEC8,0226C0,00C4A4,$GPRMC,105959,A,5442.9352,N,11318.4522,W,000.0,202.4,220819,017.7,E*61
01DEC6,0226BD,00C4A3,$GPRMC,110000,A,5442.9351,N,11318.4525,W,000.0,202.4,220819,017.7,E*64
01DECB,0226C5,00C4A6,$GPRMC,110001,A,5442.9350,N,11318.4529,W,000.0,202.4,220819,017.7,E*68
01DECB,0226C5,00C4A5,$GPRMC,110002,A,5442.9349,N,11318.4532,W,000.0,202.4,220819,017.7,E*69
01DEC8,0226C0,00C4A4,$GPRMC,110003,A,5442.9347,N,11318.4535,W,000.0,202.4,220819,017.7,E*61
01DECC,0226C5,00C4A6,$GPRMC,110004,A,5442.9346,N,11318.4539,W,000.0,202.4,220819,017.7,E*6B
01DEC8,0226C2,00C4A5,$GPRMC,110005,A,5442.9344,N,11318.4543,W,000.0,202.4,220819,017.7,E*65
01DECA,0226C3,00C4A5,$GPRMC,110006,A,5442.9342,N,11318.4547,W,000.0,202.4,220819,017.7,E*64
01DECB,0226C5,00C4A6,$GPRMC,110007,A,5442.9341,N,11318.4551,W,000.0,202.4,220819,017.7,E*61
01DECC,0226C8,00C4A7,$GPRMC,110008,A,5442.9340,N,11318.4556,W,000.0,202.4,220819,017.7,E*68
01DECB,0226C4,00C4A5,$GPRMC,110009,A,5442.9338,N,11318.4560,W,000.0,202.4,220819,017.7,E*63
01DECB,0226C4,00C4A5,$GPRMC,110010,A,5442.9338,N,11318.4562,W,000.0,202.4,220819,017.7,E*69
01DEC9,0226C3,00C4A5,$GPRMC,110011,A,5442.9337,N,11318.4565,W,000.0,202.4,220819,017.7,E*60
01DECA,0226C4,00C4A5,$GPRMC,110012,A,5442.9336,N,11318.4567,W,000.0,202.4,220819,017.7,E*60
01DECB,0226C5,00C4A6,$GPRMC,110013,A,5442.9335,N,11318.4570,W,000.0,202.4,220819,017.7,E*64
01DECB,0226C5,00C4A5,$GPRMC,110014,A,5442.9333,N,11318.4577,W,000.0,202.4,220819,017.7,E*62
01DECE,0226C8,00C4A7,$GPRMC,110015,A,5442.9331,N,11318.4580,W,000.0,202.4,220819,017.7,E*69
01DECE,0226C9,00C4A7,$GPRMC,110016,A,5442.9329,N,11318.4585,W,000.0,202.4,220819,017.7,E*66
01DECE,0226CA,00C4A7,$GPRMC,110017,A,5442.9327,N,11318.4589,W,000.0,202.4,220819,017.7,E*65
01DECD,0226C9,00C4A7,$GPRMC,110018,A,5442.9325,N,11318.4593,W,000.0,202.4,220819,017.7,E*63
01DECC,0226C6,00C4A6,$GPRMC,110019,A,5442.9323,N,11318.4597,W,000.0,202.4,220819,017.7,E*60
01DECF,0226CC,00C4A8,$GPRMC,110020,A,5442.9321,N,11318.4601,W,000.0,202.4,220819,017.7,E*64
01DECC,0226C7,00C4A6,$GPRMC,110021,A,5442.9320,N,11318.4603,W,000.0,202.4,220819,017.7,E*66
01DECA,0226C4,00C4A5,$GPRMC,110022,A,5442.9319,N,11318.4604,W,000.0,202.4,220819,017.7,E*68
01DECC,0226C6,00C4A6,$GPRMC,110023,A,5442.9318,N,11318.4610,W,000.0,202.4,220819,017.7,E*6D
01DEC9,0226C2,00C4A5,$GPRMC,110024,A,5442.9320,N,11318.4593,W,000.0,202.4,220819,017.7,E*69
01DECB,0226C5,00C4A6,$GPRMC,110025,A,5442.9320,N,11318.4596,W,000.0,202.4,220819,017.7,E*6D
01DECC,0226C7,00C4A7,$GPRMC,110026,A,5442.9321,N,11318.4599,W,000.0,202.4,220819,017.7,E*60
01DECD,0226C8,00C4A6,$GPRMC,110027,A,5442.9320,N,11318.4603,W,000.0,202.4,220819,017.7,E*60
01DEC7,0226C1,00C4A3,$GPRMC,110028,A,5442.9319,N,11318.4608,W,000.0,202.4,220819,017.7,E*6E
01DECD,0226C9,00C4A7,$GPRMC,110029,A,5442.9318,N,11318.4613,W,000.0,202.4,220819,017.7,E*64
01DECC,0226C6,00C4A6,$GPRMC,110030,A,5442.9318,N,11318.4617,W,000.0,202.4,220819,017.7,E*68
01DECB,0226C4,00C4A6,$GPRMC,110031,A,5442.9319,N,11318.4620,W,000.0,202.4,220819,017.7,E*6C
01DEC9,0226C4,00C4A5,$GPRMC,110032,A,5442.9319,N,11318.4625,W,000.0,202.4,220819,017.7,E*6A
01DECD,0226C9,00C4A7,$GPRMC,110033,A,5442.9319,N,11318.4629,W,000.0,202.4,220819,017.7,E*67
01DECB,0226C6,00C4A6,$GPRMC,110034,A,5442.9319,N,11318.4633,W,000.0,202.4,220819,017.7,E*6B
01DECC,0226C8,00C4A7,$GPRMC,110035,A,5442.9319,N,11318.4637,W,000.0,202.4,220819,017.7,E*6E
01DECD,0226CA,00C4A8,$GPRMC,110036,A,5442.9318,N,11318.4641,W,000.0,202.4,220819,017.7,E*6D
01DECB,0226C4,00C4A6,$GPRMC,110037,A,5442.9320,N,11318.4645,W,000.0,202.4,220819,017.7,E*63
01DEC7,0226C1,00C4A4,$GPRMC,110038,A,5442.9319,N,11318.4648,W,000.0,202.4,220819,017.7,E*6B
01DEC7,0226C0,00C4A3,$GPRMC,110039,A,5442.9316,N,11318.4655,W,000.0,202.4,220819,017.7,E*69
01DEC9,0226C4,00C4A5,$GPRMC,110040,A,5442.9316,N,11318.4659,W,000.0,202.4,220819,017.7,E*6B
01DECA,0226C4,00C4A6,$GPRMC,110041,A,5442.9317,N,11318.4663,W,000.0,202.4,220819,017.7,E*62
01DEC8,0226C1,00C4A4,$GPRMC,110042,A,5442.9315,N,11318.4667,W,000.0,202.4,220819,017.7,E*67
01DEC9,0226C3,00C4A5,$GPRMC,110043,A,5442.9313,N,11318.4670,W,000.0,202.4,220819,017.7,E*66
01DEC7,0226BE,00C4A4,$GPRMC,110044,A,5442.9316,N,11318.4672,W,000.0,202.4,220819,017.7,E*66
01DEC5,0226BC,00C4A2,$GPRMC,110045,A,5442.9315,N,11318.4675,W,000.0,202.4,220819,017.7,E*63
01DEC7,0226BF,00C4A3,$GPRMC,110046,A,5442.9321,N,11318.4673,W,000.0,202.4,220819,017.7,E*61
01DEC8,0226C3,00C4A4,$GPRMC,110047,A,5442.9321,N,11318.4675,W,000.0,202.4,220819,017.7,E*66
01DEC8,0226C1,00C4A4,$GPRMC,110048,A,5442.9322,N,11318.4675,W,000.0,202.4,220819,017.7,E*6A
01DECB,0226C6,00C4A6,$GPRMC,110049,A,5442.9323,N,11318.4677,W,000.0,202.4,220819,017.7,E*68
01DEC9,0226C2,00C4A5,$GPRMC,110050,A,5442.9323,N,11318.4678,W,000.0,202.4,220819,017.7,E*6F
01DEC9,0226C3,00C4A5,$GPRMC,110051,A,5442.9325,N,11318.4680,W,000.0,202.4,220819,017.7,E*6F
01DEC9,0226C3,00C4A5,$GPRMC,110052,A,5442.9325,N,11318.4681,W,000.0,202.4,220819,017.7,E*6D
01DECC,0226C8,00C4A8,$GPRMC,110053,A,5442.9327,N,11318.4682,W,000.0,202.4,220819,017.7,E*6D
01DECB,0226C7,00C4A6,$GPRMC,110054,A,5442.9328,N,11318.4682,W,000.0,202.4,220819,017.7,E*65
01DECB,0226C8,00C4A6,$GPRMC,110055,A,5442.9330,N,11318.4683,W,000.0,202.4,220819,017.7,E*6C
01DEC8,0226C4,00C4A5,$GPRMC,110056,A,5442.9331,N,11318.4683,W,000.0,202.4,220819,017.7,E*6E
01DECA,0226C6,00C4A6,$GPRMC,110057,A,5442.9333,N,11318.4683,W,000.0,202.4,220819,017.7,E*6D
01DECD,0226CA,00C4A7,$GPRMC,110058,A,5442.9339,N,11318.4679,W,000.0,202.4,220819,017.7,E*6D
01DEC9,0226C5,00C4A5,$GPRMC,110059,A,5442.9345,N,11318.4675,W,000.0,202.4,220819,017.7,E*6B
01DECB,0226C9,00C4A6,$GPRMC,110100,A,5442.9350,N,11318.4671,W,000.0,202.4,220819,017.7,E*66
01DECE,0226CB,00C4A8,$GPRMC,110101,A,5442.9355,N,11318.4667,W,000.0,202.4,220819,017.7,E*65
01DEC8,0226C4,00C4A5,$GPRMC,110102,A,5442.9358,N,11318.4664,W,000.0,202.4,220819,017.7,E*68
01DECA,0226C7,00C4A6,$GPRMC,110103,A,5442.9361,N,11318.4660,W,000.0,202.4,220819,017.7,E*67
01DEC8,0226C3,00C4A4,$GPRMC,110104,A,5442.9360,N,11318.4658,W,000.0,202.4,220819,017.7,E*6A
01DEC7,0226C3,00C4A3,$GPRMC,110105,A,5442.9374,N,11318.4651,W,000.0,202.4,220819,017.7,E*67
01DEC8,0226C2,00C4A3,$GPRMC,110106,A,5442.9375,N,11318.4649,W,000.0,202.4,220819,017.7,E*6C
01DEC9,0226C5,00C4A5,$GPRMC,110107,A,5442.9386,N,11318.4642,W,000.0,202.4,220819,017.7,E*6A
01DECA,0226C9,00C4A6,$GPRMC,110108,A,5442.9397,N,11318.4635,W,000.0,202.4,220819,017.7,E*65
01DEC9,0226C5,00C4A5,$GPRMC,110109,A,5442.9407,N,11318.4628,W,000.0,202.4,220819,017.7,E*66
01DECC,0226CA,00C4A6,$GPRMC,110110,A,5442.9418,N,11318.4622,W,000.0,202.4,220819,017.7,E*6A
01DEC5,0226C0,00C4A2,$GPRMC,110111,A,5442.9419,N,11318.4622,W,000.0,202.4,220819,017.7,E*6A
01DECC,0226CA,00C4A6,$GPRMC,110112,A,5442.9410,N,11318.4629,W,000.0,202.4,220819,017.7,E*6B
01DEC7,0226C2,00C4A3,$GPRMC,110113,A,5442.9410,N,11318.4630,W,000.0,202.4,220819,017.7,E*62
01DECB,0226C7,00C4A5,$GPRMC,110114,A,5442.9405,N,11318.4633,W,000.0,202.4,220819,017.7,E*62
01DECA,0226C5,00C4A4,$GPRMC,110115,A,5442.9400,N,11318.4635,W,000.0,202.4,220819,017.7,E*60
01DEC9,0226C5,00C4A4,$GPRMC,110116,A,5442.9395,N,11318.4639,W,000.0,202.4,220819,017.7,E*64
01DEC7,0226C2,00C4A3,$GPRMC,110117,A,5442.9390,N,11318.4643,W,000.0,202.4,220819,017.7,E*6D
01DEC9,0226C4,00C4A4,$GPRMC,110118,A,5442.9385,N,11318.4647,W,000.0,202.4,220819,017.7,E*62
01DEC5,0226BE,00C4A1,$GPRMC,110119,A,5442.9378,N,11318.4656,W,000.0,202.4,220819,017.7,E*61
01DECA,0226C7,00C4A5,$GPRMC,110120,A,5442.9374,N,11318.4657,W,000.0,202.4,220819,017.7,E*66
01DEC8,0226C2,00C4A3,$GPRMC,110121,A,5442.9368,N,11318.4663,W,000.0,202.4,220819,017.7,E*6D
01DEC8,0226C3,00C4A3,$GPRMC,110122,A,5442.9362,N,11318.4668,W,000.0,202.4,220819,017.7,E*6F
01DECB,0226C7,00C4A4,$GPRMC,110123,A,5442.9356,N,11318.4674,W,000.0,202.4,220819,017.7,E*64
01DECC,0226C9,00C4A5,$GPRMC,110124,A,5442.9351,N,11318.4679,W,000.0,202.4,220819,017.7,E*69
01DECA,0226C6,00C4A4,$GPRMC,110125,A,5442.9346,N,11318.4683,W,000.0,202.4,220819,017.7,E*6B
01DECC,0226CA,00C4A5,$GPRMC,110126,A,5442.9342,N,11318.4688,W,000.0,202.4,220819,017.7,E*67
01DECB,0226C8,00C4A5,$GPRMC,110127,A,5442.9337,N,11318.4691,W,000.0,202.4,220819,017.7,E*6C
01DECC,0226C8,00C4A5,$GPRMC,110128,A,5442.9334,N,11318.4685,W,000.0,202.4,220819,017.7,E*65
01DECB,0226C7,00C4A5,$GPRMC,110129,A,5442.9331,N,11318.4685,W,000.0,202.4,220819,017.7,E*61
01DECE,0226CC,00C4A6,$GPRMC,110130,A,5442.9329,N,11318.4685,W,000.0,202.4,220819,017.7,E*60
01DECB,0226C8,00C4A5,$GPRMC,110131,A,5442.9327,N,11318.4685,W,000.0,202.4,220819,017.7,E*6F
01DECA,0226C7,00C4A5,$GPRMC,110132,A,5442.9326,N,11318.4684,W,000.0,202.4,220819,017.7,E*6C
01DEC9,0226C7,00C4A4,$GPRMC,110133,A,5442.9324,N,11318.4685,W,000.0,202.4,220819,017.7,E*6E
01DEC8,0226C3,00C4A3,$GPRMC,110134,A,5442.9325,N,11318.4682,W,000.0,202.4,220819,017.7,E*6F
01DEC9,0226C7,00C4A4,$GPRMC,110135,A,5442.9324,N,11318.4678,W,000.0,202.4,220819,017.7,E*6A
01DEC7,0226C2,00C4A2,$GPRMC,110136,A,5442.9323,N,11318.4674,W,000.0,202.4,220819,017.7,E*62
01DECA,0226C9,00C4A5,$GPRMC,110137,A,5442.9323,N,11318.4670,W,000.0,202.4,220819,017.7,E*67
01DECB,0226CA,00C4A6,$GPRMC,110138,A,5442.9322,N,11318.4667,W,000.0,202.4,220819,017.7,E*6F
01DEC9,0226C7,00C4A5,$GPRMC,110139,A,5442.9321,N,11318.4665,W,000.0,202.4,220819,017.7,E*6F
01DECA,0226C7,00C4A5,$GPRMC,110140,A,5442.9319,N,11318.4664,W,000.0,202.4,220819,017.7,E*6B
01DEC8,0226C6,00C4A4,$GPRMC,110141,A,5442.9316,N,11318.4664,W,000.0,202.4,220819,017.7,E*65
01DEC9,0226C7,00C4A5,$GPRMC,110142,A,5442.9313,N,11318.4664,W,000.0,202.4,220819,017.7,E*63
01DECB,0226C9,00C4A5,$GPRMC,110143,A,5442.9310,N,11318.4665,W,000.0,202.4,220819,017.7,E*60
01DECD,0226CC,00C4A6,$GPRMC,110144,A,5442.9307,N,11318.4667,W,000.0,202.4,220819,017.7,E*63
01DECB,0226C9,00C4A6,$GPRMC,110145,A,5442.9303,N,11318.4669,W,000.0,202.4,220819,017.7,E*68
01DEC9,0226C5,00C4A5,$GPRMC,110146,A,5442.9300,N,11318.4673,W,000.0,202.4,220819,017.7,E*63
01DEC9,0226C7,00C4A5,$GPRMC,110147,A,5442.9297,N,11318.4676,W,000.0,202.4,220819,017.7,E*68
01DEC9,0226C6,00C4A5,$GPRMC,110148,A,5442.9293,N,11318.4678,W,000.0,202.4,220819,017.7,E*6D
01DECB,0226CA,00C4A6,$GPRMC,110149,A,5442.9290,N,11318.4679,W,000.0,202.4,220819,017.7,E*6E
01DEC8,0226C7,00C4A5,$GPRMC,110150,A,5442.9287,N,11318.4681,W,000.0,202.4,220819,017.7,E*67
01DEC6,0226C3,00C4A4,$GPRMC,110151,A,5442.9286,N,11318.4679,W,000.0,202.4,220819,017.7,E*60
01DEC7,0226C3,00C4A4,$GPRMC,110152,A,5442.9284,N,11318.4673,W,000.0,202.4,220819,017.7,E*6B
01DEC8,0226C5,00C4A5,$GPRMC,110153,A,5442.9283,N,11318.4668,W,000.0,202.4,220819,017.7,E*67
01DEC9,0226C7,00C4A6,$GPRMC,110154,A,5442.9284,N,11318.4668,W,000.0,202.4,220819,017.7,E*67
01DECC,0226CB,00C4A8,$GPRMC,110155,A,5442.9285,N,11318.4667,W,000.0,202.4,220819,017.7,E*68
01DEC8,0226C5,00C4A5,$GPRMC,110156,A,5442.9284,N,11318.4672,W,000.0,202.4,220819,017.7,E*6E
01DEC7,0226C3,00C4A4,$GPRMC,110157,A,5442.9284,N,11318.4676,W,000.0,202.4,220819,017.7,E*6B
01DECC,0226CA,00C4A7,$GPRMC,110158,A,5442.9284,N,11318.4680,W,000.0,202.4,220819,017.7,E*6D
01DECA,0226C7,00C4A5,$GPRMC,110159,A,5442.9285,N,11318.4682,W,000.0,202.4,220819,017.7,E*6F
01DECB,0226CA,00C4A6,$GPRMC,110200,A,5442.9286,N,11318.4685,W,000.0,202.4,220819,017.7,E*64
01DEC7,0226C4,00C4A4,$GPRMC,110201,A,5442.9286,N,11318.4687,W,000.0,202.4,220819,017.7,E*67
01DECB,0226C9,00C4A6,$GPRMC,110202,A,5442.9286,N,11318.4689,W,000.0,202.4,220819,017.7,E*6A
01DEC4,0226C0,00C4A2,$GPRMC,110203,A,5442.9286,N,11318.4690,W,000.0,202.4,220819,017.7,E*63
01DECA,0226C8,00C4A6,$GPRMC,110204,A,5442.9287,N,11318.4689,W,000.0,202.4,220819,017.7,E*6D
01DEC8,0226C6,00C4A5,$GPRMC,110205,A,5442.9288,N,11318.4689,W,000.0,202.4,220819,017.7,E*63
01DEC6,0226C2,00C4A4,$GPRMC,110206,A,5442.9290,N,11318.4688,W,000.0,202.4,220819,017.7,E*68
01DEC9,0226C8,00C4A6,$GPRMC,110207,A,5442.9291,N,11318.4687,W,000.0,202.4,220819,017.7,E*67
01DEC6,0226C4,00C4A4,$GPRMC,110208,A,5442.9291,N,11318.4688,W,000.0,202.4,220819,017.7,E*67
01DEC8,0226C6,00C4A4,$GPRMC,110209,A,5442.9291,N,11318.4689,W,000.0,202.4,220819,017.7,E*67
01DEC8,0226C6,00C4A4,$GPRMC,110210,A,5442.9292,N,11318.4688,W,000.0,202.4,220819,017.7,E*6D
01DEC6,0226C6,00C4A4,$GPRMC,110211,A,5442.9292,N,11318.4689,W,000.0,202.4,220819,017.7,E*6D
01DECC,0226CE,00C4A8,$GPRMC,110212,A,5442.9292,N,11318.4689,W,000.0,202.4,220819,017.7,E*6E
01DEC8,0226C9,00C4A5,$GPRMC,110213,A,5442.9291,N,11318.4690,W,000.0,202.4,220819,017.7,E*64
01DEC6,0226C6,00C4A4,$GPRMC,110214,A,5442.9290,N,11318.4690,W,000.0,202.4,220819,017.7,E*62
01DEC5,0226C5,00C4A4,$GPRMC,110215,A,5442.9288,N,11318.4693,W,000.0,202.4,220819,017.7,E*69
01DEC8,0226CB,00C4A6,$GPRMC,110216,A,5442.9286,N,11318.4694,W,000.0,202.4,220819,017.7,E*63
01DEC7,0226C8,00C4A5,$GPRMC,110217,A,5442.9285,N,11318.4696,W,000.0,202.4,220819,017.7,E*63
01DEC8,0226CB,00C4A6,$GPRMC,110218,A,5442.9286,N,11318.4697,W,000.0,202.4,220819,017.7,E*6E
01DEC7,0226C7,00C4A5,$GPRMC,110219,A,5442.9285,N,11318.4699,W,000.0,202.4,220819,017.7,E*62
01DEC7,0226CA,00C4A5,$GPRMC,110220,A,5442.9283,N,11318.4700,W,000.0,202.4,220819,017.7,E*6F
01DEC9,0226CA,00C4A6,$GPRMC,110221,A,5442.9282,N,11318.4700,W,000.0,202.4,220819,017.7,E*6F
01DEC7,0226C9,00C4A4,$GPRMC,110222,A,5442.9280,N,11318.4701,W,000.0,202.4,220819,017.7,E*6F
01DEC8,0226CC,00C4A6,$GPRMC,110223,A,5442.9278,N,11318.4702,W,000.0,202.4,220819,017.7,E*6A
01DEC6,0226C8,00C4A5,$GPRMC,110224,A,5442.9277,N,11318.4703,W,000.0,202.4,220819,017.7,E*63
01DEC5,0226C6,00C4A4,$GPRMC,110225,A,5442.9276,N,11318.4700,W,000.0,202.4,220819,017.7,E*60
01DEC4,0226C5,00C4A3,$GPRMC,110226,A,5442.9276,N,11318.4698,W,000.0,202.4,220819,017.7,E*63
01DEC5,0226C7,00C4A4,$GPRMC,110227,A,5442.9275,N,11318.4694,W,000.0,202.4,220819,017.7,E*6D
01DEC4,0226C5,00C4A4,$GPRMC,110228,A,5442.9275,N,11318.4691,W,000.0,202.4,220819,017.7,E*67
01DEC3,0226C4,00C4A2,$GPRMC,110229,A,5442.9276,N,11318.4688,W,000.0,202.4,220819,017.7,E*6D
01DEC5,0226C6,00C4A4,$GPRMC,110230,A,5442.9277,N,11318.4684,W,000.0,202.4,220819,017.7,E*68
01DEC5,0226C8,00C4A4,$GPRMC,110231,A,5442.9279,N,11318.4681,W,000.0,202.4,220819,017.7,E*62
01DEC6,0226C8,00C4A4,$GPRMC,110232,A,5442.9280,N,11318.4679,W,000.0,202.4,220819,017.7,E*60
01DEC6,0226C8,00C4A5,$GPRMC,110233,A,5442.9284,N,11318.4675,W,000.0,202.4,220819,017.7,E*69
01DEC5,0226C6,00C4A4,$GPRMC,110234,A,5442.9287,N,11318.4671,W,000.0,202.4,220819,017.7,E*69
01DEC9,0226CC,00C4A7,$GPRMC,110235,A,5442.9291,N,11318.4668,W,000.0,202.4,220819,017.7,E*67
01DEC8,0226CB,00C4A6,$GPRMC,110236,A,5442.9295,N,11318.4666,W,000.0,202.4,220819,017.7,E*6E
01DEC9,0226CC,00C4A6,$GPRMC,110237,A,5442.9299,N,11318.4664,W,000.0,202.4,220819,017.7,E*61
01DEC7,0226C9,00C4A5,$GPRMC,110238,A,5442.9302,N,11318.4662,W,000.0,202.4,220819,017.7,E*6B
01DEC9,0226CE,00C4A7,$GPRMC,110239,A,5442.9306,N,11318.4660,W,000.0,202.4,220819,017.7,E*6C
01DECB,0226CE,00C4A7,$GPRMC,110240,A,5442.9308,N,11318.4659,W,000.0,202.4,220819,017.7,E*66
01DEC7,0226CA,00C4A6,$GPRMC,110241,A,5442.9309,N,11318.4658,W,000.0,202.4,220819,017.7,E*67
01DEC8,0226CC,00C4A6,$GPRMC,110242,A,5442.9310,N,11318.4657,W,000.0,202.4,220819,017.7,E*63
01DEC9,0226CE,00C4A6,$GPRMC,110243,A,5442.9312,N,11318.4655,W,000.0,202.4,220819,017.7,E*62
01DEC5,0226C7,00C4A4,$GPRMC,110244,A,5442.9317,N,11318.4655,W,000.0,202.4,220819,017.7,E*60
01DEC4,0226C5,00C4A4,$GPRMC,110245,A,5442.9319,N,11318.4653,W,000.0,202.4,220819,017.7,E*69
01DEC8,0226CB,00C4A6,$GPRMC,110246,A,5442.9322,N,11318.4652,W,000.0,202.4,220819,017.7,E*63
01DEC7,0226C8,00C4A5,$GPRMC,110247,A,5442.9325,N,11318.4652,W,000.0,202.4,220819,017.7,E*65
01DEC8,0226CB,00C4A6,$GPRMC,110248,A,5442.9327,N,11318.4651,W,000.0,202.4,220819,017.7,E*6B
01DEC7,0226C9,00C4A6,$GPRMC,110249,A,5442.9329,N,11318.4650,W,000.0,202.4,220819,017.7,E*65
01DECA,0226CE,00C4A8,$GPRMC,110250,A,5442.9330,N,11318.4648,W,000.0,202.4,220819,017.7,E*6C
01DEC7,0226C9,00C4A5,$GPRMC,110251,A,5442.9332,N,11318.4648,W,000.0,202.4,220819,017.7,E*6F
01DEC9,0226CC,00C4A7,$GPRMC,110252,A,5442.9333,N,11318.4645,W,000.0,202.4,220819,017.7,E*60
01DECA,0226CD,00C4A7,$GPRMC,110253,A,5442.9332,N,11318.4635,W,000.0,202.4,220819,017.7,E*67
01DEC5,0226C6,00C4A5,$GPRMC,110254,A,5442.9331,N,11318.4627,W,000.0,202.4,220819,017.7,E*60
01DEC9,0226CC,00C4A7,$GPRMC,110255,A,5442.9334,N,11318.4628,W,000.0,202.4,220819,017.7,E*6B
01DEC5,0226C6,00C4A5,$GPRMC,110256,A,5442.9334,N,11318.4621,W,000.0,202.4,220819,017.7,E*61
01DEC7,0226C7,00C4A5,$GPRMC,110257,A,5442.9335,N,11318.4617,W,000.0,202.4,220819,017.7,E*64
01DEC8,0226C9,00C4A6,$GPRMC,110258,A,5442.9336,N,11318.4611,W,000.0,202.4,220819,017.7,E*6E
01DEC5,0226C6,00C4A4,$GPRMC,110259,A,5442.9339,N,11318.4614,W,000.0,202.4,220819,017.7,E*65
01DECA,0226CC,00C4A7,$GPRMC,110300,A,5442.9343,N,11318.4615,W,000.0,202.4,220819,017.7,E*64
01DEC9,0226CC,00C4A7,$GPRMC,110301,A,5442.9346,N,11318.4617,W,000.0,202.4,220819,017.7,E*62
01DECA,0226CC,00C4A7,$GPRMC,110302,A,5442.9350,N,11318.4618,W,000.0,202.4,220819,017.7,E*69
01DEC8,0226C9,00C4A6,$GPRMC,110303,A,5442.9352,N,11318.4618,W,000.0,202.4,220819,017.7,E*6A
01DECD,0226CF,00C4A9,$GPRMC,110304,A,5442.9354,N,11318.4618,W,000.0,202.4,220819,017.7,E*6B
01DEC6,0226C8,00C4A5,$GPRMC,110305,A,5442.9358,N,11318.4621,W,000.0,202.4,220819,017.7,E*6C
01DEC8,0226C9,00C4A6,$GPRMC,110306,A,5442.9361,N,11318.4622,W,000.0,202.4,220819,017.7,E*66
01DEC3,0226C3,00C4A4,$GPRMC,110307,A,5442.9364,N,11318.4623,W,000.0,202.4,220819,017.7,E*63
01DECB,0226CD,00C4A8,$GPRMC,110308,A,5442.9363,N,11318.4619,W,000.0,202.4,220819,017.7,E*62
01DECB,0226CE,00C4A8,$GPRMC,110309,A,5442.9361,N,11318.4614,W,000.0,202.4,220819,017.7,E*6C
01DECD,0226D2,00C4AA,$GPRMC,110310,A,5442.9360,N,11318.4610,W,000.0,202.4,220819,017.7,E*61
01DECA,0226CC,00C4A8,$GPRMC,110311,A,5442.9362,N,11318.4610,W,000.0,202.4,220819,017.7,E*62
01DECA,0226CD,00C4A8,$GPRMC,110312,A,5442.9361,N,11318.4605,W,000.0,202.4,220819,017.7,E*66
01DEC9,0226CC,00C4A7,$GPRMC,110313,A,5442.9360,N,11318.4601,W,000.0,202.4,220819,017.7,E*62
01DECC,0226D0,00C4A8,$GPRMC,110314,A,5442.9359,N,11318.4597,W,000.0,202.4,220819,017.7,E*63
01DECC,0226D0,00C4A9,$GPRMC,110315,A,5442.9359,N,11318.4594,W,000.0,202.4,220819,017.7,E*61
01DECD,0226D0,00C4A9,$GPRMC,110316,A,5442.9358,N,11318.4591,W,000.0,202.4,220819,017.7,E*66
01DECB,0226CE,00C4A8,$GPRMC,110317,A,5442.9358,N,11318.4589,W,000.0,202.4,220819,017.7,E*6E
01DECC,0226D1,00C4A9,$GPRMC,110318,A,5442.9359,N,11318.4587,W,000.0,202.4,220819,017.7,E*6E
01DEC8,0226C9,00C4A6,$GPRMC,110319,A,5442.9360,N,11318.4587,W,000.0,202.4,220819,017.7,E*65
01DECC,0226CE,00C4A9,$GPRMC,110320,A,5442.9361,N,11318.4587,W,000.0,202.4,220819,017.7,E*6E
01DECD,0226D1,00C4A9,$GPRMC,110321,A,5442.9360,N,11318.4588,W,000.0,202.4,220819,017.7,E*61
01DEC8,0226CA,00C4A7,$GPRMC,110322,A,5442.9361,N,11318.4588,W,000.0,202.4,220819,017.7,E*63
01DECA,0226CD,00C4A7,$GPRMC,110323,A,5442.9361,N,11318.4589,W,000.0,202.4,220819,017.7,E*63
01DECC,0226CF,00C4A8,$GPRMC,110324,A,5442.9361,N,11318.4590,W,000.0,202.4,220819,017.7,E*6C
01DEC9,0226CC,00C4A8,$GPRMC,110325,A,5442.9362,N,11318.4591,W,000.0,202.4,220819,017.7,E*6F
01DECC,0226D0,00C4A8,$GPRMC,110326,A,5442.9362,N,11318.4591,W,000.0,202.4,220819,017.7,E*6C
01DECB,0226D0,00C4A8,$GPRMC,110327,A,5442.9361,N,11318.4593,W,000.0,202.4,220819,017.7,E*6C
01DECC,0226D0,00C4A9,$GPRMC,110328,A,5442.9360,N,11318.4595,W,000.0,202.4,220819,017.7,E*64
01DECD,0226D1,00C4A9,$GPRMC,110329,A,5442.9359,N,11318.4597,W,000.0,202.4,220819,017.7,E*6D
01DECB,0226CF,00C4A8,$GPRMC,110330,A,5442.9357,N,11318.4599,W,000.0,202.4,220819,017.7,E*65
01DEC8,0226CC,00C4A6,$GPRMC,110331,A,5442.9355,N,11318.4600,W,000.0,202.4,220819,017.7,E*65
01DECB,0226D0,00C4A8,$GPRMC,110332,A,5442.9354,N,11318.4601,W,000.0,202.4,220819,017.7,E*66
01DEC8,0226CA,00C4A6,$GPRMC,110333,A,5442.9354,N,11318.4601,W,000.0,202.4,220819,017.7,E*67
01DEC8,0226CD,00C4A7,$GPRMC,110334,A,5442.9354,N,11318.4601,W,000.0,202.4,220819,017.7,E*60
01DECC,0226D1,00C4A8,$GPRMC,110335,A,5442.9354,N,11318.4604,W,000.0,202.4,220819,017.7,E*64
01DEC7,0226CA,00C4A4,$GPRMC,110336,A,5442.9353,N,11318.4606,W,000.0,202.4,220819,017.7,E*62
01DEC5,0226C8,00C4A4,$GPRMC,110337,A,5442.9352,N,11318.4606,W,000.0,202.4,220819,017.7,E*62
01DECB,0226D1,00C4A9,$GPRMC,110338,A,5442.9351,N,11318.4606,W,000.0,202.4,220819,017.7,E*6E
01DEC7,0226CB,00C4A6,$GPRMC,110339,A,5442.9351,N,11318.4605,W,000.0,202.4,220819,017.7,E*6C
01DEC5,0226C8,00C4A4,$GPRMC,110340,A,5442.9350,N,11318.4605,W,000.0,202.4,220819,017.7,E*63
01DECA,0226CE,00C4A7,$GPRMC,110341,A,5442.9350,N,11318.4604,W,000.0,202.4,220819,017.7,E*63
01DEC8,0226CB,00C4A6,$GPRMC,110342,A,5442.9349,N,11318.4602,W,000.0,202.4,220819,017.7,E*6E
01DEC4,0226C6,00C4A3,$GPRMC,110343,A,5442.9348,N,11318.4601,W,000.0,202.4,220819,017.7,E*6D
01DEC8,0226CC,00C4A6,$GPRMC,110344,A,5442.9347,N,11318.4599,W,000.0,202.4,220819,017.7,E*67
01DEC4,0226C5,00C4A3,$GPRMC,110345,A,5442.9346,N,11318.4598,W,000.0,202.4,220819,017.7,E*66
01DEC5,0226C9,00C4A4,$GPRMC,110346,A,5442.9346,N,11318.4598,W,000.0,202.4,220819,017.7,E*65
01DEC4,0226C5,00C4A3,$GPRMC,110347,A,5442.9345,N,11318.4597,W,000.0,202.4,220819,017.7,E*68
01DEC4,0226C7,00C4A4,$GPRMC,110348,A,5442.9343,N,11318.4596,W,000.0,202.4,220819,017.7,E*60
01DEC6,0226C9,00C4A5,$GPRMC,110349,A,5442.9343,N,11318.4596,W,000.0,202.4,220819,017.7,E*61
01DEC2,0226C4,00C4A3,$GPRMC,110350,A,5442.9343,N,11318.4596,W,000.0,202.4,220819,017.7,E*69
01DEC4,0226C6,00C4A4,$GPRMC,110351,A,5442.9343,N,11318.4595,W,000.0,202.4,220819,017.7,E*6B
01DEC2,0226C4,00C4A2,$GPRMC,110352,A,5442.9344,N,11318.4596,W,000.0,202.4,220819,017.7,E*6C
01DEC8,0226CB,00C4A5,$GPRMC,110353,A,5442.9346,N,11318.4598,W,000.0,202.4,220819,017.7,E*61
01DECB,0226D0,00C4A8,$GPRMC,110354,A,5442.9348,N,11318.4600,W,000.0,202.4,220819,017.7,E*6A
01DECA,0226D0,00C4A7,$GPRMC,110355,A,5442.9350,N,11318.4602,W,000.0,202.4,220819,017.7,E*60
01DEC8,0226CB,00C4A5,$GPRMC,110356,A,5442.9351,N,11318.4604,W,000.0,202.4,220819,017.7,E*64
01DECA,0226CE,00C4A7,$GPRMC,110357,A,5442.9352,N,11318.4605,W,000.0,202.4,220819,017.7,E*67
01DEC9,0226CC,00C4A6,$GPRMC,110358,A,5442.9353,N,11318.4605,W,000.0,202.4,220819,017.7,E*69
01DECD,0226D3,00C4A8,$GPRMC,110359,A,5442.9354,N,11318.4606,W,000.0,202.4,220819,017.7,E*6C
01DEC6,0226C9,00C4A4,$GPRMC,110400,A,5442.9351,N,11318.4605,W,000.0,202.4,220819,017.7,E*61
01DEC7,0226CA,00C4A5,$GPRMC,110401,A,5442.9348,N,11318.4605,W,000.0,202.4,220819,017.7,E*68
01DECB,0226D0,00C4A8,$GPRMC,110402,A,5442.9345,N,11318.4605,W,000.0,202.4,220819,017.7,E*66
01DEC6,0226C9,00C4A5,$GPRMC,110403,A,5442.9342,N,11318.4605,W,000.0,202.4,220819,017.7,E*60
01DEC7,0226CD,00C4A6,$GPRMC,110404,A,5442.9342,N,11318.4603,W,000.0,202.4,220819,017.7,E*61
01DECA,0226CF,00C4A7,$GPRMC,110405,A,5442.9343,N,11318.4603,W,000.0,202.4,220819,017.7,E*61
01DEC9,0226CD,00C4A6,$GPRMC,110406,A,5442.9344,N,11318.4601,W,000.0,202.4,220819,017.7,E*67
01DECA,0226CF,00C4A6,$GPRMC,110407,A,5442.9344,N,11318.4600,W,000.0,202.4,220819,017.7,E*67
01DEC9,0226CF,00C4A6,$GPRMC,110408,A,5442.9345,N,11318.4599,W,000.0,202.4,220819,017.7,E*6A
01DECE,0226D5,00C4A9,$GPRMC,110409,A,5442.9346,N,11318.4598,W,000.0,202.4,220819,017.7,E*69
01DEC5,0226C8,00C4A4,$GPRMC,110410,A,5442.9348,N,11318.4599,W,000.0,202.4,220819,017.7,E*6E
01DEC7,0226CC,00C4A5,$GPRMC,110411,A,5442.9350,N,11318.4600,W,000.0,202.4,220819,017.7,E*65
01DEC5,0226CA,00C4A3,$GPRMC,110412,A,5442.9349,N,11318.4601,W,000.0,202.4,220819,017.7,E*6F
01DEC7,0226CC,00C4A5,$GPRMC,110413,A,5442.9348,N,11318.4601,W,000.0,202.4,220819,017.7,E*6F
01DEC8,0226CD,00C4A6,$GPRMC,110414,A,5442.9347,N,11318.4602,W,000.0,202.4,220819,017.7,E*64
01DEC9,0226CE,00C4A6,$GPRMC,110415,A,5442.9345,N,11318.4603,W,000.0,202.4,220819,017.7,E*66
01DECA,0226D1,00C4A7,$GPRMC,110416,A,5442.9344,N,11318.4604,W,000.0,202.4,220819,017.7,E*63
01DEC6,0226CB,00C4A4,$GPRMC,110417,A,5442.9343,N,11318.4604,W,000.0,202.4,220819,017.7,E*65
01DECA,0226D1,00C4A6,$GPRMC,110418,A,5442.9341,N,11318.4605,W,000.0,202.4,220819,017.7,E*69
01DEC5,0226CA,00C4A3,$GPRMC,110419,A,5442.9340,N,11318.4605,W,000.0,202.4,220819,017.7,E*69
01DECB,0226D4,00C4A7,$GPRMC,110420,A,5442.9338,N,11318.4605,W,000.0,202.4,220819,017.7,E*6C
01DEC8,0226CE,00C4A5,$GPRMC,110421,A,5442.9337,N,11318.4605,W,000.0,202.4,220819,017.7,E*62
01DEC9,0226D2,00C4A7,$GPRMC,110422,A,5442.9338,N,11318.4603,W,000.0,202.4,220819,017.7,E*68
01DEC7,0226CE,00C4A4,$GPRMC,110423,A,5442.9334,N,11318.4604,W,000.0,202.4,220819,017.7,E*62
01DEC6,0226CE,00C4A4,$GPRMC,110424,A,5442.9332,N,11318.4604,W,000.0,202.4,220819,017.7,E*63
01DEC4,0226C9,00C4A3,$GPRMC,110425,A,5442.9334,N,11318.4602,W,000.0,202.4,220819,017.7,E*62
01DEC7,0226CF,00C4A5,$GPRMC,110426,A,5442.9338,N,11318.4601,W,000.0,202.4,220819,017.7,E*6E
01DEC6,0226CD,00C4A4,$GPRMC,110427,A,5442.9340,N,11318.4600,W,000.0,202.4,220819,017.7,E*61
01DEC8,0226D0,00C4A5,$GPRMC,110428,A,5442.9342,N,11318.4599,W,000.0,202.4,220819,017.7,E*6F
01DEC4,0226CA,00C4A2,$GPRMC,110429,A,5442.9344,N,11318.4598,W,000.0,202.4,220819,017.7,E*69
01DECA,0226D3,00C4A6,$GPRMC,110430,A,5442.9346,N,11318.4598,W,000.0,202.4,220819,017.7,E*63
01DEC3,0226CA,00C4A3,$GPRMC,110431,A,5442.9348,N,11318.4598,W,000.0,202.4,220819,017.7,E*6C
01DEC6,0226CE,00C4A5,$GPRMC,110432,A,5442.9350,N,11318.4598,W,000.0,202.4,220819,017.7,E*66
01DEC7,0226CF,00C4A5,$GPRMC,110433,A,5442.9351,N,11318.4597,W,000.0,202.4,220819,017.7,E*69
01DEC5,0226CF,00C4A5,$GPRMC,110434,A,5442.9341,N,11318.4602,W,000.0,202.4,220819,017.7,E*60
01DEC7,0226D0,00C4A6,$GPRMC,110435,A,5442.9342,N,11318.4603,W,000.0,202.4,220819,017.7,E*63
01DEC7,0226D0,00C4A6,$GPRMC,110436,A,5442.9344,N,11318.4603,W,000.0,202.4,220819,017.7,E*66
01DEC9,0226D2,00C4A7,$GPRMC,110437,A,5442.9337,N,11318.4607,W,000.0,202.4,220819,017.7,E*67
01DEC7,0226CF,00C4A5,$GPRMC,110438,A,5442.9331,N,11318.4611,W,000.0,202.4,220819,017.7,E*69
01DEC3,0226CC,00C4A3,$GPRMC,110439,A,5442.9323,N,11318.4614,W,000.0,202.4,220819,017.7,E*6E
01DEC6,0226CF,00C4A5,$GPRMC,110440,A,5442.9316,N,11318.4618,W,000.0,202.4,220819,017.7,E*6A
01DEC6,0226D0,00C4A5,$GPRMC,110441,A,5442.9309,N,11318.4623,W,000.0,202.4,220819,017.7,E*6D
01DEC8,0226D1,00C4A6,$GPRMC,110442,A,5442.9303,N,11318.4627,W,000.0,202.4,220819,017.7,E*60
01DEC7,0226D2,00C4A6,$GPRMC,110443,A,5442.9296,N,11318.4631,W,000.0,202.4,220819,017.7,E*6B
01DEC6,0226D0,00C4A5,$GPRMC,110444,A,5442.9299,N,11318.4630,W,000.0,202.4,220819,017.7,E*62
01DEC6,0226CF,00C4A5,$GPRMC,110445,A,5442.9294,N,11318.4633,W,000.0,202.4,220819,017.7,E*6D
01DEC7,0226D1,00C4A5,$GPRMC,110446,A,5442.9296,N,11318.4634,W,000.0,202.4,220819,017.7,E*6B
01DEC6,0226D0,00C4A5,$GPRMC,110447,A,5442.9296,N,11318.4634,W,000.0,202.4,220819,017.7,E*6A
01DEC8,0226D4,00C4A7,$GPRMC,110448,A,5442.9297,N,11318.4634,W,000.0,202.4,220819,017.7,E*64
01DEC8,0226D3,00C4A6,$GPRMC,110449,A,5442.9299,N,11318.4634,W,000.0,202.4,220819,017.7,E*6B
01DEC8,0226D5,00C4A7,$GPRMC,110450,A,5442.9301,N,11318.4634,W,000.0,202.4,220819,017.7,E*63
01DEC3,0226CD,00C4A4,$GPRMC,110451,A,5442.9306,N,11318.4632,W,000.0,202.4,220819,017.7,E*63
01DEC6,0226D0,00C4A5,$GPRMC,110452,A,5442.9310,N,11318.4630,W,000.0,202.4,220819,017.7,E*65
01DEC8,0226D6,00C4A6,$GPRMC,110453,A,5442.9315,N,11318.4629,W,000.0,202.4,220819,017.7,E*69
01DEC4,0226CD,00C4A3,$GPRMC,110454,A,5442.9319,N,11318.4627,W,000.0,202.4,220819,017.7,E*6C
01DEC4,0226CF,00C4A4,$GPRMC,110455,A,5442.9324,N,11318.4625,W,000.0,202.4,220819,017.7,E*61
01DEC5,0226D1,00C4A6,$GPRMC,110456,A,5442.9328,N,11318.4624,W,000.0,202.4,220819,017.7,E*6F
01DEC4,0226CF,00C4A4,$GPRMC,110457,A,5442.9332,N,11318.4622,W,000.0,202.4,220819,017.7,E*63
01DEC7,0226D4,00C4A6,$GPRMC,110458,A,5442.9335,N,11318.4620,W,000.0,202.4,220819,017.7,E*69
01DEC5,0226D0,00C4A5,$GPRMC,110459,A,5442.9340,N,11318.4619,W,000.0,202.4,220819,017.7,E*60
01DEC6,0226D5,00C4A6,$GPRMC,110500,A,5442.9344,N,11318.4617,W,000.0,202.4,220819,017.7,E*67
01DEC1,0226CB,00C4A3,$GPRMC,110501,A,5442.9349,N,11318.4616,W,000.0,202.4,220819,017.7,E*6A
01DEC7,0226D5,00C4A7,$GPRMC,110502,A,5442.9352,N,11318.4613,W,000.0,202.4,220819,017.7,E*66
01DEC3,0226CD,00C4A4,$GPRMC,110503,A,5442.9356,N,11318.4611,W,000.0,202.4,220819,017.7,E*61
01DEC2,0226CD,00C4A3,$GPRMC,110504,A,5442.9360,N,11318.4609,W,000.0,202.4,220819,017.7,E*6A
01DEC8,0226D5,00C4A7,$GPRMC,110505,A,5442.9361,N,11318.4608,W,000.0,202.4,220819,017.7,E*6B
01DEC4,0226D0,00C4A4,$GPRMC,110506,A,5442.9365,N,11318.4606,W,000.0,202.4,220819,017.7,E*62
01DEC4,0226D0,00C4A4,$GPRMC,110507,A,5442.9369,N,11318.4604,W,000.0,202.4,220819,017.7,E*6D
01DEC8,0226D5,00C4A7,$GPRMC,110508,A,5442.9373,N,11318.4601,W,000.0,202.4,220819,017.7,E*6C
01DEC8,0226D6,00C4A7,$GPRMC,110509,A,5442.9378,N,11318.4598,W,000.0,202.4,220819,017.7,E*65
01DEC6,0226D4,00C4A6,$GPRMC,110510,A,5442.9383,N,11318.4595,W,000.0,202.4,220819,017.7,E*64
01DEC9,0226D7,00C4A8,$GPRMC,110511,A,5442.9388,N,11318.4592,W,000.0,202.4,220819,017.7,E*69
01DEC5,0226D1,00C4A5,$GPRMC,110512,A,5442.9392,N,11318.4590,W,000.0,202.4,220819,017.7,E*63
01DEC7,0226D5,00C4A6,$GPRMC,110513,A,5442.9396,N,11318.4588,W,000.0,202.4,220819,017.7,E*6F
01DEC4,0226D0,00C4A5,$GPRMC,110514,A,5442.9399,N,11318.4587,W,000.0,202.4,220819,017.7,E*68
01DEC7,0226D6,00C4A6,$GPRMC,110515,A,5442.9401,N,11318.4587,W,000.0,202.4,220819,017.7,E*6F
01DEC7,0226D4,00C4A6,$GPRMC,110516,A,5442.9404,N,11318.4587,W,000.0,202.4,220819,017.7,E*69
01DEC7,0226D4,00C4A6,$GPRMC,110517,A,5442.9405,N,11318.4588,W,000.0,202.4,220819,017.7,E*66
01DEC6,0226D4,00C4A5,$GPRMC,110518,A,5442.9406,N,11318.4589,W,000.0,202.4,220819,017.7,E*6B
01DEC7,0226D4,00C4A6,$GPRMC,110519,A,5442.9406,N,11318.4590,W,000.0,202.4,220819,017.7,E*62
01DEC8,0226D7,00C4A7,$GPRMC,110520,A,5442.9406,N,11318.4592,W,000.0,202.4,220819,017.7,E*6A
01DEC8,0226D6,00C4A6,$GPRMC,110521,A,5442.9406,N,11318.4594,W,000.0,202.4,220819,017.7,E*6D
01DEC9,0226D8,00C4A7,$GPRMC,110522,A,5442.9406,N,11318.4595,W,000.0,202.4,220819,017.7,E*6F
01DEC8,0226D6,00C4A6,$GPRMC,110523,A,5442.9406,N,11318.4596,W,000.0,202.4,220819,017.7,E*6D
01DEC6,0226D4,00C4A6,$GPRMC,110524,A,5442.9407,N,11318.4597,W,000.0,202.4,220819,017.7,E*6A
01DEC8,0226D7,00C4A6,$GPRMC,110525,A,5442.9408,N,11318.4598,W,000.0,202.4,220819,017.7,E*6B
01DEC7,0226D3,00C4A5,$GPRMC,110526,A,5442.9409,N,11318.4599,W,000.0,202.4,220819,017.7,E*68
01DEC7,0226D5,00C4A6,$GPRMC,110527,A,5442.9409,N,11318.4599,W,000.0,202.4,220819,017.7,E*69
01DEC6,0226D3,00C4A5,$GPRMC,110528,A,5442.9411,N,11318.4598,W,000.0,202.4,220819,017.7,E*6E
01DEC7,0226D4,00C4A5,$GPRMC,110529,A,5442.9411,N,11318.4598,W,000.0,202.4,220819,017.7,E*6F
01DEC9,0226D7,00C4A6,$GPRMC,110530,A,5442.9411,N,11318.4599,W,000.0,202.4,220819,017.7,E*66
01DEC6,0226D1,00C4A4,$GPRMC,110531,A,5442.9410,N,11318.4599,W,000.0,202.4,220819,017.7,E*66
01DEC7,0226D3,00C4A5,$GPRMC,110532,A,5442.9411,N,11318.4599,W,000.0,202.4,220819,017.7,E*64
01DEC4,0226CE,00C4A2,$GPRMC,110533,A,5442.9410,N,11318.4600,W,000.0,202.4,220819,017.7,E*67
01DEC3,0226CD,00C4A2,$GPRMC,110534,A,5442.9408,N,11318.4601,W,000.0,202.4,220819,017.7,E*68
01DEC7,0226D3,00C4A4,$GPRMC,110535,A,5442.9414,N,11318.4599,W,000.0,202.4,220819,017.7,E*66
01DEC5,0226D0,00C4A3,$GPRMC,110536,A,5442.9416,N,11318.4599,W,000.0,202.4,220819,017.7,E*67
01DEC6,0226D1,00C4A4,$GPRMC,110537,A,5442.9415,N,11318.4600,W,000.0,202.4,220819,017.7,E*66
01DEC9,0226D6,00C4A5,$GPRMC,110538,A,5442.9414,N,11318.4601,W,000.0,202.4,220819,017.7,E*69
01DECB,0226D9,00C4A6,$GPRMC,110539,A,5442.9413,N,11318.4602,W,000.0,202.4,220819,017.7,E*6C
01DEC8,0226D4,00C4A4,$GPRMC,110540,A,5442.9413,N,11318.4602,W,000.0,202.4,220819,017.7,E*62
01DEC8,0226D5,00C4A5,$GPRMC,110541,A,5442.9416,N,11318.4599,W,000.0,202.4,220819,017.7,E*67
01DEC8,0226D5,00C4A5,$GPRMC,110542,A,5442.9419,N,11318.4597,W,000.0,202.4,220819,017.7,E*65
01DEC9,0226D4,00C4A5,$GPRMC,110543,A,5442.9421,N,11318.4594,W,000.0,202.4,220819,017.7,E*6C
01DEC6,0226D2,00C4A4,$GPRMC,110544,A,5442.9422,N,11318.4593,W,000.0,202.4,220819,017.7,E*6F
01DECA,0226D6,00C4A5,$GPRMC,110545,A,5442.9416,N,11318.4595,W,000.0,202.4,220819,017.7,E*6F
01DECD,0226D9,00C4A7,$GPRMC,110546,A,5442.9411,N,11318.4596,W,000.0,202.4,220819,017.7,E*68
01DECA,0226D4,00C4A5,$GPRMC,110547,A,5442.9408,N,11318.4597,W,000.0,202.4,220819,017.7,E*60
01DECA,0226D5,00C4A6,$GPRMC,110548,A,5442.9404,N,11318.4598,W,000.0,202.4,220819,017.7,E*6C
01DECD,0226D9,00C4A7,$GPRMC,110549,A,5442.9402,N,11318.4599,W,000.0,202.4,220819,017.7,E*6A
01DECD,0226DA,00C4A8,$GPRMC,110550,A,5442.9401,N,11318.4600,W,000.0,202.4,220819,017.7,E*62
01DECA,0226D4,00C4A5,$GPRMC,110551,A,5442.9400,N,11318.4601,W,000.0,202.4,220819,017.7,E*63
01DEC7,0226D0,00C4A3,$GPRMC,110552,A,5442.9399,N,11318.4602,W,000.0,202.4,220819,017.7,E*64
01DECB,0226D5,00C4A6,$GPRMC,110553,A,5442.9400,N,11318.4604,W,000.0,202.4,220819,017.7,E*64
01DECC,0226D7,00C4A7,$GPRMC,110554,A,5442.9401,N,11318.4605,W,000.0,202.4,220819,017.7,E*63
01DECB,0226D6,00C4A7,$GPRMC,110555,A,5442.9403,N,11318.4607,W,000.0,202.4,220819,017.7,E*62
01DECB,0226D5,00C4A6,$GPRMC,110556,A,5442.9400,N,11318.4610,W,000.0,202.4,220819,017.7,E*64
01DEC8,0226D2,00C4A4,$GPRMC,110557,A,5442.9398,N,11318.4613,W,000.0,202.4,220819,017.7,E*60
01DEC8,0226D1,00C4A4,$GPRMC,110558,A,5442.9397,N,11318.4617,W,000.0,202.4,220819,017.7,E*64
01DEC9,0226D3,00C4A5,$GPRMC,110559,A,5442.9394,N,11318.4620,W,000.0,202.4,220819,017.7,E*62
01DECD,0226D8,00C4A7,$GPRMC,110600,A,5442.9393,N,11318.4623,W,000.0,202.4,220819,017.7,E*69
01DECD,0226D8,00C4A7,$GPRMC,110601,A,5442.9392,N,11318.4627,W,000.0,202.4,220819,017.7,E*6D
01DECC,0226D7,00C4A7,$GPRMC,110602,A,5442.9392,N,11318.4629,W,000.0,202.4,220819,017.7,E*60
01DECB,0226D5,00C4A6,$GPRMC,110603,A,5442.9392,N,11318.4632,W,000.0,202.4,220819,017.7,E*6B
01DECD,0226D7,00C4A7,$GPRMC,110604,A,5442.9391,N,11318.4634,W,000.0,202.4,220819,017.7,E*69
01DECC,0226D7,00C4A6,$GPRMC,110605,A,5442.9389,N,11318.4637,W,000.0,202.4,220819,017.7,E*62
01DECE,0226DA,00C4A7,$GPRMC,110606,A,5442.9386,N,11318.4638,W,000.0,202.4,220819,017.7,E*61
01DECC,0226D6,00C4A6,$GPRMC,110607,A,5442.9389,N,11318.4638,W,000.0,202.4,220819,017.7,E*6F
01DECB,0226D4,00C4A6,$GPRMC,110608,A,5442.9391,N,11318.4637,W,000.0,202.4,220819,017.7,E*66
01DEC9,0226D2,00C4A5,$GPRMC,110609,A,5442.9391,N,11318.4637,W,000.0,202.4,220819,017.7,E*67
01DECC,0226D7,00C4A6,$GPRMC,110610,A,5442.9393,N,11318.4637,W,000.0,202.4,220819,017.7,E*6D
01DECC,0226D5,00C4A6,$GPRMC,110611,A,5442.9394,N,11318.4637,W,000.0,202.4,220819,017.7,E*6B
01DECF,0226DA,00C4A8,$GPRMC,110612,A,5442.9394,N,11318.4637,W,000.0,202.4,220819,017.7,E*68
01DECB,0226D3,00C4A5,$GPRMC,110613,A,5442.9395,N,11318.4635,W,000.0,202.4,220819,017.7,E*6A
01DECB,0226D3,00C4A5,$GPRMC,110614,A,5442.9396,N,11318.4633,W,000.0,202.4,220819,017.7,E*68
01DECE,0226D8,00C4A7,$GPRMC,110615,A,5442.9395,N,11318.4634,W,000.0,202.4,220819,017.7,E*6D
01DECC,0226D5,00C4A6,$GPRMC,110616,A,5442.9387,N,11318.4637,W,000.0,202.4,220819,017.7,E*6E
01DECE,0226D7,00C4A6,$GPRMC,110617,A,5442.9377,N,11318.4638,W,000.0,202.4,220819,017.7,E*6F
01DECF,0226D9,00C4A7,$GPRMC,110618,A,5442.9375,N,11318.4639,W,000.0,202.4,220819,017.7,E*63
01DECB,0226D3,00C4A5,$GPRMC,110619,A,5442.9374,N,11318.4639,W,000.0,202.4,220819,017.7,E*63
01DECD,0226D6,00C4A7,$GPRMC,110620,A,5442.9368,N,11318.4639,W,000.0,202.4,220819,017.7,E*64
01DECF,0226D8,00C4A7,$GPRMC,110621,A,5442.9367,N,11318.4638,W,000.0,202.4,220819,017.7,E*6B
01DECD,0226D6,00C4A6,$GPRMC,110622,A,5442.9362,N,11318.4639,W,000.0,202.4,220819,017.7,E*6C
01DECC,0226D4,00C4A5,$GPRMC,110623,A,5442.9357,N,11318.4639,W,000.0,202.4,220819,017.7,E*6B
01DECA,0226D2,00C4A4,$GPRMC,110624,A,5442.9353,N,11318.4639,W,000.0,202.4,220819,017.7,E*68
01DECE,0226D7,00C4A6,$GPRMC,110625,A,5442.9349,N,11318.4639,W,000.0,202.4,220819,017.7,E*62
01DECE,0226D8,00C4A6,$GPRMC,110626,A,5442.9345,N,11318.4639,W,000.0,202.4,220819,017.7,E*6D
01DEC9,0226D1,00C4A4,$GPRMC,110627,A,5442.9344,N,11318.4639,W,000.0,202.4,220819,017.7,E*6D
01DECD,0226D8,00C4A6,$GPRMC,110628,A,5442.9343,N,11318.4639,W,000.0,202.4,220819,017.7,E*65
01DECF,0226D9,00C4A7,$GPRMC,110629,A,5442.9343,N,11318.4639,W,000.0,202.4,220819,017.7,E*64
01DECC,0226D4,00C4A5,$GPRMC,110630,A,5442.9343,N,11318.4638,W,000.0,202.4,220819,017.7,E*6D
01DECC,0226D3,00C4A5,$GPRMC,110631,A,5442.9342,N,11318.4638,W,000.0,202.4,220819,017.7,E*6D
01DECD,0226D7,00C4A6,$GPRMC,110632,A,5442.9345,N,11318.4636,W,000.0,202.4,220819,017.7,E*67
01DECD,0226D6,00C4A6,$GPRMC,110633,A,5442.9347,N,11318.4634,W,000.0,202.4,220819,017.7,E*66
01DECE,0226D8,00C4A7,$GPRMC,110634,A,5442.9349,N,11318.4632,W,000.0,202.4,220819,017.7,E*69
01DEC8,0226CE,00C4A3,$GPRMC,110635,A,5442.9350,N,11318.4630,W,000.0,202.4,220819,017.7,E*62
01DECB,0226D2,00C4A5,$GPRMC,110636,A,5442.9349,N,11318.4630,W,000.0,202.4,220819,017.7,E*69
01DECA,0226D2,00C4A4,$GPRMC,110637,A,5442.9350,N,11318.4628,W,000.0,202.4,220819,017.7,E*69
01DECD,0226D6,00C4A6,$GPRMC,110638,A,5442.9351,N,11318.4627,W,000.0,202.4,220819,017.7,E*68
01DED0,0226DA,00C4A7,$GPRMC,110639,A,5442.9352,N,11318.4625,W,000.0,202.4,220819,017.7,E*68
01DECC,0226D5,00C4A4,$GPRMC,110640,A,5442.9355,N,11318.4621,W,000.0,202.4,220819,017.7,E*65
01DECD,0226D6,00C4A5,$GPRMC,110641,A,5442.9359,N,11318.4616,W,000.0,202.4,220819,017.7,E*6C
01DECB,0226D4,00C4A4,$GPRMC,110642,A,5442.9361,N,11318.4612,W,000.0,202.4,220819,017.7,E*60
01DEC6,0226CB,00C4A1,$GPRMC,110643,A,5442.9362,N,11318.4608,W,000.0,202.4,220819,017.7,E*69
01DECA,0226D2,00C4A4,$GPRMC,110644,A,5442.9366,N,11318.4600,W,000.0,202.4,220819,017.7,E*62
01DECB,0226D4,00C4A5,$GPRMC,110645,A,5442.9362,N,11318.4599,W,000.0,202.4,220819,017.7,E*64
01DEC6,0226CB,00C4A1,$GPRMC,110646,A,5442.9364,N,11318.4593,W,000.0,202.4,220819,017.7,E*6B
01DECC,0226D6,00C4A5,$GPRMC,110647,A,5442.9361,N,11318.4594,W,000.0,202.4,220819,017.7,E*68
01DECB,0226D4,00C4A4,$GPRMC,110648,A,5442.9360,N,11318.4595,W,000.5,202.4,220819,017.7,E*62
01DECB,0226D3,00C4A4,$GPRMC,110649,A,5442.9360,N,11318.4596,W,000.4,202.4,220819,017.7,E*61
01DECB,0226D4,00C4A4,$GPRMC,110650,A,5442.9353,N,11318.4599,W,000.0,202.4,220819,017.7,E*62
01DECA,0226D4,00C4A4,$GPRMC,110651,A,5442.9347,N,11318.4603,W,000.0,202.4,220819,017.7,E*66
01DEC9,0226D4,00C4A3,$GPRMC,110652,A,5442.9339,N,11318.4608,W,000.0,202.4,220819,017.7,E*67
01DED0,0226DD,00C4A7,$GPRMC,110653,A,5442.9333,N,11318.4610,W,000.0,202.4,220819,017.7,E*65
01DECE,0226DC,00C4A6,$GPRMC,110654,A,5442.9328,N,11318.4613,W,000.0,202.4,220819,017.7,E*6B
01DED1,0226E0,00C4A7,$GPRMC,110655,A,5442.9324,N,11318.4615,W,000.0,202.4,220819,017.7,E*60
01DECE,0226DA,00C4A5,$GPRMC,110656,A,5442.9317,N,11318.4623,W,000.0,202.4,220819,017.7,E*66
01DECA,0226D5,00C4A3,$GPRMC,110657,A,5442.9318,N,11318.4623,W,000.0,202.4,220819,017.7,E*68
01DECD,0226D9,00C4A5,$GPRMC,110658,A,5442.9322,N,11318.4621,W,000.0,202.4,220819,017.7,E*6C
01DECC,0226D7,00C4A4,$GPRMC,110659,A,5442.9325,N,11318.4620,W,000.0,202.4,220819,017.7,E*6B
01DECE,0226DB,00C4A5,$GPRMC,110700,A,5442.9328,N,11318.4620,W,000.0,202.4,220819,017.7,E*6B
01DECC,0226D8,00C4A4,$GPRMC,110701,A,5442.9334,N,11318.4613,W,000.0,202.4,220819,017.7,E*67
01DECF,0226DD,00C4A6,$GPRMC,110702,A,5442.9336,N,11318.4612,W,000.0,202.4,220819,017.7,E*67
01DECD,0226D9,00C4A5,$GPRMC,110703,A,5442.9338,N,11318.4612,W,000.0,202.4,220819,017.7,E*68
01DECC,0226DA,00C4A4,$GPRMC,110704,A,5442.9337,N,11318.4614,W,000.0,202.4,220819,017.7,E*66
01DED1,0226E1,00C4A8,$GPRMC,110705,A,5442.9336,N,11318.4615,W,000.0,202.4,220819,017.7,E*67
01DECF,0226DD,00C4A7,$GPRMC,110706,A,5442.9334,N,11318.4617,W,000.0,202.4,220819,017.7,E*64
01DECF,0226DE,00C4A6,$GPRMC,110707,A,5442.9331,N,11318.4619,W,000.0,202.4,220819,017.7,E*6E
01DECE,0226DC,00C4A5,$GPRMC,110708,A,5442.9328,N,11318.4623,W,000.0,202.4,220819,017.7,E*60
01DECE,0226DC,00C4A5,$GPRMC,110709,A,5442.9326,N,11318.4625,W,000.0,202.4,220819,017.7,E*69
01DECE,0226DB,00C4A5,$GPRMC,110710,A,5442.9323,N,11318.4628,W,000.0,202.4,220819,017.7,E*69
01DECD,0226D9,00C4A4,$GPRMC,110711,A,5442.9321,N,11318.4630,W,000.0,202.4,220819,017.7,E*63
01DED1,0226DF,00C4A7,$GPRMC,110712,A,5442.9318,N,11318.4633,W,000.0,202.4,220819,017.7,E*69
01DECD,0226DA,00C4A5,$GPRMC,110713,A,5442.9314,N,11318.4636,W,000.0,202.4,220819,017.7,E*61
01DED0,0226DD,00C4A6,$GPRMC,110714,A,5442.9311,N,11318.4639,W,000.0,202.4,220819,017.7,E*6C
01DECF,0226DC,00C4A5,$GPRMC,110715,A,5442.9308,N,11318.4641,W,000.0,202.4,220819,017.7,E*6A
01DED0,0226DE,00C4A6,$GPRMC,110716,A,5442.9306,N,11318.4643,W,000.0,202.4,220819,017.7,E*65
01DECE,0226DB,00C4A4,$GPRMC,110717,A,5442.9303,N,11318.4645,W,000.0,202.4,220819,017.7,E*67
01DED1,0226DF,00C4A6,$GPRMC,110718,A,5442.9300,N,11318.4647,W,000.0,202.4,220819,017.7,E*69
01DED1,0226DF,00C4A6,$GPRMC,110719,A,5442.9298,N,11318.4648,W,000.0,202.4,220819,017.7,E*67
01DED0,0226DD,00C4A5,$GPRMC,110720,A,5442.9295,N,11318.4649,W,000.0,202.4,220819,017.7,E*61
01DED0,0226DC,00C4A5,$GPRMC,110721,A,5442.9293,N,11318.4648,W,000.0,202.4,220819,017.7,E*67
01DECF,0226DC,00C4A4,$GPRMC,110722,A,5442.9291,N,11318.4649,W,000.0,202.4,220819,017.7,E*67
01DED0,0226DC,00C4A5,$GPRMC,110723,A,5442.9290,N,11318.4650,W,000.0,202.4,220819,017.7,E*6F
01DECC,0226D8,00C4A3,$GPRMC,110724,A,5442.9291,N,11318.4651,W,000.0,202.4,220819,017.7,E*68
01DED2,0226E0,00C4A6,$GPRMC,110725,A,5442.9292,N,11318.4652,W,000.0,202.4,220819,017.7,E*69
01DECF,0226DB,00C4A4,$GPRMC,110726,A,5442.9293,N,11318.4654,W,000.0,202.4,220819,017.7,E*6D
01DECD,0226D7,00C4A3,$GPRMC,110727,A,5442.9293,N,11318.4655,W,000.0,202.4,220819,017.7,E*6D
01DED1,0226DE,00C4A6,$GPRMC,110728,A,5442.9299,N,11318.4655,W,000.0,202.4,220819,017.7,E*68
01DED2,0226DE,00C4A6,$GPRMC,110729,A,5442.9306,N,11318.4653,W,000.0,202.4,220819,017.7,E*68
01DED5,0226E2,00C4A7,$GPRMC,110730,A,5442.9314,N,11318.4651,W,000.0,202.4,220819,017.7,E*61
01DED3,0226DE,00C4A6,$GPRMC,110731,A,5442.9323,N,11318.4648,W,000.0,202.4,220819,017.7,E*6C
01DED1,0226DB,00C4A5,$GPRMC,110732,A,5442.9331,N,11318.4645,W,000.0,202.4,220819,017.7,E*61
01DED0,0226DA,00C4A5,$GPRMC,110733,A,5442.9340,N,11318.4643,W,000.0,202.4,220819,017.7,E*60
01DED1,0226DB,00C4A5,$GPRMC,110734,A,5442.9347,N,11318.4640,W,000.0,202.4,220819,017.7,E*63
01DECF,0226D8,00C4A4,$GPRMC,110735,A,5442.9355,N,11318.4637,W,000.0,202.4,220819,017.7,E*61
01DED2,0226DC,00C4A6,$GPRMC,110736,A,5442.9362,N,11318.4633,W,000.0,202.4,220819,017.7,E*62
01DECF,0226D8,00C4A4,$GPRMC,110737,A,5442.9367,N,11318.4629,W,000.0,202.4,220819,017.7,E*6D
01DED1,0226DA,00C4A5,$GPRMC,110738,A,5442.9374,N,11318.4626,W,000.0,202.4,220819,017.7,E*6F
01DED1,0226DB,00C4A6,$GPRMC,110739,A,5442.9379,N,11318.4623,W,000.0,202.4,220819,017.7,E*66
01DED6,0226E1,00C4A8,$GPRMC,110740,A,5442.9385,N,11318.4621,W,000.0,202.4,220819,017.7,E*69
01DED1,0226DA,00C4A5,$GPRMC,110741,A,5442.9389,N,11318.4618,W,000.0,202.4,220819,017.7,E*6E
01DED4,0226DE,00C4A7,$GPRMC,110742,A,5442.9394,N,11318.4616,W,000.0,202.4,220819,017.7,E*6F
01DECD,0226D3,00C4A3,$GPRMC,110743,A,5442.9398,N,11318.4614,W,000.0,202.4,220819,017.7,E*60
01DED1,0226D8,00C4A5,$GPRMC,110744,A,5442.9401,N,11318.4613,W,000.0,202.4,220819,017.7,E*67
01DECE,0226D2,00C4A4,$GPRMC,110745,A,5442.9404,N,11318.4614,W,000.0,202.4,220819,017.7,E*64
01DECE,0226D3,00C4A4,$GPRMC,110746,A,5442.9404,N,11318.4615,W,000.0,202.4,220819,017.7,E*66
01DED0,0226D7,00C4A5,$GPRMC,110747,A,5442.9404,N,11318.4616,W,000.0,202.4,220819,017.7,E*64
01DECE,0226D3,00C4A4,$GPRMC,110748,A,5442.9406,N,11318.4616,W,000.0,202.4,220819,017.7,E*69
01DECC,0226D1,00C4A3,$GPRMC,110749,A,5442.9407,N,11318.4616,W,000.0,202.4,220819,017.7,E*69
01DED1,0226D7,00C4A5,$GPRMC,110750,A,5442.9406,N,11318.4617,W,000.0,202.4,220819,017.7,E*61
01DED2,0226DB,00C4A6,$GPRMC,110751,A,5442.9406,N,11318.4617,W,000.0,202.4,220819,017.7,E*60
01DECF,0226D7,00C4A5,$GPRMC,110752,A,5442.9406,N,11318.4617,W,000.0,202.4,220819,017.7,E*63
01DECD,0226D3,00C4A3,$GPRMC,110753,A,5442.9406,N,11318.4618,W,000.0,202.4,220819,017.7,E*6D
01DED0,0226D9,00C4A6,$GPRMC,110754,A,5442.9406,N,11318.4619,W,000.0,202.4,220819,017.7,E*6B
01DECF,0226D7,00C4A5,$GPRMC,110755,A,5442.9406,N,11318.4620,W,000.0,202.4,220819,017.7,E*60
01DECB,0226D1,00C4A3,$GPRMC,110756,A,5442.9404,N,11318.4621,W,000.0,202.4,220819,017.7,E*60
01DECC,0226D3,00C4A3,$GPRMC,110757,A,5442.9403,N,11318.4622,W,000.0,202.4,220819,017.7,E*65
01DED0,0226D8,00C4A6,$GPRMC,110758,A,5442.9402,N,11318.4623,W,000.0,202.4,220819,017.7,E*6A
01DED0,0226D8,00C4A6,$GPRMC,110759,A,5442.9401,N,11318.4623,W,000.0,202.4,220819,017.7,E*68
01DECF,0226D8,00C4A5,$GPRMC,110800,A,5442.9399,N,11318.4625,W,000.0,202.4,220819,017.7,E*6B
01DECD,0226D6,00C4A4,$GPRMC,110801,A,5442.9399,N,11318.4625,W,000.0,202.4,220819,017.7,E*6A
01DECB,0226D1,00C4A2,$GPRMC,110802,A,5442.9396,N,11318.4624,W,000.0,202.4,220819,017.7,E*67
01DED0,0226D9,00C4A5,$GPRMC,110803,A,5442.9395,N,11318.4624,W,000.0,202.4,220819,017.7,E*65
01DECD,0226D6,00C4A4,$GPRMC,110804,A,5442.9395,N,11318.4624,W,000.0,202.4,220819,017.7,E*62
01DECA,0226D0,00C4A3,$GPRMC,110805,A,5442.9394,N,11318.4625,W,000.0,202.4,220819,017.7,E*63
01DECF,0226D9,00C4A6,$GPRMC,110806,A,5442.9393,N,11318.4626,W,000.0,202.4,220819,017.7,E*64
01DECC,0226D4,00C4A3,$GPRMC,110807,A,5442.9391,N,11318.4628,W,000.0,202.4,220819,017.7,E*69
01DED1,0226DB,00C4A6,$GPRMC,110808,A,5442.9391,N,11318.4628,W,000.0,202.4,220819,017.7,E*66
01DECE,0226D5,00C4A4,$GPRMC,110809,A,5442.9393,N,11318.4629,W,000.0,202.4,220819,017.7,E*64
01DECA,0226D1,00C4A2,$GPRMC,110810,A,5442.9394,N,11318.4630,W,000.0,202.4,220819,017.7,E*63
01DED3,0226DD,00C4A8,$GPRMC,110811,A,5442.9393,N,11318.4630,W,000.0,202.4,220819,017.7,E*65
01DED3,0226DD,00C4A8,$GPRMC,110812,A,5442.9392,N,11318.4630,W,000.0,202.4,220819,017.7,E*67
01DED2,0226DC,00C4A7,$GPRMC,110813,A,5442.9392,N,11318.4631,W,000.0,202.4,220819,017.7,E*67
01DED1,0226DC,00C4A7,$GPRMC,110814,A,5442.9391,N,11318.4630,W,000.0,202.4,220819,017.7,E*62
01DED4,0226DF,00C4A8,$GPRMC,110815,A,5442.9391,N,11318.4630,W,000.0,202.4,220819,017.7,E*63
01DED2,0226DB,00C4A6,$GPRMC,110816,A,5442.9391,N,11318.4629,W,000.0,202.4,220819,017.7,E*68
01DED4,0226DE,00C4A8,$GPRMC,110817,A,5442.9391,N,11318.4628,W,000.0,202.4,220819,017.7,E*68
01DED1,0226D9,00C4A7,$GPRMC,110818,A,5442.9392,N,11318.4628,W,000.0,202.4,220819,017.7,E*64
01DED3,0226DF,00C4A8,$GPRMC,110819,A,5442.9393,N,11318.4627,W,000.0,202.4,220819,017.7,E*6B
01DED1,0226DA,00C4A7,$GPRMC,110820,A,5442.9393,N,11318.4626,W,000.0,202.4,220819,017.7,E*60
01DED0,0226D8,00C4A6,$GPRMC,110821,A,5442.9394,N,11318.4625,W,000.0,202.4,220819,017.7,E*65
01DED3,0226DD,00C4A8,$GPRMC,110822,A,5442.9394,N,11318.4624,W,000.0,202.4,220819,017.7,E*67
01DED0,0226D8,00C4A6,$GPRMC,110823,A,5442.9394,N,11318.4623,W,000.0,202.4,220819,017.7,E*61
01DECC,0226D2,00C4A3,$GPRMC,110824,A,5442.9394,N,11318.4622,W,000.0,202.4,220819,017.7,E*67
01DED0,0226D8,00C4A6,$GPRMC,110825,A,5442.9394,N,11318.4621,W,000.0,202.4,220819,017.7,E*65
01DED0,0226DA,00C4A6,$GPRMC,110826,A,5442.9393,N,11318.4621,W,000.0,202.4,220819,017.7,E*61
01DECF,0226D6,00C4A4,$GPRMC,110827,A,5442.9393,N,11318.4620,W,000.0,202.4,220819,017.7,E*61
01DED1,0226DB,00C4A6,$GPRMC,110828,A,5442.9394,N,11318.4619,W,000.0,202.4,220819,017.7,E*63
01DED2,0226DA,00C4A6,$GPRMC,110829,A,5442.9394,N,11318.4620,W,000.0,202.4,220819,017.7,E*68
01DECF,0226D8,00C4A5,$GPRMC,110830,A,5442.9395,N,11318.4620,W,000.0,202.4,220819,017.7,E*61
01DED1,0226DA,00C4A7,$GPRMC,110831,A,5442.9396,N,11318.4621,W,000.0,202.4,220819,017.7,E*62
01DECF,0226D7,00C4A5,$GPRMC,110832,A,5442.9396,N,11318.4621,W,000.0,202.4,220819,017.7,E*61
01DED3,0226DE,00C4A8,$GPRMC,110833,A,5442.9396,N,11318.4621,W,000.0,202.4,220819,017.7,E*60
01DED1,0226DA,00C4A7,$GPRMC,110834,A,5442.9395,N,11318.4621,W,000.0,202.4,220819,017.7,E*64
01DED3,0226DB,00C4A7,$GPRMC,110835,A,5442.9395,N,11318.4621,W,000.0,202.4,220819,017.7,E*65
01DED1,0226DA,00C4A7,$GPRMC,110836,A,5442.9396,N,11318.4621,W,000.0,202.4,220819,017.7,E*65
01DED2,0226DC,00C4A8,$GPRMC,110837,A,5442.9395,N,11318.4621,W,000.0,202.4,220819,017.7,E*67
01DED0,0226D8,00C4A6,$GPRMC,110838,A,5442.9395,N,11318.4620,W,000.0,202.4,220819,017.7,E*69
01DED3,0226DD,00C4A8,$GPRMC,110839,A,5442.9395,N,11318.4620,W,000.0,202.4,220819,017.7,E*68
01DECE,0226D6,00C4A5,$GPRMC,110840,A,5442.9396,N,11318.4620,W,000.0,202.4,220819,017.7,E*65
01DED1,0226D8,00C4A7,$GPRMC,110841,A,5442.9397,N,11318.4620,W,000.0,202.4,220819,017.7,E*65
01DECB,0226D1,00C4A3,$GPRMC,110842,A,5442.9398,N,11318.4621,W,000.0,202.4,220819,017.7,E*68
01DED3,0226DC,00C4A7,$GPRMC,110843,A,5442.9400,N,11318.4621,W,000.0,202.4,220819,017.7,E*6F
01DED0,0226D8,00C4A6,$GPRMC,110844,A,5442.9401,N,11318.4622,W,000.0,202.4,220819,017.7,E*6A
01DED2,0226DC,00C4A7,$GPRMC,110845,A,5442.9403,N,11318.4622,W,000.0,202.4,220819,017.7,E*69
01DECF,0226D6,00C4A5,$GPRMC,110846,A,5442.9404,N,11318.4622,W,000.0,202.4,220819,017.7,E*6D
01DED2,0226DA,00C4A7,$GPRMC,110847,A,5442.9405,N,11318.4621,W,000.0,202.4,220819,017.7,E*6E
01DECD,0226D4,00C4A3,$GPRMC,110848,A,5442.9406,N,11318.4621,W,000.0,202.4,220819,017.7,E*62
01DED3,0226DB,00C4A7,$GPRMC,110849,A,5442.9410,N,11318.4620,W,000.0,202.4,220819,017.7,E*65
01DECD,0226D2,00C4A3,$GPRMC,110850,A,5442.9403,N,11318.4620,W,000.0,202.4,220819,017.7,E*6F
01DED2,0226DA,00C4A7,$GPRMC,110851,A,5442.9399,N,11318.4620,W,000.0,202.4,220819,017.7,E*6A
01DECD,0226D2,00C4A3,$GPRMC,110852,A,5442.9409,N,11318.4619,W,000.0,202.4,220819,017.7,E*6D
01DECE,0226D4,00C4A4,$GPRMC,110853,A,5442.9405,N,11318.4620,W,000.0,202.4,220819,017.7,E*6A
01DECB,0226D0,00C4A3,$GPRMC,110854,A,5442.9400,N,11318.4621,W,000.0,202.4,220819,017.7,E*69
01DECD,0226D4,00C4A4,$GPRMC,110855,A,5442.9399,N,11318.4622,W,000.9,202.4,220819,017.7,E*65
01DECB,0226CF,00C4A2,$GPRMC,110856,A,5442.9398,N,11318.4624,W,000.0,202.4,220819,017.7,E*68
01DEC8,0226CC,00C4A2,$GPRMC,110857,A,5442.9391,N,11318.4626,W,000.0,202.4,220819,017.7,E*62
01DECD,0226D3,00C4A4,$GPRMC,110858,A,5442.9392,N,11318.4627,W,000.0,202.4,220819,017.7,E*6F
01DED1,0226D9,00C4A6,$GPRMC,110859,A,5442.9394,N,11318.4628,W,000.0,202.4,220819,017.7,E*67
01DECD,0226D2,00C4A3,$GPRMC,110900,A,5442.9396,N,11318.4628,W,000.0,202.4,220819,017.7,E*68
01DED3,0226DB,00C4A7,$GPRMC,110901,A,5442.9398,N,11318.4628,W,000.0,202.4,220819,017.7,E*67
01DECF,0226D7,00C4A6,$GPRMC,110902,A,5442.9399,N,11318.4628,W,000.0,202.4,220819,017.7,E*65
01DED0,0226D6,00C4A6,$GPRMC,110903,A,5442.9400,N,11318.4630,W,000.0,202.4,220819,017.7,E*6A
01DECF,0226D5,00C4A5,$GPRMC,110904,A,5442.9403,N,11318.4631,W,000.0,202.4,220819,017.7,E*6F
01DECE,0226D4,00C4A5,$GPRMC,110905,A,5442.9405,N,11318.4632,W,000.0,202.4,220819,017.7,E*6B
01DECF,0226D5,00C4A5,$GPRMC,110906,A,5442.9409,N,11318.4633,W,000.0,202.4,220819,017.7,E*65
01DECB,0226CF,00C4A2,$GPRMC,110907,A,5442.9396,N,11318.4632,W,000.0,202.4,220819,017.7,E*64
01DECA,0226CF,00C4A3,$GPRMC,110908,A,5442.9400,N,11318.4632,W,000.0,202.4,220819,017.7,E*63
01DECC,0226D1,00C4A3,$GPRMC,110909,A,5442.9400,N,11318.4630,W,000.0,202.4,220819,017.7,E*60
01DECD,0226D2,00C4A4,$GPRMC,110910,A,5442.9400,N,11318.4628,W,000.0,202.4,220819,017.7,E*61
01DECA,0226CC,00C4A2,$GPRMC,110911,A,5442.9401,N,11318.4628,W,000.0,202.4,220819,017.7,E*61
01DECC,0226D2,00C4A3,$GPRMC,110912,A,5442.9401,N,11318.4628,W,000.0,202.4,220819,017.7,E*62
01DECB,0226D0,00C4A3,$GPRMC,110913,A,5442.9398,N,11318.4628,W,000.0,202.4,220819,017.7,E*64
01DEC7,0226CA,00C4A0,$GPRMC,110914,A,5442.9394,N,11318.4628,W,000.0,202.4,220819,017.7,E*6F
01DECC,0226D2,00C4A3,$GPRMC,110915,A,5442.9392,N,11318.4627,W,000.0,202.4,220819,017.7,E*67
01DECE,0226D5,00C4A4,$GPRMC,110916,A,5442.9398,N,11318.4624,W,000.0,202.4,220819,017.7,E*6D
01DECF,0226D6,00C4A4,$GPRMC,110917,A,5442.9409,N,11318.4620,W,000.0,202.4,220819,017.7,E*67
01DECA,0226CE,00C4A1,$GPRMC,110918,A,5442.9409,N,11318.4620,W,000.0,202.4,220819,017.7,E*68
01DEC9,0226CE,00C4A1,$GPRMC,110919,A,5442.9409,N,11318.4620,W,000.0,202.4,220819,017.7,E*69
01DED0,0226D7,00C4A5,$GPRMC,110920,A,5442.9418,N,11318.4615,W,000.0,202.4,220819,017.7,E*65
01DED1,0226D9,00C4A6,$GPRMC,110921,A,5442.9415,N,11318.4616,W,000.0,202.4,220819,017.7,E*6A
01DECF,0226D5,00C4A5,$GPRMC,110922,A,5442.9414,N,11318.4617,W,000.0,202.4,220819,017.7,E*69
01DECD,0226D2,00C4A4,$GPRMC,110923,A,5442.9414,N,11318.4617,W,000.0,202.4,220819,017.7,E*68
01DECD,0226D3,00C4A4,$GPRMC,110924,A,5442.9414,N,11318.4617,W,000.0,202.4,220819,017.7,E*6F
01DED2,0226D9,00C4A6,$GPRMC,110925,A,5442.9414,N,11318.4617,W,000.0,202.4,220819,017.7,E*6E
01DECF,0226D6,00C4A5,$GPRMC,110926,A,5442.9415,N,11318.4617,W,001.4,177.4,220819,017.7,E*68
01DECE,0226D3,00C4A3,$GPRMC,110927,A,5442.9416,N,11318.4617,W,001.0,177.4,220819,017.7,E*6E
01DECE,0226D5,00C4A4,$GPRMC,110928,A,5442.9418,N,11318.4617,W,000.0,177.4,220819,017.7,E*6E
01DECA,0226CD,00C4A1,$GPRMC,110929,A,5442.9426,N,11318.4615,W,000.0,177.4,220819,017.7,E*60
01DECC,0226D1,00C4A3,$GPRMC,110930,A,5442.9425,N,11318.4616,W,000.0,177.4,220819,017.7,E*68
01DECF,0226D6,00C4A5,$GPRMC,110931,A,5442.9428,N,11318.4615,W,000.0,177.4,220819,017.7,E*67
01DEC9,0226CC,00C4A1,$GPRMC,110932,A,5442.9433,N,11318.4615,W,000.0,177.4,220819,017.7,E*6E
01DECE,0226D3,00C4A3,$GPRMC,110933,A,5442.9434,N,11318.4616,W,000.0,177.4,220819,017.7,E*6B
01DED0,0226D6,00C4A5,$GPRMC,110934,A,5442.9428,N,11318.4617,W,000.0,177.4,220819,017.7,E*60
01DECE,0226D5,00C4A5,$GPRMC,110935,A,5442.9419,N,11318.4620,W,001.0,177.4,220819,017.7,E*66
01DECF,0226D5,00C4A5,$GPRMC,110936,A,5442.9416,N,11318.4617,W,000.0,177.4,220819,017.7,E*6F
01DECF,0226D5,00C4A5,$GPRMC,110937,A,5442.9416,N,11318.4619,W,000.0,177.4,220819,017.7,E*60
01DED2,0226D8,00C4A7,$GPRMC,110938,A,5442.9417,N,11318.4623,W,000.0,177.4,220819,017.7,E*67
01DECE,0226D4,00C4A5,$GPRMC,110939,A,5442.9418,N,11318.4626,W,000.0,177.4,220819,017.7,E*6C
01DECF,0226D5,00C4A5,$GPRMC,110940,A,5442.9419,N,11318.4629,W,000.0,177.4,220819,017.7,E*6C
01DECD,0226D3,00C4A4,$GPRMC,110941,A,5442.9419,N,11318.4632,W,000.0,177.4,220819,017.7,E*67
01DECE,0226D4,00C4A5,$GPRMC,110942,A,5442.9420,N,11318.4633,W,000.0,177.4,220819,017.7,E*6F
01DECD,0226D1,00C4A4,$GPRMC,110943,A,5442.9420,N,11318.4632,W,000.0,177.4,220819,017.7,E*6F
01DED1,0226D6,00C4A6,$GPRMC,110944,A,5442.9420,N,11318.4635,W,000.0,177.4,220819,017.7,E*6F
01DECF,0226D5,00C4A5,$GPRMC,110945,A,5442.9419,N,11318.4637,W,000.0,177.4,220819,017.7,E*66
01DECB,0226CF,00C4A2,$GPRMC,110946,A,5442.9418,N,11318.4637,W,000.0,177.4,220819,017.7,E*64
01DED2,0226DA,00C4A7,$GPRMC,110947,A,5442.9417,N,11318.4635,W,000.0,177.4,220819,017.7,E*68
01DECE,0226D3,00C4A4,$GPRMC,110948,A,5442.9416,N,11318.4636,W,000.0,177.4,220819,017.7,E*65
01DECC,0226D0,00C4A3,$GPRMC,110949,A,5442.9416,N,11318.4634,W,000.0,177.4,220819,017.7,E*66
01DED0,0226D5,00C4A5,$GPRMC,110950,A,5442.9415,N,11318.4630,W,000.0,177.4,220819,017.7,E*69
01DECF,0226D3,00C4A4,$GPRMC,110951,A,5442.9416,N,11318.4628,W,001.1,177.4,220819,017.7,E*62
01DED2,0226D8,00C4A6,$GPRMC,110952,A,5442.9422,N,11318.4627,W,000.0,177.4,220819,017.7,E*69
01DED1,0226D7,00C4A6,$GPRMC,110953,A,5442.9426,N,11318.4625,W,000.0,177.4,220819,017.7,E*6E
01DECF,0226D2,00C4A5,$GPRMC,110954,A,5442.9426,N,11318.4628,W,000.0,177.4,220819,017.7,E*64
01DECD,0226CF,00C4A3,$GPRMC,110955,A,5442.9427,N,11318.4629,W,000.0,177.4,220819,017.7,E*65
01DED0,0226D5,00C4A5,$GPRMC,110956,A,5442.9427,N,11318.4628,W,000.0,177.4,220819,017.7,E*67
01DECD,0226D1,00C4A4,$GPRMC,110957,A,5442.9428,N,11318.4627,W,000.0,177.4,220819,017.7,E*66
01DECD,0226D1,00C4A4,$GPRMC,110958,A,5442.9429,N,11318.4627,W,000.0,177.4,220819,017.7,E*68
01DED0,0226D5,00C4A5,$GPRMC,110959,A,5442.9429,N,11318.4626,W,000.0,177.4,220819,017.7,E*68
01DED1,0226D6,00C4A6,$GPRMC,111000,A,5442.9430,N,11318.4625,W,000.0,177.4,220819,017.7,E*67
01DED0,0226D4,00C4A5,$GPRMC,111001,A,5442.9431,N,11318.4624,W,000.0,177.4,220819,017.7,E*66
01DECE,0226D2,00C4A4,$GPRMC,111002,A,5442.9431,N,11318.4623,W,000.0,177.4,220819,017.7,E*62
01DECE,0226D0,00C4A3,$GPRMC,111003,A,5442.9432,N,11318.4622,W,000.0,177.4,220819,017.7,E*61
01DED3,0226D9,00C4A7,$GPRMC,111004,A,5442.9432,N,11318.4621,W,000.0,177.4,220819,017.7,E*65
01DED3,0226DA,00C4A7,$GPRMC,111005,A,5442.9433,N,11318.4620,W,000.0,177.4,220819,017.7,E*64
01DED1,0226D6,00C4A5,$GPRMC,111006,A,5442.9434,N,11318.4619,W,000.0,177.4,220819,017.7,E*6A
01DED0,0226D4,00C4A5,$GPRMC,111007,A,5442.9434,N,11318.4618,W,000.0,177.4,220819,017.7,E*6A
01DED6,0226DD,00C4A9,$GPRMC,111008,A,5442.9436,N,11318.4614,W,000.0,177.4,220819,017.7,E*6B
01DED3,0226D9,00C4A7,$GPRMC,111009,A,5442.9436,N,11318.4614,W,000.0,177.4,220819,017.7,E*6A
01DED2,0226D7,00C4A6,$GPRMC,111010,A,5442.9437,N,11318.4613,W,000.0,177.4,220819,017.7,E*64
01DED4,0226DA,00C4A7,$GPRMC,111011,A,5442.9437,N,11318.4612,W,000.0,177.4,220819,017.7,E*64
01DED7,0226DE,00C4AA,$GPRMC,111012,A,5442.9438,N,11318.4611,W,000.0,177.4,220819,017.7,E*6B
01DED2,0226D9,00C4A7,$GPRMC,111013,A,5442.9438,N,11318.4610,W,000.0,177.4,220819,017.7,E*6B
01DED4,0226DA,00C4A7,$GPRMC,111014,A,5442.9439,N,11318.4609,W,000.0,177.4,220819,017.7,E*65
01DED3,0226D9,00C4A7,$GPRMC,111015,A,5442.9439,N,11318.4609,W,000.0,177.4,220819,017.7,E*64
01DED3,0226D8,00C4A6,$GPRMC,111016,A,5442.9440,N,11318.4608,W,000.0,177.4,220819,017.7,E*68
01DED0,0226D3,00C4A5,$GPRMC,111017,A,5442.9441,N,11318.4607,W,000.0,177.4,220819,017.7,E*67
01DED1,0226D6,00C4A6,$GPRMC,111018,A,5442.9441,N,11318.4606,W,000.0,177.4,220819,017.7,E*69
01DED4,0226D9,00C4A7,$GPRMC,111019,A,5442.9442,N,11318.4605,W,000.0,177.4,220819,017.7,E*68
01DED0,0226D5,00C4A6,$GPRMC,111020,A,5442.9442,N,11318.4604,W,000.0,177.4,220819,017.7,E*63
01DED4,0226D9,00C4A8,$GPRMC,111021,A,5442.9443,N,11318.4604,W,000.0,177.4,220819,017.7,E*63
01DED3,0226D9,00C4A8,$GPRMC,111022,A,5442.9443,N,11318.4603,W,000.0,177.4,220819,017.7,E*67
01DED2,0226D6,00C4A7,$GPRMC,111023,A,5442.9444,N,11318.4602,W,000.0,177.4,220819,017.7,E*60
01DED2,0226D7,00C4A7,$GPRMC,111024,A,5442.9444,N,11318.4601,W,000.0,177.4,220819,017.7,E*64
01DED2,0226D7,00C4A6,$GPRMC,111025,A,5442.9445,N,11318.4600,W,000.0,177.4,220819,017.7,E*65
01DED4,0226DA,00C4A8,$GPRMC,111026,A,5442.9445,N,11318.4599,W,000.0,177.4,220819,017.7,E*65
01DED2,0226D7,00C4A7,$GPRMC,111027,A,5442.9446,N,11318.4599,W,000.0,177.4,220819,017.7,E*67
01DED3,0226D8,00C4A7,$GPRMC,111028,A,5442.9446,N,11318.4598,W,000.0,177.4,220819,017.7,E*69
01DED3,0226DA,00C4A8,$GPRMC,111029,A,5442.9447,N,11318.4597,W,000.0,177.4,220819,017.7,E*66
01DED3,0226D7,00C4A6,$GPRMC,111030,A,5442.9447,N,11318.4596,W,000.0,177.4,220819,017.7,E*6F
01DED3,0226D8,00C4A7,$GPRMC,111031,A,5442.9448,N,11318.4595,W,000.0,177.4,220819,017.7,E*62
01DED3,0226D7,00C4A7,$GPRMC,111032,A,5442.9448,N,11318.4594,W,000.0,177.4,220819,017.7,E*60
01DED2,0226D6,00C4A6,$GPRMC,111033,A,5442.9449,N,11318.4594,W,000.0,177.4,220819,017.7,E*60
01DED7,0226DD,00C4A9,$GPRMC,111034,A,5442.9450,N,11318.4593,W,000.0,177.4,220819,017.7,E*68
01DED2,0226D6,00C4A6,$GPRMC,111035,A,5442.9450,N,11318.4592,W,000.0,177.4,220819,017.7,E*68
01DED6,0226DA,00C4A8,$GPRMC,111036,A,5442.9451,N,11318.4591,W,000.0,177.4,220819,017.7,E*69
