01DE5D,022634,00C4AC,$GPRMC,075953,A,5442.9252,N,11318.4625,W,000.0,116.9,220819,017.7,E*63
01DE5F,022637,00C4AD,$GPRMC,075954,A,5442.9252,N,11318.4625,W,000.0,116.9,220819,017.7,E*64
01DE5D,022637,00C4AC,$GPRMC,075955,A,5442.9252,N,11318.4625,W,000.0,116.9,220819,017.7,E*65
01DE5B,022633,00C4AA,$GPRMC,075956,A,5442.9252,N,11318.4626,W,000.0,116.9,220819,017.7,E*65
01DE5E,022637,00C4AC,$GPRMC,075957,A,5442.9252,N,11318.4626,W,000.0,116.9,220819,017.7,E*64
01DE62,02263D,00C4AF,$GPRMC,075958,A,5442.9252,N,11318.4626,W,000.0,116.9,220819,017.7,E*6B
01DE5D,022636,00C4AC,$GPRMC,075959,A,5442.9252,N,11318.4626,W,000.0,116.9,220819,017.7,E*6A
01DE5E,022638,00C4AD,$GPRMC,080000,A,5442.9251,N,11318.4627,W,000.0,116.9,220819,017.7,E*67
01DE61,02263C,00C4AE,$GPRMC,080001,A,5442.9251,N,11318.4627,W,000.0,116.9,220819,017.7,E*66
01DE60,02263C,00C4AE,$GPRMC,080002,A,5442.9251,N,11318.4627,W,000.0,116.9,220819,017.7,E*65
01DE5D,022637,00C4AC,$GPRMC,080003,A,5442.9251,N,11318.4628,W,000.0,116.9,220819,017.7,E*6B
01DE5D,022637,00C4AC,$GPRMC,080004,A,5442.9251,N,11318.4626,W,000.0,116.9,220819,017.7,E*62
01DE5E,022638,00C4AC,$GPRMC,080005,A,5442.9251,N,11318.4624,W,000.0,116.9,220819,017.7,E*61
01DE5E,022639,00C4AC,$GPRMC,080006,A,5442.9251,N,11318.4622,W,000.0,116.9,220819,017.7,E*64
01DE5C,022635,00C4AB,$GPRMC,080007,A,5442.9244,N,11318.4618,W,000.0,116.9,220819,017.7,E*68
01DE5A,022632,00C4AA,$GPRMC,080008,A,5442.9241,N,11318.4615,W,000.0,116.9,220819,017.7,E*6F
01DE5C,022635,00C4AB,$GPRMC,080009,A,5442.9242,N,11318.4614,W,000.0,116.9,220819,017.7,E*6C
01DE63,02263F,00C4B0,$GPRMC,080010,A,5442.9242,N,11318.4614,W,000.0,116.9,220819,017.7,E*64
01DE5E,022639,00C4AD,$GPRMC,080011,A,5442.9243,N,11318.4612,W,000.0,116.9,220819,017.7,E*62
01DE5D,022636,00C4AC,$GPRMC,080012,A,5442.9243,N,11318.4611,W,000.0,116.9,220819,017.7,E*62
01DE61,02263C,00C4AE,$GPRMC,080013,A,5442.9241,N,11318.4609,W,000.0,116.9,220819,017.7,E*68
01DE60,02263C,00C4AE,$GPRMC,080014,A,5442.9240,N,11318.4607,W,000.0,116.9,220819,017.7,E*60
01DE5E,022637,00C4AC,$GPRMC,080015,A,5442.9240,N,11318.4607,W,000.0,116.9,220819,017.7,E*61
01DE61,02263D,00C4AE,$GPRMC,080016,A,5442.9240,N,11318.4604,W,000.0,116.9,220819,017.7,E*61
01DE5E,022638,00C4AC,$GPRMC,080017,A,5442.9241,N,11318.4601,W,000.0,116.9,220819,017.7,E*64
01DE60,02263C,00C4AE,$GPRMC,080018,A,5442.9241,N,11318.4597,W,000.0,116.9,220819,017.7,E*67
01DE60,02263A,00C4AD,$GPRMC,080019,A,5442.9242,N,11318.4594,W,000.0,116.9,220819,017.7,E*66
01DE60,02263B,00C4AD,$GPRMC,080020,A,5442.9243,N,11318.4591,W,000.0,116.9,220819,017.7,E*68
01DE61,02263C,00C4AF,$GPRMC,080021,A,5442.9245,N,11318.4588,W,000.0,116.9,220819,017.7,E*67
01DE60,02263B,00C4AD,$GPRMC,080022,A,5442.9245,N,11318.4587,W,000.0,116.9,220819,017.7,E*6B
01DE5C,022635,00C4AB,$GPRMC,080023,A,5442.9246,N,11318.4585,W,000.0,116.9,220819,017.7,E*6B
01DE5C,022635,00C4AB,$GPRMC,080024,A,5442.9246,N,11318.4583,W,000.0,116.9,220819,017.7,E*6A
01DE5A,022632,00C4AA,$GPRMC,080025,A,5442.9246,N,11318.4583,W,000.0,116.9,220819,017.7,E*6B
01DE57,02262F,00C4A9,$GPRMC,080026,A,5442.9246,N,11318.4583,W,000.0,116.9,220819,017.7,E*68
01DE58,022630,00C4A9,$GPRMC,080027,A,5442.9245,N,11318.4580,W,000.0,116.9,220819,017.7,E*69
01DE5A,022633,00C4AA,$GPRMC,080028,A,5442.9241,N,11318.4600,W,000.0,116.9,220819,017.7,E*69
01DE59,022632,00C4AA,$GPRMC,080029,A,5442.9236,N,11318.4619,W,000.0,116.9,220819,017.7,E*60
01DE5F,022639,00C4AE,$GPRMC,080030,A,5442.9232,N,11318.4639,W,000.0,116.9,220819,017.7,E*6E
01DE5B,022635,00C4AC,$GPRMC,080031,A,5442.9227,N,11318.4658,W,000.0,116.9,220819,017.7,E*6C
01DE60,02263C,00C4AE,$GPRMC,080032,A,5442.9223,N,11318.4675,W,000.0,116.9,220819,017.7,E*64
01DE5C,022636,00C4AB,$GPRMC,080033,A,5442.9220,N,11318.4692,W,000.0,116.9,220819,017.7,E*6F
01DE5F,02263A,00C4AE,$GPRMC,080034,A,5442.9218,N,11318.4706,W,000.0,116.9,220819,017.7,E*6F
01DE5B,022635,00C4AB,$GPRMC,080035,A,5442.9216,N,11318.4713,W,000.0,116.9,220819,017.7,E*64
01DE5C,022635,00C4AB,$GPRMC,080036,A,5442.9215,N,11318.4728,W,000.0,116.9,220819,017.7,E*6C
01DE5A,022634,00C4AA,$GPRMC,080037,A,5442.9216,N,11318.4728,W,000.0,116.9,220819,017.7,E*6E
01DE60,02263C,00C4AE,$GPRMC,080038,A,5442.9217,N,11318.4727,W,000.0,116.9,220819,017.7,E*6F
01DE5B,022634,00C4AB,$GPRMC,080039,A,5442.9218,N,11318.4726,W,000.0,116.9,220819,017.7,E*60
01DE5A,022632,00C4AB,$GPRMC,080040,A,5442.9219,N,11318.4724,W,000.0,116.9,220819,017.7,E*6D
01DE5C,022636,00C4AC,$GPRMC,080041,A,5442.9220,N,11318.4729,W,000.0,116.9,220819,017.7,E*6B
01DE5E,022639,00C4AD,$GPRMC,080042,A,5442.9220,N,11318.4738,W,000.0,116.9,220819,017.7,E*68
01DE5E,022639,00C4AD,$GPRMC,080043,A,5442.9219,N,11318.4746,W,000.0,116.9,220819,017.7,E*6A
01DE5B,022636,00C4AC,$GPRMC,080044,A,5442.9219,N,11318.4746,W,000.0,116.9,220819,017.7,E*6D
01DE58,022630,00C4AA,$GPRMC,080045,A,5442.9219,N,11318.4746,W,000.0,116.9,220819,017.7,E*6C
01DE5F,02263A,00C4AD,$GPRMC,080046,A,5442.9220,N,11318.4746,W,000.0,116.9,220819,017.7,E*65
01DE5B,022634,00C4AB,$GPRMC,080047,A,5442.9219,N,11318.4750,W,000.0,116.9,220819,017.7,E*69
01DE5D,022638,00C4AC,$GPRMC,080048,A,5442.9219,N,11318.4750,W,000.0,116.9,220819,017.7,E*66
01DE5E,022639,00C4AD,$GPRMC,080049,A,5442.9219,N,11318.4749,W,000.0,116.9,220819,017.7,E*6F
01DE5C,022636,00C4AB,$GPRMC,080050,A,5442.9219,N,11318.4749,W,000.0,116.9,220819,017.7,E*67
01DE5B,022634,00C4AA,$GPRMC,080051,A,5442.9218,N,11318.4750,W,000.0,116.9,220819,017.7,E*6F
01DE5A,022632,00C4A9,$GPRMC,080052,A,5442.9217,N,11318.4752,W,000.0,116.9,220819,017.7,E*61
01DE5D,022638,00C4AC,$GPRMC,080053,A,5442.9216,N,11318.4755,W,000.0,116.9,220819,017.7,E*66
01DE5F,02263A,00C4AD,$GPRMC,080054,A,5442.9215,N,11318.4758,W,000.0,116.9,220819,017.7,E*6F
01DE5A,022634,00C4AB,$GPRMC,080055,A,5442.9215,N,11318.4758,W,000.0,116.9,220819,017.7,E*6E
01DE59,022631,00C4AA,$GPRMC,080056,A,5442.9215,N,11318.4759,W,000.0,116.9,220819,017.7,E*6C
01DE5D,022638,00C4AC,$GPRMC,080057,A,5442.9213,N,11318.4767,W,000.0,116.9,220819,017.7,E*66
01DE5E,022638,00C4AD,$GPRMC,080058,A,5442.9212,N,11318.4775,W,000.0,116.9,220819,017.7,E*6B
01DE61,02263D,00C4AE,$GPRMC,080059,A,5442.9211,N,11318.4783,W,000.0,116.9,220819,017.7,E*60
01DE5C,022635,00C4AC,$GPRMC,080100,A,5442.9211,N,11318.4791,W,000.0,116.9,220819,017.7,E*6E
01DE5C,022637,00C4AC,$GPRMC,080101,A,5442.9209,N,11318.4802,W,000.0,116.9,220819,017.7,E*63
01DE5F,02263A,00C4AD,$GPRMC,080102,A,5442.9208,N,11318.4812,W,000.0,116.9,220819,017.7,E*60
01DE5D,022638,00C4AC,$GPRMC,080103,A,5442.9207,N,11318.4822,W,000.0,116.9,220819,017.7,E*6D
01DE60,02263B,00C4AE,$GPRMC,080104,A,5442.9205,N,11318.4836,W,000.0,116.9,220819,017.7,E*6D
01DE5C,022636,00C4AC,$GPRMC,080105,A,5442.9203,N,11318.4846,W,000.0,116.9,220819,017.7,E*6D
01DE5F,02263A,00C4AE,$GPRMC,080106,A,5442.9202,N,11318.4856,W,000.0,116.9,220819,017.7,E*6E
01DE5F,02263A,00C4AD,$GPRMC,080107,A,5442.9201,N,11318.4866,W,000.0,116.9,220819,017.7,E*6F
01DE5F,022639,00C4AD,$GPRMC,080108,A,5442.9200,N,11318.4876,W,000.0,116.9,220819,017.7,E*60
01DE5D,022638,00C4AC,$GPRMC,080109,A,5442.9200,N,11318.4884,W,000.0,116.9,220819,017.7,E*6C
01DE5A,022634,00C4AB,$GPRMC,080110,A,5442.9199,N,11318.4892,W,000.0,116.9,220819,017.7,E*60
01DE5D,022637,00C4AC,$GPRMC,080111,A,5442.9200,N,11318.4887,W,000.0,116.9,220819,017.7,E*66
01DE5A,022634,00C4AB,$GPRMC,080112,A,5442.9201,N,11318.4882,W,000.0,116.9,220819,017.7,E*61
01DE59,022631,00C4AA,$GPRMC,080113,A,5442.9201,N,11318.4883,W,000.0,116.9,220819,017.7,E*61
01DE59,022630,00C4AA,$GPRMC,080114,A,5442.9201,N,11318.4883,W,000.0,116.9,220819,017.7,E*66
01DE5B,022635,00C4AC,$GPRMC,080115,A,5442.9200,N,11318.4885,W,000.0,116.9,220819,017.7,E*60
01DE5E,02263A,00C4AE,$GPRMC,080116,A,5442.9199,N,11318.4890,W,000.0,116.9,220819,017.7,E*64
01DE5A,022634,00C4AC,$GPRMC,080117,A,5442.9199,N,11318.4894,W,000.0,116.9,220819,017.7,E*61
01DE5A,022634,00C4AB,$GPRMC,080118,A,5442.9198,N,11318.4895,W,000.0,116.9,220819,017.7,E*6E
01DE5E,022639,00C4AE,$GPRMC,080119,A,5442.9197,N,11318.4898,W,000.0,116.9,220819,017.7,E*6D
01DE5A,022635,00C4AB,$GPRMC,080120,A,5442.9196,N,11318.4902,W,000.0,116.9,220819,017.7,E*64
01DE59,022633,00C4AB,$GPRMC,080121,A,5442.9193,N,11318.4913,W,000.0,116.9,220819,017.7,E*60
01DE5A,022634,00C4AB,$GPRMC,080122,A,5442.9192,N,11318.4916,W,000.0,116.9,220819,017.7,E*67
01DE58,022631,00C4A9,$GPRMC,080123,A,5442.9190,N,11318.4920,W,000.0,116.9,220819,017.7,E*61
01DE59,022633,00C4AB,$GPRMC,080124,A,5442.9189,N,11318.4924,W,000.0,116.9,220819,017.7,E*6A
01DE5E,02263B,00C4AE,$GPRMC,080125,A,5442.9187,N,11318.4930,W,000.0,116.9,220819,017.7,E*60
01DE5C,02263A,00C4AD,$GPRMC,080126,A,5442.9184,N,11318.4936,W,000.0,116.9,220819,017.7,E*66
01DE5B,022635,00C4AB,$GPRMC,080127,A,5442.9182,N,11318.4943,W,000.0,116.9,220819,017.7,E*63
01DE5B,022637,00C4AC,$GPRMC,080128,A,5442.9179,N,11318.4951,W,000.0,116.9,220819,017.7,E*6B
01DE5C,022638,00C4AD,$GPRMC,080129,A,5442.9179,N,11318.4952,W,000.0,116.9,220819,017.7,E*69
01DE5A,022636,00C4AC,$GPRMC,080130,A,5442.9176,N,11318.4955,W,000.0,116.9,220819,017.7,E*69
01DE5B,022637,00C4AB,$GPRMC,080131,A,5442.9176,N,11318.4956,W,000.0,116.9,220819,017.7,E*6B
01DE58,022633,00C4AA,$GPRMC,080132,A,5442.9173,N,11318.4970,W,000.0,116.9,220819,017.7,E*69
01DE5B,022637,00C4AC,$GPRMC,080133,A,5442.9178,N,11318.4969,W,000.0,116.9,220819,017.7,E*6B
01DE5C,022638,00C4AC,$GPRMC,080134,A,5442.9182,N,11318.4966,W,000.0,116.9,220819,017.7,E*66
01DE5A,022635,00C4AB,$GPRMC,080135,A,5442.9180,N,11318.4975,W,000.0,116.9,220819,017.7,E*67
01DE5A,022635,00C4AC,$GPRMC,080136,A,5442.9178,N,11318.4981,W,000.0,116.9,220819,017.7,E*68
01DE5D,022638,00C4AD,$GPRMC,080137,A,5442.9178,N,11318.4986,W,000.0,116.9,220819,017.7,E*6E
01DE59,022634,00C4AA,$GPRMC,080138,A,5442.9177,N,11318.4990,W,000.0,116.9,220819,017.7,E*69
01DE5A,022635,00C4AB,$GPRMC,080139,A,5442.9177,N,11318.4994,W,000.0,116.9,220819,017.7,E*6C
01DE59,022634,00C4AB,$GPRMC,080140,A,5442.9177,N,11318.4998,W,000.0,116.9,220819,017.7,E*6E
01DE59,022634,00C4AB,$GPRMC,080141,A,5442.9176,N,11318.5001,W,000.0,116.9,220819,017.7,E*66
01DE58,022632,00C4A9,$GPRMC,080142,A,5442.9177,N,11318.5003,W,000.0,116.9,220819,017.7,E*66
01DE5A,022634,00C4AA,$GPRMC,080143,A,5442.9177,N,11318.5004,W,000.0,116.9,220819,017.7,E*60
01DE5A,022633,00C4AB,$GPRMC,080144,A,5442.9177,N,11318.5005,W,000.0,116.9,220819,017.7,E*66
01DE5B,022635,00C4AB,$GPRMC,080145,A,5442.9178,N,11318.5006,W,000.0,116.9,220819,017.7,E*6B
01DE5A,022635,00C4AA,$GPRMC,080146,A,5442.9178,N,11318.5006,W,000.0,116.9,220819,017.7,E*68
01DE5F,02263A,00C4AD,$GPRMC,080147,A,5442.9179,N,11318.5006,W,000.0,116.9,220819,017.7,E*68
01DE5B,022636,00C4AB,$GPRMC,080148,A,5442.9180,N,11318.5006,W,000.0,116.9,220819,017.7,E*61
01DE5D,022637,00C4AC,$GPRMC,080149,A,5442.9182,N,11318.5005,W,000.0,116.9,220819,017.7,E*61
01DE5D,022639,00C4AD,$GPRMC,080150,A,5442.9183,N,11318.5004,W,000.0,116.9,220819,017.7,E*69
01DE61,02263E,00C4AF,$GPRMC,080151,A,5442.9184,N,11318.5002,W,000.0,116.9,220819,017.7,E*69
01DE5C,022635,00C4AB,$GPRMC,080152,A,5442.9185,N,11318.5002,W,000.0,116.9,220819,017.7,E*6B
01DE5F,02263C,00C4AE,$GPRMC,080153,A,5442.9186,N,11318.5002,W,000.0,116.9,220819,017.7,E*69
01DE5D,022637,00C4AC,$GPRMC,080154,A,5442.9185,N,11318.5005,W,000.0,116.9,220819,017.7,E*6A
01DE5E,02263A,00C4AD,$GPRMC,080155,A,5442.9185,N,11318.5008,W,000.0,116.9,220819,017.7,E*66
01DE5C,022635,00C4AC,$GPRMC,080156,A,5442.9184,N,11318.5013,W,000.0,116.9,220819,017.7,E*6E
01DE5E,022639,00C4AD,$GPRMC,080157,A,5442.9183,N,11318.5014,W,000.0,116.9,220819,017.7,E*6F
01DE5D,022638,00C4AC,$GPRMC,080158,A,5442.9182,N,11318.5022,W,000.0,116.9,220819,017.7,E*64
01DE5F,02263A,00C4AD,$GPRMC,080159,A,5442.9180,N,11318.5030,W,000.0,116.9,220819,017.7,E*64
01DE5E,022639,00C4AD,$GPRMC,080200,A,5442.9179,N,11318.5040,W,000.0,116.9,220819,017.7,E*6A
01DE5F,02263B,00C4AE,$GPRMC,080201,A,5442.9178,N,11318.5048,W,000.0,116.9,220819,017.7,E*62
01DE61,02263D,00C4AE,$GPRMC,080202,A,5442.9177,N,11318.5055,W,000.0,116.9,220819,017.7,E*62
01DE5E,02263B,00C4AC,$GPRMC,080203,A,5442.9176,N,11318.5062,W,000.0,116.9,220819,017.7,E*66
01DE5E,022638,00C4AC,$GPRMC,080204,A,5442.9176,N,11318.5068,W,000.0,116.9,220819,017.7,E*6B
01DE5C,022636,00C4AC,$GPRMC,080205,A,5442.9174,N,11318.5081,W,000.0,116.9,220819,017.7,E*6F
01DE5D,022639,00C4AC,$GPRMC,080206,A,5442.9174,N,11318.5085,W,000.0,116.9,220819,017.7,E*68
01DE5F,02263B,00C4AE,$GPRMC,080207,A,5442.9174,N,11318.5087,W,000.0,116.9,220819,017.7,E*6B
01DE5E,022638,00C4AC,$GPRMC,080208,A,5442.9175,N,11318.5088,W,000.0,116.9,220819,017.7,E*6A
01DE5D,022637,00C4AC,$GPRMC,080209,A,5442.9176,N,11318.5089,W,000.0,116.9,220819,017.7,E*69
01DE5D,022639,00C4AD,$GPRMC,080210,A,5442.9176,N,11318.5089,W,000.0,116.9,220819,017.7,E*61
01DE5D,022638,00C4AD,$GPRMC,080211,A,5442.9177,N,11318.5088,W,000.0,116.9,220819,017.7,E*60
01DE5B,022635,00C4AB,$GPRMC,080212,A,5442.9178,N,11318.5087,W,000.0,116.9,220819,017.7,E*63
01DE60,02263B,00C4AD,$GPRMC,080213,A,5442.9178,N,11318.5087,W,000.0,116.9,220819,017.7,E*62
01DE5B,022634,00C4AA,$GPRMC,080214,A,5442.9177,N,11318.5087,W,000.0,116.9,220819,017.7,E*6A
01DE5D,022638,00C4AC,$GPRMC,080215,A,5442.9176,N,11318.5088,W,000.0,116.9,220819,017.7,E*65
01DE5C,022637,00C4AB,$GPRMC,080216,A,5442.9176,N,11318.5088,W,000.0,116.9,220819,017.7,E*66
01DE5C,022636,00C4AB,$GPRMC,080217,A,5442.9175,N,11318.5090,W,000.0,116.9,220819,017.7,E*6D
01DE5A,022634,00C4AB,$GPRMC,080218,A,5442.9174,N,11318.5091,W,000.0,116.9,220819,017.7,E*62
01DE5A,022632,00C4AA,$GPRMC,080219,A,5442.9172,N,11318.5093,W,000.0,116.9,220819,017.7,E*67
01DE5B,022634,00C4AB,$GPRMC,080220,A,5442.9171,N,11318.5096,W,000.0,116.9,220819,017.7,E*6B
01DE5B,022635,00C4AB,$GPRMC,080221,A,5442.9170,N,11318.5097,W,000.0,116.9,220819,017.7,E*6A
01DE5B,022633,00C4AA,$GPRMC,080222,A,5442.9170,N,11318.5097,W,000.0,116.9,220819,017.7,E*69
01DE5C,022636,00C4AC,$GPRMC,080223,A,5442.9170,N,11318.5098,W,000.0,116.9,220819,017.7,E*67
01DE5C,022635,00C4AB,$GPRMC,080224,A,5442.9170,N,11318.5098,W,000.0,116.9,220819,017.7,E*60
01DE5C,022636,00C4AB,$GPRMC,080225,A,5442.9169,N,11318.5099,W,000.0,116.9,220819,017.7,E*68
01DE5A,022634,00C4AB,$GPRMC,080226,A,5442.9169,N,11318.5093,W,000.0,116.9,220819,017.7,E*61
01DE59,022631,00C4AA,$GPRMC,080227,A,5442.9169,N,11318.5093,W,000.0,116.9,220819,017.7,E*60
01DE5F,02263A,00C4AD,$GPRMC,080228,A,5442.9169,N,11318.5093,W,000.0,116.9,220819,017.7,E*6F
01DE5B,022635,00C4AB,$GPRMC,080229,A,5442.9169,N,11318.5093,W,000.0,116.9,220819,017.7,E*6E
01DE5C,022636,00C4AC,$GPRMC,080230,A,5442.9382,N,11318.4687,W,000.0,116.9,220819,017.7,E*63
01DE5D,022638,00C4AC,$GPRMC,080231,A,5442.9381,N,11318.4680,W,000.0,116.9,220819,017.7,E*66
01DE5D,022639,00C4AD,$GPRMC,080232,A,5442.9375,N,11318.4663,W,000.0,116.9,220819,017.7,E*63
01DE5A,022633,00C4AA,$GPRMC,080233,A,5442.9375,N,11318.4654,W,000.0,116.9,220819,017.7,E*66
01DE5B,022635,00C4AB,$GPRMC,080234,A,5442.9282,N,11318.4835,W,000.0,116.9,220819,017.7,E*61
01DE5D,022638,00C4AC,$GPRMC,080235,A,5442.9250,N,11318.4908,W,000.0,116.9,220819,017.7,E*60
01DE5B,022635,00C4AB,$GPRMC,080236,A,5442.9233,N,11318.4941,W,000.0,116.9,220819,017.7,E*6B
01DE5C,022636,00C4AB,$GPRMC,080237,A,5442.9202,N,11318.5052,W,000.0,116.9,220819,017.7,E*62
01DE5B,022637,00C4AB,$GPRMC,080238,A,5442.9181,N,11318.5131,W,000.0,116.9,220819,017.7,E*61
01DE5A,022632,00C4AA,$GPRMC,080239,A,5442.9178,N,11318.5117,W,000.0,116.9,220819,017.7,E*62
01DE5C,022635,00C4AB,$GPRMC,080240,A,5442.9176,N,11318.5109,W,000.0,116.9,220819,017.7,E*6D
01DE5D,022637,00C4AC,$GPRMC,080241,A,5442.9172,N,11318.5107,W,000.0,116.9,220819,017.7,E*66
01DE5D,022637,00C4AC,$GPRMC,080242,A,5442.9169,N,11318.5108,W,000.0,116.9,220819,017.7,E*60
01DE5A,022633,00C4AA,$GPRMC,080243,A,5442.9164,N,11318.5113,W,000.0,116.9,220819,017.7,E*66
01DE5C,022636,00C4AB,$GPRMC,080244,A,5442.9160,N,11318.5116,W,000.0,116.9,220819,017.7,E*60
01DE5E,02263A,00C4AD,$GPRMC,080245,A,5442.9159,N,11318.5119,W,000.0,116.9,220819,017.7,E*64
01DE59,022631,00C4AA,$GPRMC,080246,A,5442.9156,N,11318.5122,W,000.0,116.9,220819,017.7,E*60
01DE5D,022638,00C4AC,$GPRMC,080247,A,5442.9400,N,11318.4579,W,000.0,116.9,220819,017.7,E*6C
01DE5B,022635,00C4AB,$GPRMC,080248,A,5442.9186,N,11318.5100,W,000.0,116.9,220819,017.7,E*63
01DE5A,022632,00C4AA,$GPRMC,080249,A,5442.9159,N,11318.5182,W,000.0,116.9,220819,017.7,E*6A
01DE5B,022635,00C4AA,$GPRMC,080250,A,5442.9376,N,11318.4759,W,000.0,116.9,220819,017.7,E*6C
01DE57,02262F,00C4A8,$GPRMC,080251,A,5442.9239,N,11318.5009,W,000.0,116.9,220819,017.7,E*64
01DE5B,022635,00C4AA,$GPRMC,080252,A,5442.9209,N,11318.5095,W,000.0,116.9,220819,017.7,E*61
01DE5D,022639,00C4AC,$GPRMC,080253,A,5442.9333,N,11318.4866,W,000.0,116.9,220819,017.7,E*6D
01DE5D,022638,00C4AC,$GPRMC,080254,A,5442.9382,N,11318.4776,W,000.0,116.9,220819,017.7,E*6E
01DE5E,022639,00C4AD,$GPRMC,080255,A,5442.9406,N,11318.4736,W,000.0,116.9,220819,017.7,E*60
01DE5E,022639,00C4AC,$GPRMC,080256,A,5442.9415,N,11318.4718,W,000.0,116.9,220819,017.7,E*6D
01DE5B,022634,00C4AB,$GPRMC,080257,A,5442.9415,N,11318.4702,W,000.0,116.9,220819,017.7,E*67
01DE5B,022635,00C4AB,$GPRMC,080258,A,5442.9415,N,11318.4693,W,000.0,116.9,220819,017.7,E*61
01DE5D,022637,00C4AC,$GPRMC,080259,A,5442.9414,N,11318.4688,W,000.0,116.9,220819,017.7,E*6B
01DE59,022631,00C4A9,$GPRMC,080300,A,5442.9389,N,11318.4733,W,000.0,116.9,220819,017.7,E*64
01DE58,02262F,00C4A8,$GPRMC,080301,A,5442.9389,N,11318.4733,W,000.0,116.9,220819,017.7,E*65
01DE5B,022634,00C4AA,$GPRMC,080302,A,5442.9389,N,11318.4733,W,000.0,116.9,220819,017.7,E*66
01DE5D,022636,00C4AB,$GPRMC,080303,A,5442.9385,N,11318.4727,W,000.0,116.9,220819,017.7,E*6E
01DE5C,022634,00C4AA,$GPRMC,080304,A,5442.9382,N,11318.4722,W,000.0,116.9,220819,017.7,E*6B
01DE60,02263B,00C4AD,$GPRMC,080305,A,5442.9379,N,11318.4718,W,000.0,116.9,220819,017.7,E*67
01DE59,022630,00C4A9,$GPRMC,080306,A,5442.9371,N,11318.4715,W,000.0,116.9,220819,017.7,E*61
01DE5F,02263A,00C4AC,$GPRMC,080307,A,5442.9372,N,11318.4713,W,000.0,116.9,220819,017.7,E*65
01DE5B,022632,00C4AA,$GPRMC,080308,A,5442.9367,N,11318.4710,W,000.0,116.9,220819,017.7,E*6D
01DE60,02263A,00C4AD,$GPRMC,080309,A,5442.9364,N,11318.4708,W,000.0,116.9,220819,017.7,E*66
01DE59,022630,00C4A8,$GPRMC,080310,A,5442.9359,N,11318.4715,W,000.0,116.9,220819,017.7,E*6C
01DE5A,022633,00C4A9,$GPRMC,080311,A,5442.9356,N,11318.4720,W,000.0,116.9,220819,017.7,E*64
01DE5D,022637,00C4AC,$GPRMC,080312,A,5442.9355,N,11318.4719,W,000.0,116.9,220819,017.7,E*6E
01DE5D,022638,00C4AC,$GPRMC,080313,A,5442.9355,N,11318.4718,W,000.0,116.9,220819,017.7,E*6E
01DE5D,022636,00C4AB,$GPRMC,080314,A,5442.9354,N,11318.4716,W,000.0,116.9,220819,017.7,E*66
01DE5D,022636,00C4AB,$GPRMC,080315,A,5442.9354,N,11318.4716,W,000.0,116.9,220819,017.7,E*67
01DE5E,022639,00C4AC,$GPRMC,080316,A,5442.9353,N,11318.4715,W,000.0,116.9,220819,017.7,E*60
01DE61,02263E,00C4AE,$GPRMC,080317,A,5442.9353,N,11318.4714,W,000.0,116.9,220819,017.7,E*60
01DE5C,022636,00C4AB,$GPRMC,080318,A,5442.9353,N,11318.4714,W,000.0,116.9,220819,017.7,E*6F
01DE5E,022639,00C4AC,$GPRMC,080319,A,5442.9354,N,11318.4713,W,000.0,116.9,220819,017.7,E*6E
01DE58,02262F,00C4A8,$GPRMC,080320,A,5442.9355,N,11318.4712,W,000.0,116.9,220819,017.7,E*64
01DE5E,022638,00C4AB,$GPRMC,080321,A,5442.9356,N,11318.4712,W,000.0,116.9,220819,017.7,E*66
01DE5D,022635,00C4AB,$GPRMC,080322,A,5442.9357,N,11318.4711,W,000.0,116.9,220819,017.7,E*67
01DE57,02262E,00C4A8,$GPRMC,080323,A,5442.9358,N,11318.4712,W,000.0,116.9,220819,017.7,E*6A
01DE5F,02263B,00C4AD,$GPRMC,080324,A,5442.9361,N,11318.4713,W,000.0,116.9,220819,017.7,E*66
01DE5B,022633,00C4AB,$GPRMC,080325,A,5442.9376,N,11318.4715,W,000.0,116.9,220819,017.7,E*67
01DE5B,022634,00C4AB,$GPRMC,080326,A,5442.9379,N,11318.4718,W,000.0,116.9,220819,017.7,E*66
01DE5F,02263A,00C4AD,$GPRMC,080327,A,5442.9381,N,11318.4720,W,000.0,116.9,220819,017.7,E*6B
01DE5E,022638,00C4AC,$GPRMC,080328,A,5442.9383,N,11318.4722,W,000.0,116.9,220819,017.7,E*64
01DE5E,022639,00C4AD,$GPRMC,080329,A,5442.9385,N,11318.4724,W,000.0,116.9,220819,017.7,E*65
01DE60,02263A,00C4AE,$GPRMC,080330,A,5442.9385,N,11318.4725,W,000.0,116.9,220819,017.7,E*6C
01DE5D,022638,00C4AC,$GPRMC,080331,A,5442.9386,N,11318.4726,W,000.0,116.9,220819,017.7,E*6D
01DE60,02263B,00C4AE,$GPRMC,080332,A,5442.9386,N,11318.4727,W,000.0,116.9,220819,017.7,E*6F
01DE5C,022636,00C4AB,$GPRMC,080333,A,5442.9386,N,11318.4729,W,000.0,116.9,220819,017.7,E*60
01DE62,02263D,00C4AE,$GPRMC,080334,A,5442.9386,N,11318.4730,W,000.0,116.9,220819,017.7,E*6F
01DE5E,022637,00C4AD,$GPRMC,080335,A,5442.9386,N,11318.4731,W,000.0,116.9,220819,017.7,E*6F
01DE5F,02263A,00C4AD,$GPRMC,080336,A,5442.9385,N,11318.4732,W,000.0,116.9,220819,017.7,E*6C
01DE5D,022638,00C4AC,$GPRMC,080337,A,5442.9384,N,11318.4733,W,000.0,116.9,220819,017.7,E*6D
01DE61,02263D,00C4AE,$GPRMC,080338,A,5442.9383,N,11318.4734,W,000.0,116.9,220819,017.7,E*62
01DE5B,022634,00C4AB,$GPRMC,080339,A,5442.9384,N,11318.4731,W,000.0,116.9,220819,017.7,E*61
01DE60,02263B,00C4AE,$GPRMC,080340,A,5442.9382,N,11318.4732,W,000.0,116.9,220819,017.7,E*6A
01DE5C,022636,00C4AB,$GPRMC,080341,A,5442.9381,N,11318.4732,W,000.0,116.9,220819,017.7,E*68
01DE60,02263A,00C4AD,$GPRMC,080342,A,5442.9380,N,11318.4732,W,000.0,116.9,220819,017.7,E*6A
01DE5A,022633,00C4AA,$GPRMC,080343,A,5442.9379,N,11318.4732,W,000.0,116.9,220819,017.7,E*6D
01DE5B,022634,00C4AA,$GPRMC,080344,A,5442.9376,N,11318.4735,W,000.0,116.9,220819,017.7,E*62
01DE5E,022638,00C4AB,$GPRMC,080345,A,5442.9376,N,11318.4734,W,000.0,116.9,220819,017.7,E*62
01DE61,02263C,00C4AE,$GPRMC,080346,A,5442.9376,N,11318.4734,W,000.0,116.9,220819,017.7,E*61
01DE5C,022637,00C4AC,$GPRMC,080347,A,5442.9376,N,11318.4733,W,000.0,116.9,220819,017.7,E*67
01DE5E,022638,00C4AC,$GPRMC,080348,A,5442.9377,N,11318.4732,W,000.0,116.9,220819,017.7,E*68
01DE61,02263C,00C4AD,$GPRMC,080349,A,5442.9372,N,11318.4744,W,000.0,116.9,220819,017.7,E*6D
01DE5D,022635,00C4AB,$GPRMC,080350,A,5442.9372,N,11318.4740,W,000.0,116.9,220819,017.7,E*61
01DE5D,022637,00C4AB,$GPRMC,080351,A,5442.9373,N,11318.4739,W,000.0,116.9,220819,017.7,E*6F
01DE5D,022637,00C4AC,$GPRMC,080352,A,5442.9375,N,11318.4736,W,000.0,116.9,220819,017.7,E*65
01DE5C,022635,00C4AB,$GPRMC,080353,A,5442.9376,N,11318.4736,W,000.0,116.9,220819,017.7,E*67
01DE5B,022632,00C4AA,$GPRMC,080354,A,5442.9371,N,11318.4734,W,000.0,116.9,220819,017.7,E*65
01DE5C,022636,00C4AB,$GPRMC,080355,A,5442.9373,N,11318.4732,W,000.0,116.9,220819,017.7,E*60
01DE62,02263D,00C4AE,$GPRMC,080356,A,5442.9375,N,11318.4731,W,000.0,116.9,220819,017.7,E*66
01DE59,022631,00C4A9,$GPRMC,080357,A,5442.9377,N,11318.4730,W,000.0,116.9,220819,017.7,E*64
01DE5F,022639,00C4AC,$GPRMC,080358,A,5442.9379,N,11318.4731,W,000.0,116.9,220819,017.7,E*64
01DE60,02263A,00C4AC,$GPRMC,080359,A,5442.9381,N,11318.4731,W,000.0,116.9,220819,017.7,E*62
01DE5C,022636,00C4AA,$GPRMC,080400,A,5442.9382,N,11318.4731,W,000.0,116.9,220819,017.7,E*6A
01DE60,02263A,00C4AC,$GPRMC,080401,A,5442.9383,N,11318.4731,W,000.0,116.9,220819,017.7,E*6A
01DE5A,022632,00C4A9,$GPRMC,080402,A,5442.9380,N,11318.4730,W,000.0,116.9,220819,017.7,E*6B
01DE5C,022635,00C4AB,$GPRMC,080403,A,5442.9377,N,11318.4729,W,000.0,116.9,220819,017.7,E*6A
01DE5A,022630,00C4A9,$GPRMC,080404,A,5442.9376,N,11318.4728,W,000.0,116.9,220819,017.7,E*6D
01DE5A,022632,00C4A9,$GPRMC,080405,A,5442.9376,N,11318.4727,W,000.0,116.9,220819,017.7,E*63
01DE60,022639,00C4AC,$GPRMC,080406,A,5442.9375,N,11318.4727,W,000.0,116.9,220819,017.7,E*63
01DE5C,022633,00C4AA,$GPRMC,080407,A,5442.9374,N,11318.4726,W,000.0,116.9,220819,017.7,E*62
01DE5D,022636,00C4AB,$GPRMC,080408,A,5442.9374,N,11318.4725,W,000.0,116.9,220819,017.7,E*6E
01DE5C,022632,00C4AA,$GPRMC,080409,A,5442.9375,N,11318.4719,W,000.0,116.9,220819,017.7,E*61
01DE5F,022639,00C4AC,$GPRMC,080410,A,5442.9373,N,11318.4722,W,000.0,116.9,220819,017.7,E*67
01DE5D,022635,00C4AB,$GPRMC,080411,A,5442.9371,N,11318.4723,W,000.0,116.9,220819,017.7,E*65
01DE5E,022637,00C4AC,$GPRMC,080412,A,5442.9369,N,11318.4723,W,000.0,116.9,220819,017.7,E*6F
01DE5B,022634,00C4AB,$GPRMC,080413,A,5442.9367,N,11318.4723,W,000.0,116.9,220819,017.7,E*60
01DE58,02262E,00C4A8,$GPRMC,080414,A,5442.9367,N,11318.4724,W,000.0,116.9,220819,017.7,E*60
01DE60,02263A,00C4AD,$GPRMC,080415,A,5442.9367,N,11318.4726,W,000.0,116.9,220819,017.7,E*63
01DE5C,022635,00C4AB,$GPRMC,080416,A,5442.9368,N,11318.4727,W,000.0,116.9,220819,017.7,E*6E
01DE60,022638,00C4AD,$GPRMC,080417,A,5442.9368,N,11318.4728,W,000.0,116.9,220819,017.7,E*60
01DE5B,022632,00C4AA,$GPRMC,080418,A,5442.9369,N,11318.4728,W,000.0,116.9,220819,017.7,E*6E
01DE5B,022632,00C4AA,$GPRMC,080419,A,5442.9369,N,11318.4724,W,000.0,116.9,220819,017.7,E*63
01DE5C,022634,00C4AB,$GPRMC,080420,A,5442.9378,N,11318.4723,W,000.0,116.9,220819,017.7,E*6E
01DE5B,022633,00C4AB,$GPRMC,080421,A,5442.9366,N,11318.4720,W,000.0,116.9,220819,017.7,E*63
01DE5A,022630,00C4A9,$GPRMC,080422,A,5442.9375,N,11318.4720,W,000.0,116.9,220819,017.7,E*62
01DE58,02262E,00C4A8,$GPRMC,080423,A,5442.9384,N,11318.4719,W,000.0,116.9,220819,017.7,E*67
01DE60,022639,00C4AD,$GPRMC,080424,A,5442.9393,N,11318.4718,W,000.0,116.9,220819,017.7,E*67
01DE57,02262E,00C4A8,$GPRMC,080425,A,5442.9402,N,11318.4718,W,000.0,116.9,220819,017.7,E*69
01DE5A,022631,00C4A9,$GPRMC,080426,A,5442.9411,N,11318.4717,W,000.0,116.9,220819,017.7,E*67
01DE5E,022636,00C4AB,$GPRMC,080427,A,5442.9412,N,11318.4717,W,000.0,116.9,220819,017.7,E*65
01DE5B,022633,00C4AA,$GPRMC,080428,A,5442.9412,N,11318.4718,W,000.0,116.9,220819,017.7,E*65
01DE5D,022634,00C4AB,$GPRMC,080429,A,5442.9412,N,11318.4718,W,000.0,116.9,220819,017.7,E*64
01DE5D,022636,00C4AC,$GPRMC,080430,A,5442.9413,N,11318.4719,W,000.0,116.9,220819,017.7,E*6C
01DE5B,022633,00C4AA,$GPRMC,080431,A,5442.9413,N,11318.4719,W,000.0,116.9,220819,017.7,E*6D
01DE5D,022634,00C4AB,$GPRMC,080432,A,5442.9413,N,11318.4720,W,000.0,116.9,220819,017.7,E*64
01DE5C,022634,00C4AA,$GPRMC,080433,A,5442.9414,N,11318.4720,W,000.0,116.9,220819,017.7,E*62
01DE5C,022634,00C4AA,$GPRMC,080434,A,5442.9414,N,11318.4721,W,000.0,116.9,220819,017.7,E*64
01DE5B,022633,00C4AA,$GPRMC,080435,A,5442.9414,N,11318.4721,W,000.0,116.9,220819,017.7,E*65
01DE5F,022638,00C4AD,$GPRMC,080436,A,5442.9415,N,11318.4721,W,000.0,116.9,220819,017.7,E*67
01DE5C,022633,00C4AA,$GPRMC,080437,A,5442.9415,N,11318.4722,W,000.0,116.9,220819,017.7,E*65
01DE5F,022637,00C4AC,$GPRMC,080438,A,5442.9415,N,11318.4722,W,000.0,116.9,220819,017.7,E*6A
01DE60,02263A,00C4AE,$GPRMC,080439,A,5442.9415,N,11318.4722,W,000.0,116.9,220819,017.7,E*6B
01DE5D,022635,00C4AC,$GPRMC,080440,A,5442.9415,N,11318.4722,W,000.0,116.9,220819,017.7,E*65
01DE5F,022639,00C4AD,$GPRMC,080441,A,5442.9415,N,11318.4723,W,000.0,116.9,220819,017.7,E*65
01DE5F,022638,00C4AC,$GPRMC,080442,A,5442.9415,N,11318.4724,W,000.0,116.9,220819,017.7,E*61
01DE60,022639,00C4AD,$GPRMC,080443,A,5442.9415,N,11318.4725,W,000.0,116.9,220819,017.7,E*61
01DE5F,022637,00C4AC,$GPRMC,080444,A,5442.9415,N,11318.4726,W,000.0,116.9,220819,017.7,E*65
01DE5F,022637,00C4AC,$GPRMC,080445,A,5442.9415,N,11318.4729,W,000.0,116.9,220819,017.7,E*6B
01DE63,02263D,00C4AF,$GPRMC,080446,A,5442.9414,N,11318.4732,W,000.0,116.9,220819,017.7,E*63
01DE61,02263A,00C4AE,$GPRMC,080447,A,5442.9414,N,11318.4735,W,000.0,116.9,220819,017.7,E*65
01DE62,02263B,00C4AE,$GPRMC,080448,A,5442.9413,N,11318.4735,W,000.0,116.9,220819,017.7,E*6D
01DE61,02263A,00C4AD,$GPRMC,080449,A,5442.9413,N,11318.4735,W,000.0,116.9,220819,017.7,E*6C
01DE5E,022638,00C4AD,$GPRMC,080450,A,5442.9413,N,11318.4734,W,000.0,116.9,220819,017.7,E*65
01DE61,02263A,00C4AE,$GPRMC,080451,A,5442.9412,N,11318.4736,W,000.0,116.9,220819,017.7,E*67
01DE5E,022635,00C4AC,$GPRMC,080452,A,5442.9410,N,11318.4738,W,000.0,116.9,220819,017.7,E*68
01DE5F,022638,00C4AD,$GPRMC,080453,A,5442.9404,N,11318.4738,W,001.7,169.7,220819,017.7,E*6C
01DE5D,022636,00C4AB,$GPRMC,080454,A,5442.9388,N,11318.4736,W,000.8,169.4,220819,017.7,E*6B
01DE5F,022637,00C4AD,$GPRMC,080455,A,5442.9391,N,11318.4735,W,001.1,179.1,220819,017.7,E*6D
01DE5B,022633,00C4AA,$GPRMC,080456,A,5442.9394,N,11318.4735,W,000.9,176.6,220819,017.7,E*6A
01DE5D,022634,00C4AB,$GPRMC,080457,A,5442.9397,N,11318.4735,W,000.7,178.4,220819,017.7,E*6A
01DE5E,022637,00C4AC,$GPRMC,080458,A,5442.9400,N,11318.4734,W,000.5,176.6,220819,017.7,E*63
01DE60,022639,00C4AD,$GPRMC,080459,A,5442.9403,N,11318.4733,W,000.4,176.6,220819,017.7,E*67
01DE5F,022638,00C4AC,$GPRMC,080500,A,5442.9406,N,11318.4733,W,000.3,176.6,220819,017.7,E*68
01DE5F,022637,00C4AC,$GPRMC,080501,A,5442.9420,N,11318.4674,W,001.1,176.6,220819,017.7,E*6C
01DE60,02263A,00C4AE,$GPRMC,080502,A,5442.9404,N,11318.4669,W,000.0,176.6,220819,017.7,E*65
01DE5F,022637,00C4AC,$GPRMC,080503,A,5442.9405,N,11318.4670,W,000.3,176.6,220819,017.7,E*6E
01DE5D,022635,00C4AB,$GPRMC,080504,A,5442.9407,N,11318.4671,W,000.0,176.6,220819,017.7,E*69
01DE5E,022636,00C4AC,$GPRMC,080505,A,5442.9395,N,11318.4672,W,000.0,176.6,220819,017.7,E*67
01DE60,022638,00C4AD,$GPRMC,080506,A,5442.9387,N,11318.4673,W,000.0,176.6,220819,017.7,E*66
01DE60,022639,00C4AD,$GPRMC,080507,A,5442.9378,N,11318.4674,W,000.0,176.6,220819,017.7,E*60
01DE5F,022638,00C4AD,$GPRMC,080508,A,5442.9371,N,11318.4674,W,000.0,176.6,220819,017.7,E*66
01DE5B,022632,00C4AA,$GPRMC,080509,A,5442.9371,N,11318.4674,W,000.0,176.6,220819,017.7,E*67
01DE5F,022637,00C4AC,$GPRMC,080510,A,5442.9371,N,11318.4674,W,000.0,176.6,220819,017.7,E*6F
01DE5D,022635,00C4AB,$GPRMC,080511,A,5442.9367,N,11318.4673,W,000.0,176.6,220819,017.7,E*6E
01DE5D,022635,00C4AB,$GPRMC,080512,A,5442.9360,N,11318.4686,W,001.1,176.6,220819,017.7,E*60
01DE59,02262F,00C4A9,$GPRMC,080513,A,5442.9358,N,11318.4686,W,000.9,176.6,220819,017.7,E*63
01DE5D,022635,00C4AB,$GPRMC,080514,A,5442.9351,N,11318.4703,W,000.0,176.6,220819,017.7,E*68
01DE5B,022633,00C4AA,$GPRMC,080515,A,5442.9344,N,11318.4720,W,000.0,176.6,220819,017.7,E*6C
01DE5F,022638,00C4AC,$GPRMC,080516,A,5442.9338,N,11318.4738,W,000.0,176.6,220819,017.7,E*6D
01DE5D,022635,00C4AB,$GPRMC,080517,A,5442.9331,N,11318.4759,W,000.0,176.6,220819,017.7,E*62
01DE5A,022632,00C4A9,$GPRMC,080518,A,5442.9325,N,11318.4778,W,000.0,176.6,220819,017.7,E*6B
01DE5E,022638,00C4AC,$GPRMC,080519,A,5442.9320,N,11318.4796,W,000.0,176.6,220819,017.7,E*6F
01DE5A,022631,00C4AA,$GPRMC,080520,A,5442.9320,N,11318.4796,W,000.0,176.6,220819,017.7,E*65
01DE60,02263B,00C4AD,$GPRMC,080521,A,5442.9319,N,11318.4802,W,000.0,176.6,220819,017.7,E*6C
01DE60,02263A,00C4AD,$GPRMC,080522,A,5442.9319,N,11318.4805,W,000.0,176.6,220819,017.7,E*68
01DE60,02263B,00C4AE,$GPRMC,080523,A,5442.9321,N,11318.4805,W,000.0,176.6,220819,017.7,E*62
01DE62,02263E,00C4AF,$GPRMC,080524,A,5442.9323,N,11318.4804,W,000.0,176.6,220819,017.7,E*66
01DE5F,022638,00C4AC,$GPRMC,080525,A,5442.9325,N,11318.4804,W,000.0,176.6,220819,017.7,E*61
01DE5E,022638,00C4AB,$GPRMC,080526,A,5442.9329,N,11318.4801,W,000.0,176.6,220819,017.7,E*6B
01DE59,022630,00C4A9,$GPRMC,080527,A,5442.9332,N,11318.4800,W,000.0,176.6,220819,017.7,E*61
01DE5E,022638,00C4AC,$GPRMC,080528,A,5442.9331,N,11318.4801,W,000.0,176.6,220819,017.7,E*6C
01DE5C,022634,00C4AA,$GPRMC,080529,A,5442.9339,N,11318.4775,W,000.0,176.6,220819,017.7,E*69
01DE5F,02263A,00C4AD,$GPRMC,080530,A,5442.9346,N,11318.4754,W,000.0,176.6,220819,017.7,E*6A
01DE5D,022636,00C4AB,$GPRMC,080531,A,5442.9344,N,11318.4757,W,000.0,176.6,220819,017.7,E*6A
01DE5F,022638,00C4AC,$GPRMC,080532,A,5442.9345,N,11318.4756,W,000.0,176.6,220819,017.7,E*69
01DE62,02263E,00C4AE,$GPRMC,080533,A,5442.9345,N,11318.4756,W,000.0,176.6,220819,017.7,E*68
01DE5C,022634,00C4AA,$GPRMC,080534,A,5442.9344,N,11318.4756,W,000.0,176.6,220819,017.7,E*6E
01DE62,02263E,00C4AF,$GPRMC,080535,A,5442.9343,N,11318.4757,W,000.0,176.6,220819,017.7,E*69
01DE5D,022637,00C4AC,$GPRMC,080536,A,5442.9339,N,11318.4762,W,000.0,176.6,220819,017.7,E*61
01DE5E,022637,00C4AC,$GPRMC,080537,A,5442.9338,N,11318.4765,W,000.0,176.6,220819,017.7,E*66
01DE5C,022635,00C4AB,$GPRMC,080538,A,5442.9334,N,11318.4765,W,000.0,176.6,220819,017.7,E*65
01DE5D,022637,00C4AB,$GPRMC,080539,A,5442.9333,N,11318.4765,W,000.0,176.6,220819,017.7,E*63
01DE5A,022632,00C4AA,$GPRMC,080540,A,5442.9329,N,11318.4771,W,000.0,176.6,220819,017.7,E*63
01DE5F,02263A,00C4AC,$GPRMC,080541,A,5442.9329,N,11318.4771,W,000.0,176.6,220819,017.7,E*62
01DE61,02263D,00C4AE,$GPRMC,080542,A,5442.9329,N,11318.4771,W,000.0,176.6,220819,017.7,E*61
01DE60,02263A,00C4AD,$GPRMC,080543,A,5442.9330,N,11318.4771,W,000.0,176.6,220819,017.7,E*68
01DE5E,022637,00C4AC,$GPRMC,080544,A,5442.9330,N,11318.4771,W,000.0,176.6,220819,017.7,E*6F
01DE5E,022639,00C4AD,$GPRMC,080545,A,5442.9329,N,11318.4771,W,000.0,176.6,220819,017.7,E*66
01DE5F,022639,00C4AC,$GPRMC,080546,A,5442.9329,N,11318.4771,W,000.0,176.6,220819,017.7,E*65
01DE5C,022635,00C4AA,$GPRMC,080547,A,5442.9328,N,11318.4771,W,000.0,176.6,220819,017.7,E*65
01DE5E,022639,00C4AC,$GPRMC,080548,A,5442.9327,N,11318.4771,W,000.0,176.6,220819,017.7,E*65
01DE5E,022638,00C4AC,$GPRMC,080549,A,5442.9327,N,11318.4772,W,000.0,176.6,220819,017.7,E*67
01DE5B,022636,00C4AB,$GPRMC,080550,A,5442.9326,N,11318.4772,W,000.0,176.6,220819,017.7,E*6E
01DE5E,022638,00C4AC,$GPRMC,080551,A,5442.9326,N,11318.4772,W,000.0,176.6,220819,017.7,E*6F
01DE5D,022637,00C4AC,$GPRMC,080552,A,5442.9327,N,11318.4773,W,000.0,176.6,220819,017.7,E*6C
01DE5D,022637,00C4AC,$GPRMC,080553,A,5442.9327,N,11318.4773,W,000.0,176.6,220819,017.7,E*6D
01DE60,02263C,00C4AE,$GPRMC,080554,A,5442.9328,N,11318.4774,W,000.0,176.6,220819,017.7,E*62
01DE5D,022638,00C4AB,$GPRMC,080555,A,5442.9329,N,11318.4774,W,000.0,176.6,220819,017.7,E*62
01DE5E,02263B,00C4AD,$GPRMC,080556,A,5442.9330,N,11318.4774,W,000.0,176.6,220819,017.7,E*69
01DE5F,02263A,00C4AD,$GPRMC,080557,A,5442.9330,N,11318.4775,W,000.0,176.6,220819,017.7,E*69
01DE5B,022636,00C4AB,$GPRMC,080558,A,5442.9331,N,11318.4778,W,000.0,176.6,220819,017.7,E*6A
01DE5D,022638,00C4AB,$GPRMC,080559,A,5442.9327,N,11318.4789,W,000.0,176.6,220819,017.7,E*62
01DE5B,022635,00C4AA,$GPRMC,080600,A,5442.9328,N,11318.4788,W,000.0,176.6,220819,017.7,E*63
01DE5A,022633,00C4A9,$GPRMC,080601,A,5442.9328,N,11318.4787,W,000.0,176.6,220819,017.7,E*6D
01DE59,022633,00C4A9,$GPRMC,080602,A,5442.9329,N,11318.4787,W,000.0,176.6,220819,017.7,E*6F
01DE5B,022635,00C4AA,$GPRMC,080603,A,5442.9330,N,11318.4785,W,000.0,176.6,220819,017.7,E*64
01DE5E,02263B,00C4AD,$GPRMC,080604,A,5442.9332,N,11318.4783,W,000.0,176.6,220819,017.7,E*67
01DE59,022632,00C4A9,$GPRMC,080605,A,5442.9334,N,11318.4781,W,000.0,176.6,220819,017.7,E*62
01DE60,02263C,00C4AD,$GPRMC,080606,A,5442.9336,N,11318.4778,W,000.0,176.6,220819,017.7,E*65
01DE5D,022638,00C4AB,$GPRMC,080607,A,5442.9336,N,11318.4776,W,000.0,176.6,220819,017.7,E*6A
01DE5E,02263A,00C4AB,$GPRMC,080608,A,5442.9339,N,11318.4774,W,000.0,176.6,220819,017.7,E*68
01DE59,022633,00C4A9,$GPRMC,080609,A,5442.9341,N,11318.4771,W,000.0,176.6,220819,017.7,E*63
01DE60,02263E,00C4AE,$GPRMC,080610,A,5442.9343,N,11318.4769,W,000.0,176.6,220819,017.7,E*60
01DE5B,022635,00C4AA,$GPRMC,080611,A,5442.9343,N,11318.4767,W,000.0,176.6,220819,017.7,E*6F
01DE5D,022638,00C4AB,$GPRMC,080612,A,5442.9342,N,11318.4764,W,000.0,176.6,220819,017.7,E*6E
01DE64,022642,00C4AF,$GPRMC,080613,A,5442.9342,N,11318.4763,W,000.0,176.6,220819,017.7,E*68
01DE5E,02263A,00C4AD,$GPRMC,080614,A,5442.9342,N,11318.4760,W,000.0,176.6,220819,017.7,E*6C
01DE5E,02263A,00C4AB,$GPRMC,080615,A,5442.9345,N,11318.4752,W,000.0,176.6,220819,017.7,E*6B
01DE5B,022635,00C4AA,$GPRMC,080616,A,5442.9348,N,11318.4740,W,000.0,176.6,220819,017.7,E*66
01DE5B,022634,00C4AA,$GPRMC,080617,A,5442.9351,N,11318.4730,W,000.0,176.6,220819,017.7,E*68
01DE59,022632,00C4A8,$GPRMC,080618,A,5442.9351,N,11318.4730,W,000.0,176.6,220819,017.7,E*67
01DE59,022633,00C4A9,$GPRMC,080619,A,5442.9353,N,11318.4721,W,000.0,176.6,220819,017.7,E*64
01DE5D,022638,00C4AB,$GPRMC,080620,A,5442.9349,N,11318.4725,W,000.0,176.6,220819,017.7,E*61
01DE5D,022636,00C4AB,$GPRMC,080621,A,5442.9346,N,11318.4729,W,000.0,176.6,220819,017.7,E*63
01DE5E,022639,00C4AC,$GPRMC,080622,A,5442.9344,N,11318.4732,W,000.0,176.6,220819,017.7,E*68
01DE61,02263E,00C4AE,$GPRMC,080623,A,5442.9343,N,11318.4735,W,000.0,176.6,220819,017.7,E*69
01DE5E,02263A,00C4AC,$GPRMC,080624,A,5442.9341,N,11318.4740,W,000.0,176.6,220819,017.7,E*6E
01DE5D,022638,00C4AB,$GPRMC,080625,A,5442.9342,N,11318.4743,W,000.0,176.6,220819,017.7,E*6F
01DE5E,022639,00C4AB,$GPRMC,080626,A,5442.9342,N,11318.4747,W,000.0,176.6,220819,017.7,E*68
01DE5D,022637,00C4AB,$GPRMC,080627,A,5442.9338,N,11318.4760,W,000.0,176.6,220819,017.7,E*61
01DE61,02263E,00C4AE,$GPRMC,080628,A,5442.9334,N,11318.4772,W,000.0,176.6,220819,017.7,E*61
01DE5D,022637,00C4AB,$GPRMC,080629,A,5442.9336,N,11318.4772,W,000.0,176.6,220819,017.7,E*62
01DE60,02263C,00C4AD,$GPRMC,080630,A,5442.9338,N,11318.4773,W,000.0,176.6,220819,017.7,E*65
01DE5B,022636,00C4AB,$GPRMC,080631,A,5442.9337,N,11318.4774,W,000.0,176.6,220819,017.7,E*6C
01DE5D,022637,00C4AC,$GPRMC,080632,A,5442.9342,N,11318.4774,W,000.0,176.6,220819,017.7,E*6D
01DE5C,022636,00C4AB,$GPRMC,080633,A,5442.9340,N,11318.4774,W,000.0,176.6,220819,017.7,E*6E
01DE5E,022639,00C4AC,$GPRMC,080634,A,5442.9342,N,11318.4774,W,000.0,176.6,220819,017.7,E*6B
01DE5E,02263A,00C4AC,$GPRMC,080635,A,5442.9342,N,11318.4768,W,000.0,176.6,220819,017.7,E*67
01DE5B,022635,00C4AB,$GPRMC,080636,A,5442.9340,N,11318.4772,W,000.0,176.6,220819,017.7,E*6D
01DE5B,022636,00C4AA,$GPRMC,080637,A,5442.9335,N,11318.4778,W,000.0,176.6,220819,017.7,E*64
01DE5D,02263A,00C4AB,$GPRMC,080638,A,5442.9333,N,11318.4777,W,000.0,176.6,220819,017.7,E*62
01DE5D,022639,00C4AC,$GPRMC,080639,A,5442.9332,N,11318.4777,W,000.0,176.6,220819,017.7,E*62
01DE5B,022636,00C4AA,$GPRMC,080640,A,5442.9336,N,11318.4759,W,000.0,176.6,220819,017.7,E*64
01DE5F,02263C,00C4AC,$GPRMC,080641,A,5442.9339,N,11318.4742,W,000.0,176.6,220819,017.7,E*60
01DE5B,022634,00C4AA,$GPRMC,080642,A,5442.9341,N,11318.4730,W,000.0,176.6,220819,017.7,E*69
01DE5B,022636,00C4AA,$GPRMC,080643,A,5442.9342,N,11318.4724,W,000.0,176.6,220819,017.7,E*6E
01DE5C,022637,00C4AB,$GPRMC,080644,A,5442.9342,N,11318.4719,W,000.0,176.6,220819,017.7,E*67
01DE5C,022636,00C4AA,$GPRMC,080645,A,5442.9341,N,11318.4717,W,000.0,176.6,220819,017.7,E*6B
01DE5D,022639,00C4AC,$GPRMC,080646,A,5442.9339,N,11318.4718,W,000.0,176.6,220819,017.7,E*68
01DE5B,022635,00C4AA,$GPRMC,080647,A,5442.9336,N,11318.4721,W,000.0,176.6,220819,017.7,E*6C
01DE5B,022637,00C4AB,$GPRMC,080648,A,5442.9333,N,11318.4727,W,000.0,176.6,220819,017.7,E*60
01DE59,022633,00C4A9,$GPRMC,080649,A,5442.9328,N,11318.4737,W,000.0,176.6,220819,017.7,E*6A
01DE61,02263D,00C4AE,$GPRMC,080650,A,5442.9324,N,11318.4747,W,000.0,176.6,220819,017.7,E*69
01DE5E,02263A,00C4AC,$GPRMC,080651,A,5442.9323,N,11318.4749,W,000.0,176.6,220819,017.7,E*61
01DE5D,022639,00C4AC,$GPRMC,080652,A,5442.9316,N,11318.4771,W,000.0,176.6,220819,017.7,E*6F
01DE5C,022638,00C4AB,$GPRMC,080653,A,5442.9308,N,11318.4793,W,000.0,176.6,220819,017.7,E*6D
01DE5E,02263B,00C4AC,$GPRMC,080654,A,5442.9300,N,11318.4817,W,000.0,176.6,220819,017.7,E*61
01DE5C,022637,00C4AB,$GPRMC,080655,A,5442.9307,N,11318.4814,W,000.0,176.6,220819,017.7,E*64
01DE5E,02263B,00C4AC,$GPRMC,080656,A,5442.9301,N,11318.4830,W,000.0,176.6,220819,017.7,E*67
01DE5D,022639,00C4AB,$GPRMC,080657,A,5442.9296,N,11318.4844,W,000.0,176.6,220819,017.7,E*6A
01DE62,022640,00C4AE,$GPRMC,080658,A,5442.9291,N,11318.4858,W,000.0,176.6,220819,017.7,E*6F
01DE5D,02263B,00C4AB,$GPRMC,080659,A,5442.9286,N,11318.4875,W,000.0,176.6,220819,017.7,E*67
01DE5E,02263B,00C4AC,$GPRMC,080700,A,5442.9280,N,11318.4893,W,000.0,176.6,220819,017.7,E*64
01DE5F,02263D,00C4AD,$GPRMC,080701,A,5442.9275,N,11318.4909,W,000.0,176.6,220819,017.7,E*6D
01DE5F,02263C,00C4AD,$GPRMC,080702,A,5442.9270,N,11318.4924,W,000.0,176.6,220819,017.7,E*64
01DE5C,022638,00C4AB,$GPRMC,080703,A,5442.9264,N,11318.4939,W,000.0,176.6,220819,017.7,E*6C
01DE60,02263C,00C4AD,$GPRMC,080704,A,5442.9270,N,11318.4928,W,000.0,176.6,220819,017.7,E*6E
01DE5F,02263B,00C4AD,$GPRMC,080705,A,5442.9266,N,11318.4940,W,000.0,176.6,220819,017.7,E*66
01DE5F,02263D,00C4AD,$GPRMC,080706,A,5442.9261,N,11318.4952,W,000.0,176.6,220819,017.7,E*61
01DE5E,02263A,00C4AC,$GPRMC,080707,A,5442.9256,N,11318.4965,W,000.0,176.6,220819,017.7,E*60
01DE5B,022638,00C4AB,$GPRMC,080708,A,5442.9251,N,11318.4977,W,000.0,176.6,220819,017.7,E*6B
01DE5E,022639,00C4AC,$GPRMC,080709,A,5442.9246,N,11318.4989,W,000.0,176.6,220819,017.7,E*6D
01DE5D,02263A,00C4AB,$GPRMC,080710,A,5442.9246,N,11318.4988,W,000.0,176.6,220819,017.7,E*64
01DE5D,02263A,00C4AC,$GPRMC,080711,A,5442.9243,N,11318.4994,W,000.0,176.6,220819,017.7,E*6D
01DE5B,022636,00C4AA,$GPRMC,080712,A,5442.9243,N,11318.4995,W,000.0,176.6,220819,017.7,E*6F
01DE5C,022637,00C4AB,$GPRMC,080713,A,5442.9250,N,11318.4983,W,000.0,176.6,220819,017.7,E*6B
01DE5C,022636,00C4AB,$GPRMC,080714,A,5442.9249,N,11318.4975,W,000.5,176.6,220819,017.7,E*68
01DE5C,022637,00C4AB,$GPRMC,080715,A,5442.9250,N,11318.4968,W,000.0,176.6,220819,017.7,E*68
01DE5E,022639,00C4AC,$GPRMC,080716,A,5442.9252,N,11318.4960,W,000.0,176.6,220819,017.7,E*61
01DE60,02263D,00C4AD,$GPRMC,080717,A,5442.9258,N,11318.4949,W,000.0,176.6,220819,017.7,E*61
01DE5F,02263B,00C4AC,$GPRMC,080718,A,5442.9263,N,11318.4940,W,000.0,176.6,220819,017.7,E*6F
01DE62,02263E,00C4AE,$GPRMC,080719,A,5442.9264,N,11318.4934,W,000.0,176.6,220819,017.7,E*6A
01DE5E,022639,00C4AC,$GPRMC,080720,A,5442.9265,N,11318.4929,W,000.0,176.6,220819,017.7,E*6D
01DE5D,022638,00C4AB,$GPRMC,080721,A,5442.9269,N,11318.4922,W,000.0,176.6,220819,017.7,E*6B
01DE5F,02263A,00C4AC,$GPRMC,080722,A,5442.9273,N,11318.4916,W,000.0,176.6,220819,017.7,E*64
01DE5D,022639,00C4AB,$GPRMC,080723,A,5442.9278,N,11318.4910,W,000.0,176.6,220819,017.7,E*68
01DE5D,022638,00C4AB,$GPRMC,080724,A,5442.9282,N,11318.4904,W,000.0,176.6,220819,017.7,E*6F
01DE62,022640,00C4AF,$GPRMC,080725,A,5442.9287,N,11318.4898,W,000.0,176.6,220819,017.7,E*6F
01DE5D,022638,00C4AC,$GPRMC,080726,A,5442.9291,N,11318.4892,W,000.0,176.6,220819,017.7,E*61
01DE5F,02263A,00C4AC,$GPRMC,080727,A,5442.9296,N,11318.4887,W,000.0,176.6,220819,017.7,E*63
01DE5D,022639,00C4AB,$GPRMC,080728,A,5442.9300,N,11318.4882,W,000.0,176.6,220819,017.7,E*67
01DE5D,022638,00C4AB,$GPRMC,080729,A,5442.9304,N,11318.4878,W,000.0,176.6,220819,017.7,E*67
01DE5F,02263A,00C4AC,$GPRMC,080730,A,5442.9309,N,11318.4871,W,000.0,176.6,220819,017.7,E*6B
01DE5E,022638,00C4AB,$GPRMC,080731,A,5442.9313,N,11318.4865,W,000.0,176.6,220819,017.7,E*64
01DE61,02263E,00C4AE,$GPRMC,080732,A,5442.9317,N,11318.4858,W,000.0,176.6,220819,017.7,E*6D
01DE5E,022639,00C4AC,$GPRMC,080733,A,5442.9321,N,11318.4852,W,000.0,176.6,220819,017.7,E*63
01DE62,02263E,00C4AE,$GPRMC,080734,A,5442.9325,N,11318.4845,W,000.0,176.6,220819,017.7,E*66
01DE5D,022639,00C4AB,$GPRMC,080735,A,5442.9333,N,11318.4835,W,000.0,176.6,220819,017.7,E*67
01DE62,02263E,00C4AE,$GPRMC,080736,A,5442.9339,N,11318.4828,W,000.0,176.6,220819,017.7,E*62
01DE5B,022634,00C4AA,$GPRMC,080737,A,5442.9346,N,11318.4819,W,000.0,176.6,220819,017.7,E*69
01DE60,02263C,00C4AC,$GPRMC,080738,A,5442.9352,N,11318.4811,W,000.0,176.6,220819,017.7,E*6B
01DE5D,022637,00C4AB,$GPRMC,080739,A,5442.9358,N,11318.4802,W,000.0,176.6,220819,017.7,E*62
01DE60,02263C,00C4AD,$GPRMC,080740,A,5442.9362,N,11318.4798,W,000.0,176.6,220819,017.7,E*69
01DE61,02263F,00C4AE,$GPRMC,080741,A,5442.9365,N,11318.4794,W,000.0,176.6,220819,017.7,E*63
01DE62,02263E,00C4AE,$GPRMC,080742,A,5442.9368,N,11318.4790,W,000.0,176.6,220819,017.7,E*69
01DE61,02263E,00C4AE,$GPRMC,080743,A,5442.9370,N,11318.4786,W,000.0,176.6,220819,017.7,E*66
01DE5D,022637,00C4AB,$GPRMC,080744,A,5442.9372,N,11318.4782,W,000.0,176.6,220819,017.7,E*67
01DE5E,022638,00C4AC,$GPRMC,080745,A,5442.9375,N,11318.4778,W,000.0,176.6,220819,017.7,E*64
01DE5E,022639,00C4AC,$GPRMC,080746,A,5442.9377,N,11318.4775,W,000.0,176.6,220819,017.7,E*68
01DE60,02263B,00C4AD,$GPRMC,080747,A,5442.9378,N,11318.4771,W,000.0,176.6,220819,017.7,E*62
01DE5B,022634,00C4AA,$GPRMC,080748,A,5442.9379,N,11318.4768,W,000.0,176.6,220819,017.7,E*64
01DE5F,02263A,00C4AD,$GPRMC,080749,A,5442.9381,N,11318.4766,W,000.0,176.6,220819,017.7,E*6C
01DE5D,022638,00C4AB,$GPRMC,080750,A,5442.9382,N,11318.4764,W,000.0,176.6,220819,017.7,E*65
01DE5E,022638,00C4AC,$GPRMC,080751,A,5442.9384,N,11318.4762,W,000.0,176.6,220819,017.7,E*64
01DE5F,022638,00C4AC,$GPRMC,080752,A,5442.9386,N,11318.4759,W,000.0,176.6,220819,017.7,E*6D
01DE5C,022636,00C4AB,$GPRMC,080753,A,5442.9389,N,11318.4757,W,000.0,176.6,220819,017.7,E*6D
01DE5F,02263A,00C4AC,$GPRMC,080754,A,5442.9391,N,11318.4754,W,000.0,176.6,220819,017.7,E*60
01DE61,02263C,00C4AD,$GPRMC,080755,A,5442.9393,N,11318.4752,W,000.0,176.6,220819,017.7,E*65
01DE61,02263D,00C4AE,$GPRMC,080756,A,5442.9395,N,11318.4749,W,000.0,176.6,220819,017.7,E*6A
01DE60,02263A,00C4AD,$GPRMC,080757,A,5442.9397,N,11318.4747,W,000.0,176.6,220819,017.7,E*67
01DE60,02263B,00C4AE,$GPRMC,080758,A,5442.9399,N,11318.4745,W,000.0,176.6,220819,017.7,E*64
01DE5F,022639,00C4AC,$GPRMC,080759,A,5442.9401,N,11318.4743,W,000.0,176.6,220819,017.7,E*65
01DE61,02263B,00C4AD,$GPRMC,080800,A,5442.9403,N,11318.4742,W,000.0,176.6,220819,017.7,E*65
01DE5C,022636,00C4AC,$GPRMC,080801,A,5442.9405,N,11318.4738,W,000.0,176.6,220819,017.7,E*6F
01DE61,02263D,00C4AE,$GPRMC,080802,A,5442.9408,N,11318.4734,W,000.0,176.6,220819,017.7,E*6D
01DE60,02263C,00C4AD,$GPRMC,080803,A,5442.9411,N,11318.4730,W,000.0,176.6,220819,017.7,E*60
01DE61,02263E,00C4AE,$GPRMC,080804,A,5442.9413,N,11318.4726,W,000.0,176.6,220819,017.7,E*62
01DE5E,022638,00C4AC,$GPRMC,080805,A,5442.9416,N,11318.4722,W,000.0,176.6,220819,017.7,E*62
01DE61,02263E,00C4AF,$GPRMC,080806,A,5442.9418,N,11318.4719,W,000.0,176.6,220819,017.7,E*67
01DE60,02263C,00C4AD,$GPRMC,080807,A,5442.9419,N,11318.4715,W,000.0,176.6,220819,017.7,E*6B
01DE61,02263D,00C4AD,$GPRMC,080808,A,5442.9420,N,11318.4712,W,000.0,176.6,220819,017.7,E*69
01DE5E,022639,00C4AC,$GPRMC,080809,A,5442.9422,N,11318.4708,W,000.0,176.6,220819,017.7,E*61
01DE60,02263B,00C4AC,$GPRMC,080810,A,5442.9420,N,11318.4706,W,000.0,176.6,220819,017.7,E*65
01DE5E,022639,00C4AC,$GPRMC,080811,A,5442.9419,N,11318.4707,W,000.0,176.6,220819,017.7,E*6F
01DE5F,02263A,00C4AD,$GPRMC,080812,A,5442.9419,N,11318.4708,W,000.0,176.6,220819,017.7,E*63
01DE5B,022635,00C4AA,$GPRMC,080813,A,5442.9418,N,11318.4708,W,000.0,176.6,220819,017.7,E*63
01DE60,02263B,00C4AD,$GPRMC,080814,A,5442.9418,N,11318.4709,W,000.0,176.6,220819,017.7,E*65
01DE5E,02263A,00C4AD,$GPRMC,080815,A,5442.9416,N,11318.4708,W,000.0,176.6,220819,017.7,E*6B
01DE5A,022634,00C4AA,$GPRMC,080816,A,5442.9412,N,11318.4707,W,000.0,176.6,220819,017.7,E*63
01DE5C,022637,00C4AB,$GPRMC,080817,A,5442.9409,N,11318.4707,W,000.0,176.6,220819,017.7,E*68
01DE5E,022639,00C4AC,$GPRMC,080818,A,5442.9405,N,11318.4706,W,000.0,176.6,220819,017.7,E*6A
01DE5B,022636,00C4AB,$GPRMC,080819,A,5442.9403,N,11318.4705,W,000.0,176.6,220819,017.7,E*6E
01DE5B,022635,00C4AB,$GPRMC,080820,A,5442.9401,N,11318.4704,W,000.0,176.6,220819,017.7,E*67
01DE5D,022638,00C4AC,$GPRMC,080821,A,5442.9403,N,11318.4702,W,000.0,176.6,220819,017.7,E*62
01DE5C,022637,00C4AB,$GPRMC,080822,A,5442.9401,N,11318.4700,W,000.0,176.6,220819,017.7,E*61
01DE5C,022635,00C4AB,$GPRMC,080823,A,5442.9400,N,11318.4700,W,000.0,176.6,220819,017.7,E*61
01DE5B,022636,00C4AB,$GPRMC,080824,A,5442.9399,N,11318.4699,W,000.0,176.6,220819,017.7,E*60
01DE61,02263E,00C4AE,$GPRMC,080825,A,5442.9398,N,11318.4698,W,000.0,176.6,220819,017.7,E*61
01DE5D,022638,00C4AC,$GPRMC,080826,A,5442.9396,N,11318.4698,W,000.0,176.6,220819,017.7,E*6C
01DE5A,022633,00C4AA,$GPRMC,080827,A,5442.9394,N,11318.4698,W,000.0,176.6,220819,017.7,E*6F
01DE5B,022636,00C4AA,$GPRMC,080828,A,5442.9392,N,11318.4696,W,000.0,176.6,220819,017.7,E*68
01DE5D,022637,00C4AB,$GPRMC,080829,A,5442.9394,N,11318.4695,W,000.0,176.6,220819,017.7,E*6C
01DE5B,022634,00C4A9,$GPRMC,080830,A,5442.9392,N,11318.4693,W,000.0,176.6,220819,017.7,E*64
01DE5A,022633,00C4A9,$GPRMC,080831,A,5442.9396,N,11318.4693,W,000.0,176.6,220819,017.7,E*61
01DE5E,022638,00C4AB,$GPRMC,080832,A,5442.9400,N,11318.4693,W,000.0,176.6,220819,017.7,E*6A
01DE5A,022634,00C4A9,$GPRMC,080833,A,5442.9404,N,11318.4692,W,000.0,176.6,220819,017.7,E*6E
01DE5E,022639,00C4AC,$GPRMC,080834,A,5442.9407,N,11318.4691,W,000.0,176.6,220819,017.7,E*69
01DE5B,022636,00C4AA,$GPRMC,080835,A,5442.9405,N,11318.4692,W,000.0,176.6,220819,017.7,E*69
01DE5D,022638,00C4AB,$GPRMC,080836,A,5442.9402,N,11318.4693,W,000.0,176.6,220819,017.7,E*6C
01DE5C,022637,00C4AB,$GPRMC,080837,A,5442.9401,N,11318.4693,W,000.0,176.6,220819,017.7,E*6E
01DE5D,022637,00C4AB,$GPRMC,080838,A,5442.9401,N,11318.4692,W,000.0,176.6,220819,017.7,E*60
01DE60,02263B,00C4AD,$GPRMC,080839,A,5442.9404,N,11318.4690,W,000.0,176.6,220819,017.7,E*66
01DE5F,02263C,00C4AD,$GPRMC,080840,A,5442.9408,N,11318.4688,W,000.0,176.6,220819,017.7,E*6D
01DE5C,022637,00C4AB,$GPRMC,080841,A,5442.9411,N,11318.4686,W,000.0,176.6,220819,017.7,E*6A
01DE5E,022639,00C4AC,$GPRMC,080842,A,5442.9414,N,11318.4684,W,000.0,176.6,220819,017.7,E*6E
01DE60,02263D,00C4AD,$GPRMC,080843,A,5442.9414,N,11318.4684,W,000.0,176.6,220819,017.7,E*6F
01DE5A,022634,00C4A9,$GPRMC,080844,A,5442.9413,N,11318.4683,W,000.0,176.6,220819,017.7,E*68
01DE5E,022639,00C4AC,$GPRMC,080845,A,5442.9415,N,11318.4681,W,000.0,176.6,220819,017.7,E*6D
01DE5E,02263A,00C4AC,$GPRMC,080846,A,5442.9417,N,11318.4679,W,000.0,176.6,220819,017.7,E*6B
01DE5F,02263B,00C4AC,$GPRMC,080847,A,5442.9418,N,11318.4678,W,000.0,176.6,220819,017.7,E*64
01DE5E,022639,00C4AC,$GPRMC,080848,A,5442.9420,N,11318.4676,W,000.0,176.6,220819,017.7,E*6E
01DE5D,022638,00C4AC,$GPRMC,080849,A,5442.9421,N,11318.4675,W,000.0,176.6,220819,017.7,E*6D
01DE5B,022635,00C4AA,$GPRMC,080850,A,5442.9423,N,11318.4673,W,000.0,176.6,220819,017.7,E*61
01DE5D,022638,00C4AB,$GPRMC,080851,A,5442.9424,N,11318.4672,W,000.0,176.6,220819,017.7,E*66
01DE5C,022638,00C4AB,$GPRMC,080852,A,5442.9425,N,11318.4671,W,000.0,176.6,220819,017.7,E*67
01DE5C,022637,00C4AA,$GPRMC,080853,A,5442.9426,N,11318.4669,W,000.0,176.6,220819,017.7,E*6C
01DE5F,02263B,00C4AC,$GPRMC,080854,A,5442.9426,N,11318.4668,W,000.0,176.6,220819,017.7,E*6A
01DE5F,02263A,00C4AC,$GPRMC,080855,A,5442.9427,N,11318.4667,W,000.0,176.6,220819,017.7,E*65
01DE5E,022639,00C4AC,$GPRMC,080856,A,5442.9427,N,11318.4667,W,000.0,176.6,220819,017.7,E*66
01DE5D,022638,00C4AC,$GPRMC,080857,A,5442.9427,N,11318.4666,W,000.0,176.6,220819,017.7,E*66
01DE60,02263D,00C4AE,$GPRMC,080858,A,5442.9427,N,11318.4666,W,000.0,176.6,220819,017.7,E*69
01DE5B,022635,00C4AA,$GPRMC,080859,A,5442.9426,N,11318.4666,W,000.0,176.6,220819,017.7,E*69
01DE5B,022635,00C4AA,$GPRMC,080900,A,5442.9424,N,11318.4667,W,000.0,176.6,220819,017.7,E*67
01DE60,02263D,00C4AD,$GPRMC,080901,A,5442.9424,N,11318.4668,W,000.0,176.6,220819,017.7,E*69
01DE5E,022639,00C4AC,$GPRMC,080902,A,5442.9425,N,11318.4668,W,000.0,176.6,220819,017.7,E*6B
01DE5E,022639,00C4AC,$GPRMC,080903,A,5442.9425,N,11318.4669,W,000.0,176.6,220819,017.7,E*6B
01DE60,02263E,00C4AD,$GPRMC,080904,A,5442.9425,N,11318.4669,W,000.0,176.6,220819,017.7,E*6C
01DE5E,022638,00C4AB,$GPRMC,080905,A,5442.9426,N,11318.4670,W,000.0,176.6,220819,017.7,E*66
01DE5E,022639,00C4AB,$GPRMC,080906,A,5442.9426,N,11318.4670,W,000.0,176.6,220819,017.7,E*65
01DE5F,02263A,00C4AC,$GPRMC,080907,A,5442.9426,N,11318.4671,W,000.0,176.6,220819,017.7,E*65
01DE60,02263D,00C4AE,$GPRMC,080908,A,5442.9427,N,11318.4671,W,000.0,176.6,220819,017.7,E*6B
01DE5F,02263A,00C4AC,$GPRMC,080909,A,5442.9428,N,11318.4671,W,000.0,176.6,220819,017.7,E*65
01DE5F,02263A,00C4AC,$GPRMC,080910,A,5442.9428,N,11318.4671,W,000.0,176.6,220819,017.7,E*6D
01DE5E,022639,00C4AC,$GPRMC,080911,A,5442.9429,N,11318.4671,W,000.0,176.6,220819,017.7,E*6D
01DE5E,02263A,00C4AD,$GPRMC,080912,A,5442.9430,N,11318.4671,W,000.0,176.6,220819,017.7,E*66
01DE5C,022636,00C4AA,$GPRMC,080913,A,5442.9430,N,11318.4671,W,000.0,176.6,220819,017.7,E*67
01DE5D,022637,00C4AB,$GPRMC,080914,A,5442.9431,N,11318.4671,W,000.0,176.6,220819,017.7,E*61
01DE5C,022634,00C4AA,$GPRMC,080915,A,5442.9432,N,11318.4670,W,000.0,176.6,220819,017.7,E*62
01DE5C,022636,00C4AA,$GPRMC,080916,A,5442.9432,N,11318.4670,W,000.0,176.6,220819,017.7,E*61
01DE5B,022634,00C4AA,$GPRMC,080917,A,5442.9433,N,11318.4670,W,000.0,176.6,220819,017.7,E*61
01DE61,02263E,00C4AE,$GPRMC,080918,A,5442.9433,N,11318.4670,W,000.0,176.6,220819,017.7,E*6E
01DE61,02263D,00C4AE,$GPRMC,080919,A,5442.9434,N,11318.4669,W,000.0,176.6,220819,017.7,E*60
01DE5D,022639,00C4AC,$GPRMC,080920,A,5442.9436,N,11318.4668,W,000.0,176.6,220819,017.7,E*69
01DE5B,022635,00C4AA,$GPRMC,080921,A,5442.9437,N,11318.4668,W,000.0,176.6,220819,017.7,E*69
01DE5F,02263B,00C4AD,$GPRMC,080922,A,5442.9438,N,11318.4667,W,000.0,176.6,220819,017.7,E*6A
01DE5B,022636,00C4AB,$GPRMC,080923,A,5442.9440,N,11318.4666,W,000.0,176.6,220819,017.7,E*65
01DE5E,02263A,00C4AD,$GPRMC,080924,A,5442.9441,N,11318.4664,W,000.0,176.6,220819,017.7,E*61
01DE5F,02263B,00C4AC,$GPRMC,080925,A,5442.9442,N,11318.4663,W,000.0,176.6,220819,017.7,E*64
01DE5B,022637,00C4AB,$GPRMC,080926,A,5442.9443,N,11318.4661,W,000.0,176.6,220819,017.7,E*64
01DE5B,022637,00C4AB,$GPRMC,080927,A,5442.9444,N,11318.4660,W,000.0,176.6,220819,017.7,E*63
01DE5E,02263B,00C4AC,$GPRMC,080928,A,5442.9445,N,11318.4660,W,000.0,176.6,220819,017.7,E*6D
01DE5D,022638,00C4AB,$GPRMC,080929,A,5442.9445,N,11318.4659,W,000.0,176.6,220819,017.7,E*66
01DE5C,022638,00C4AB,$GPRMC,080930,A,5442.9446,N,11318.4659,W,000.0,176.6,220819,017.7,E*6D
01DE5E,02263B,00C4AC,$GPRMC,080931,A,5442.9446,N,11318.4659,W,000.0,176.6,220819,017.7,E*6C
01DE5C,022638,00C4AB,$GPRMC,080932,A,5442.9445,N,11318.4660,W,000.0,176.6,220819,017.7,E*66
01DE5D,022639,00C4AC,$GPRMC,080933,A,5442.9445,N,11318.4662,W,000.0,176.6,220819,017.7,E*65
01DE5B,022636,00C4AB,$GPRMC,080934,A,5442.9445,N,11318.4661,W,000.0,176.6,220819,017.7,E*61
01DE5F,02263C,00C4AD,$GPRMC,080935,A,5442.9444,N,11318.4664,W,000.0,176.6,220819,017.7,E*64
01DE5C,022639,00C4AB,$GPRMC,080936,A,5442.9444,N,11318.4666,W,000.0,176.6,220819,017.7,E*65
01DE5E,02263A,00C4AC,$GPRMC,080937,A,5442.9442,N,11318.4668,W,000.0,176.6,220819,017.7,E*6C
01DE5D,02263C,00C4AD,$GPRMC,080938,A,5442.9441,N,11318.4669,W,000.0,176.6,220819,017.7,E*61
01DE61,022640,00C4AE,$GPRMC,080939,A,5442.9441,N,11318.4671,W,000.0,176.6,220819,017.7,E*69
01DE5F,02263F,00C4AE,$GPRMC,080940,A,5442.9440,N,11318.4672,W,000.0,176.6,220819,017.7,E*65
01DE5D,02263B,00C4AC,$GPRMC,080941,A,5442.9439,N,11318.4673,W,000.0,176.6,220819,017.7,E*6B
01DE5D,02263A,00C4AC,$GPRMC,080942,A,5442.9439,N,11318.4674,W,000.0,176.6,220819,017.7,E*6F
01DE60,02263F,00C4AE,$GPRMC,080943,A,5442.9439,N,11318.4675,W,000.0,176.6,220819,017.7,E*6F
01DE5F,02263D,00C4AD,$GPRMC,080944,A,5442.9439,N,11318.4676,W,000.0,176.6,220819,017.7,E*6B
01DE5E,02263B,00C4AD,$GPRMC,080945,A,5442.9439,N,11318.4676,W,000.0,176.6,220819,017.7,E*6A
01DE5D,02263C,00C4AD,$GPRMC,080946,A,5442.9438,N,11318.4677,W,000.0,176.6,220819,017.7,E*69
01DE5F,02263D,00C4AD,$GPRMC,080947,A,5442.9438,N,11318.4678,W,000.0,176.6,220819,017.7,E*67
01DE60,02263C,00C4AD,$GPRMC,080948,A,5442.9438,N,11318.4677,W,000.0,176.6,220819,017.7,E*67
01DE5E,02263C,00C4AD,$GPRMC,080949,A,5442.9438,N,11318.4677,W,000.0,176.6,220819,017.7,E*66
01DE60,022640,00C4AF,$GPRMC,080950,A,5442.9438,N,11318.4677,W,000.0,176.6,220819,017.7,E*6E
01DE5D,02263A,00C4AC,$GPRMC,080951,A,5442.9438,N,11318.4677,W,000.0,176.6,220819,017.7,E*6F
01DE5D,02263A,00C4AC,$GPRMC,080952,A,5442.9438,N,11318.4676,W,000.0,176.6,220819,017.7,E*6D
01DE5F,02263D,00C4AD,$GPRMC,080953,A,5442.9439,N,11318.4675,W,000.0,176.6,220819,017.7,E*6E
01DE5F,02263C,00C4AD,$GPRMC,080954,A,5442.9440,N,11318.4674,W,000.0,176.6,220819,017.7,E*66
01DE5D,02263A,00C4AC,$GPRMC,080955,A,5442.9441,N,11318.4674,W,000.0,176.6,220819,017.7,E*66
01DE5F,02263D,00C4AD,$GPRMC,080956,A,5442.9441,N,11318.4673,W,000.0,176.6,220819,017.7,E*62
01DE60,02263F,00C4AD,$GPRMC,080957,A,5442.9441,N,11318.4673,W,000.0,176.6,220819,017.7,E*63
01DE5C,022638,00C4AB,$GPRMC,080958,A,5442.9441,N,11318.4673,W,000.0,176.6,220819,017.7,E*6C
01DE5E,02263C,00C4AD,$GPRMC,080959,A,5442.9441,N,11318.4674,W,000.0,176.6,220819,017.7,E*6A
01DE5F,02263D,00C4AD,$GPRMC,081000,A,5442.9440,N,11318.4674,W,000.0,176.6,220819,017.7,E*6F
01DE5F,02263D,00C4AD,$GPRMC,081001,A,5442.9440,N,11318.4675,W,000.0,176.6,220819,017.7,E*6F
01DE5D,02263B,00C4AC,$GPRMC,081002,A,5442.9439,N,11318.4676,W,000.0,176.6,220819,017.7,E*61
01DE60,02263E,00C4AD,$GPRMC,081003,A,5442.9438,N,11318.4677,W,000.0,176.6,220819,017.7,E*60
01DE5B,022639,00C4AB,$GPRMC,081004,A,5442.9437,N,11318.4678,W,000.0,176.6,220819,017.7,E*67
01DE5D,02263A,00C4AC,$GPRMC,081005,A,5442.9436,N,11318.4677,W,000.0,176.6,220819,017.7,E*68
01DE5D,02263A,00C4AC,$GPRMC,081006,A,5442.9433,N,11318.4680,W,000.0,176.6,220819,017.7,E*66
01DE60,02263F,00C4AE,$GPRMC,081007,A,5442.9431,N,11318.4682,W,000.0,176.6,220819,017.7,E*67
01DE5D,022639,00C4AC,$GPRMC,081008,A,5442.9429,N,11318.4684,W,000.0,176.6,220819,017.7,E*67
01DE5D,02263A,00C4AC,$GPRMC,081009,A,5442.9427,N,11318.4686,W,000.0,176.6,220819,017.7,E*6A
01DE5C,02263B,00C4AC,$GPRMC,081010,A,5442.9425,N,11318.4687,W,000.0,176.6,220819,017.7,E*61
01DE60,02263F,00C4AE,$GPRMC,081011,A,5442.9423,N,11318.4689,W,000.0,176.6,220819,017.7,E*68
01DE5C,02263B,00C4AC,$GPRMC,081012,A,5442.9422,N,11318.4690,W,000.0,176.6,220819,017.7,E*62
01DE5F,02263E,00C4AD,$GPRMC,081013,A,5442.9420,N,11318.4691,W,000.0,176.6,220819,017.7,E*60
01DE5C,022639,00C4AB,$GPRMC,081014,A,5442.9419,N,11318.4692,W,000.0,176.6,220819,017.7,E*6E
01DE5B,022638,00C4AB,$GPRMC,081015,A,5442.9418,N,11318.4692,W,000.0,176.6,220819,017.7,E*6E
01DE5D,02263C,00C4AC,$GPRMC,081016,A,5442.9417,N,11318.4692,W,000.0,176.6,220819,017.7,E*62
01DE5E,02263E,00C4AD,$GPRMC,081017,A,5442.9417,N,11318.4692,W,000.0,176.6,220819,017.7,E*63
01DE5D,02263C,00C4AD,$GPRMC,081018,A,5442.9417,N,11318.4692,W,000.0,176.6,220819,017.7,E*6C
01DE5B,022638,00C4AB,$GPRMC,081019,A,5442.9417,N,11318.4691,W,000.0,176.6,220819,017.7,E*6E
01DE5C,02263A,00C4AC,$GPRMC,081020,A,5442.9418,N,11318.4690,W,000.0,176.6,220819,017.7,E*6A
01DE5D,02263D,00C4AD,$GPRMC,081021,A,5442.9420,N,11318.4689,W,000.0,176.6,220819,017.7,E*68
01DE5F,02263D,00C4AD,$GPRMC,081022,A,5442.9421,N,11318.4688,W,000.0,176.6,220819,017.7,E*6B
01DE60,022640,00C4AE,$GPRMC,081023,A,5442.9424,N,11318.4686,W,000.0,176.6,220819,017.7,E*61
01DE5C,02263A,00C4AC,$GPRMC,081024,A,5442.9426,N,11318.4683,W,000.0,176.6,220819,017.7,E*61
01DE5C,02263B,00C4AD,$GPRMC,081025,A,5442.9429,N,11318.4681,W,000.0,176.6,220819,017.7,E*6D
01DE5F,02263F,00C4AF,$GPRMC,081026,A,5442.9432,N,11318.4678,W,000.0,176.6,220819,017.7,E*62
01DE5C,02263B,00C4AD,$GPRMC,081027,A,5442.9435,N,11318.4675,W,000.0,176.6,220819,017.7,E*69
01DE5D,02263C,00C4AD,$GPRMC,081028,A,5442.9438,N,11318.4671,W,000.0,176.6,220819,017.7,E*6F
01DE5D,02263C,00C4AD,$GPRMC,081029,A,5442.9441,N,11318.4669,W,000.0,176.6,220819,017.7,E*69
01DE5B,02263B,00C4AC,$GPRMC,081030,A,5442.9444,N,11318.4666,W,000.0,176.6,220819,017.7,E*6B
01DE5D,02263C,00C4AD,$GPRMC,081031,A,5442.9447,N,11318.4664,W,000.0,176.6,220819,017.7,E*6B
01DE5C,02263B,00C4AD,$GPRMC,081032,A,5442.9450,N,11318.4662,W,000.0,176.6,220819,017.7,E*68
01DE5D,02263D,00C4AD,$GPRMC,081033,A,5442.9452,N,11318.4660,W,000.0,176.6,220819,017.7,E*69
01DE5C,02263C,00C4AD,$GPRMC,081034,A,5442.9453,N,11318.4658,W,000.0,176.6,220819,017.7,E*64
01DE5D,02263B,00C4AD,$GPRMC,081035,A,5442.9454,N,11318.4656,W,000.0,176.6,220819,017.7,E*6C
01DE5C,02263C,00C4AC,$GPRMC,081036,A,5442.9454,N,11318.4655,W,000.0,176.6,220819,017.7,E*6C
01DE5D,02263D,00C4AD,$GPRMC,081037,A,5442.9454,N,11318.4653,W,000.0,176.6,220819,017.7,E*6B
01DE5B,02263A,00C4AC,$GPRMC,081038,A,5442.9454,N,11318.4652,W,000.0,176.6,220819,017.7,E*65
01DE5C,02263C,00C4AD,$GPRMC,081039,A,5442.9453,N,11318.4651,W,000.0,176.6,220819,017.7,E*60
01DE5A,022639,00C4AB,$GPRMC,081040,A,5442.9452,N,11318.4651,W,000.0,176.6,220819,017.7,E*6F
01DE59,022638,00C4AB,$GPRMC,081041,A,5442.9451,N,11318.4649,W,000.0,176.6,220819,017.7,E*64
01DE5C,02263C,00C4AD,$GPRMC,081042,A,5442.9449,N,11318.4649,W,000.0,176.6,220819,017.7,E*6E
01DE5C,02263A,00C4AD,$GPRMC,081043,A,5442.9447,N,11318.4650,W,000.0,176.6,220819,017.7,E*69
01DE5B,02263A,00C4AC,$GPRMC,081044,A,5442.9444,N,11318.4651,W,000.0,176.6,220819,017.7,E*6C
