,A,5442.9453,N,11318.4654,W,000.0,355.7,220819,017.7,E*65
01DDB2,022586,00C527,$GPRMC,015949,A,5442.9457,N,11318.4656,W,000.0,355.7,220819,017.7,E*62
01DDB2,022585,00C527,$GPRMC,015950,A,5442.9464,N,11318.4659,W,000.0,355.7,220819,017.7,E*65
01DDB4,02258A,00C529,$GPRMC,015951,A,5442.9465,N,11318.4659,W,000.0,355.7,220819,017.7,E*65
01DDB3,022589,00C528,$GPRMC,015952,A,5442.9467,N,11318.4659,W,000.0,355.7,220819,017.7,E*64
01DDB3,022589,00C529,$GPRMC,015953,A,5442.9474,N,11318.4661,W,000.0,355.7,220819,017.7,E*6C
01DDB6,02258E,00C52A,$GPRMC,015954,A,5442.9476,N,11318.4661,W,000.0,355.7,220819,017.7,E*69
01DDB4,02258B,00C529,$GPRMC,015955,A,5442.9475,N,11318.4660,W,000.0,355.7,220819,017.7,E*6A
01DDB2,02258A,00C528,$GPRMC,015956,A,5442.9471,N,11318.4657,W,000.0,355.7,220819,017.7,E*69
01DDB4,02258D,00C529,$GPRMC,015957,A,5442.9465,N,11318.4653,W,000.0,355.7,220819,017.7,E*69
01DDB4,02258C,00C529,$GPRMC,015958,A,5442.9459,N,11318.4649,W,000.0,355.7,220819,017.7,E*62
01DDB5,022590,00C529,$GPRMC,015959,A,5442.9453,N,11318.4645,W,000.0,355.7,220819,017.7,E*65
01DDB4,02258E,00C528,$GPRMC,020000,A,5442.9448,N,11318.4642,W,000.0,355.7,220819,017.7,E*6B
01DDB3,02258C,00C528,$GPRMC,020001,A,5442.9443,N,11318.4639,W,000.0,355.7,220819,017.7,E*6D
01DDB4,02258F,00C529,$GPRMC,020002,A,5442.9445,N,11318.4640,W,000.0,355.7,220819,017.7,E*66
01DDB2,02258C,00C528,$GPRMC,020003,A,5442.9441,N,11318.4637,W,000.0,355.7,220819,017.7,E*63
01DDB0,022587,00C526,$GPRMC,020004,A,5442.9440,N,11318.4637,W,000.0,355.7,220819,017.7,E*65
01DDB0,022588,00C526,$GPRMC,020005,A,5442.9446,N,11318.4640,W,000.0,355.7,220819,017.7,E*62
01DDB1,022589,00C527,$GPRMC,020006,A,5442.9451,N,11318.4642,W,000.0,355.7,220819,017.7,E*65
01DDB1,022589,00C527,$GPRMC,020007,A,5442.9448,N,11318.4640,W,000.0,355.7,220819,017.7,E*6E
01DDB4,02258E,00C529,$GPRMC,020008,A,5442.9447,N,11318.4640,W,000.0,355.7,220819,017.7,E*6E
01DDB0,022587,00C526,$GPRMC,020009,A,5442.9450,N,11318.4641,W,000.0,355.7,220819,017.7,E*68
01DDB2,02258B,00C528,$GPRMC,020010,A,5442.9447,N,11318.4640,W,000.0,355.7,220819,017.7,E*67
01DDB3,02258C,00C528,$GPRMC,020011,A,5442.9453,N,11318.4643,W,000.0,355.7,220819,017.7,E*60
01DDB2,02258C,00C528,$GPRMC,020012,A,5442.9450,N,11318.4640,W,000.0,355.7,220819,017.7,E*63
01DDB2,02258C,00C528,$GPRMC,020013,A,5442.9455,N,11318.4642,W,000.0,355.7,220819,017.7,E*65
01DDB1,022589,00C527,$GPRMC,020014,A,5442.9462,N,11318.4646,W,000.0,355.7,220819,017.7,E*62
01DDB2,02258B,00C528,$GPRMC,020015,A,5442.9469,N,11318.4649,W,000.0,355.7,220819,017.7,E*67
01DDB3,02258C,00C527,$GPRMC,020016,A,5442.9471,N,11318.4650,W,000.0,355.7,220819,017.7,E*65
01DDB5,02258E,00C529,$GPRMC,020017,A,5442.9471,N,11318.4651,W,000.0,355.7,220819,017.7,E*65
01DDB3,02258E,00C528,$GPRMC,020018,A,5442.9471,N,11318.4651,W,000.0,355.7,220819,017.7,E*6A
01DDB0,022589,00C526,$GPRMC,020019,A,5442.9469,N,11318.4651,W,000.0,355.7,220819,017.7,E*62
01DDB6,022591,00C52A,$GPRMC,020020,A,5442.9466,N,11318.4651,W,000.0,355.7,220819,017.7,E*67
01DDB4,02258F,00C529,$GPRMC,020021,A,5442.9464,N,11318.4651,W,000.0,355.7,220819,017.7,E*64
01DDB5,02258F,00C52A,$GPRMC,020022,A,5442.9463,N,11318.4651,W,000.0,355.7,220819,017.7,E*60
01DDB4,02258F,00C529,$GPRMC,020023,A,5442.9462,N,11318.4652,W,000.0,355.7,220819,017.7,E*63
01DDB3,02258B,00C528,$GPRMC,020024,A,5442.9461,N,11318.4651,W,000.0,355.7,220819,017.7,E*64
01DDB0,022587,00C526,$GPRMC,020025,A,5442.9467,N,11318.4655,W,000.0,355.7,220819,017.7,E*67
01DDB3,02258C,00C528,$GPRMC,020026,A,5442.9471,N,11318.4658,W,000.0,355.7,220819,017.7,E*6E
01DDB3,02258D,00C528,$GPRMC,020027,A,5442.9475,N,11318.4661,W,000.0,355.7,220819,017.7,E*61
01DDB2,022589,00C527,$GPRMC,020028,A,5442.9479,N,11318.4663,W,000.0,355.7,220819,017.7,E*60
01DDB4,02258C,00C528,$GPRMC,020029,A,5442.9481,N,11318.4665,W,000.0,355.7,220819,017.7,E*60
01DDB1,022589,00C527,$GPRMC,020030,A,5442.9481,N,11318.4665,W,000.0,355.7,220819,017.7,E*68
01DDB8,022594,00C52B,$GPRMC,020031,A,5442.9482,N,11318.4666,W,000.0,355.7,220819,017.7,E*69
01DDB5,02258E,00C529,$GPRMC,020032,A,5442.9477,N,11318.4663,W,000.0,355.7,220819,017.7,E*65
01DDB3,02258D,00C528,$GPRMC,020033,A,5442.9469,N,11318.4662,W,000.0,355.7,220819,017.7,E*6A
01DDB4,02258E,00C528,$GPRMC,020034,A,5442.9464,N,11318.4659,W,000.0,355.7,220819,017.7,E*68
01DDB6,022590,00C529,$GPRMC,020035,A,5442.9463,N,11318.4659,W,000.0,355.7,220819,017.7,E*6E
01DDAF,022587,00C525,$GPRMC,020036,A,5442.9463,N,11318.4658,W,000.0,355.7,220819,017.7,E*6C
01DDB6,022591,00C52A,$GPRMC,020037,A,5442.9462,N,11318.4658,W,000.0,355.7,220819,017.7,E*6C
01DDB3,02258A,00C528,$GPRMC,020038,A,5442.9462,N,11318.4658,W,000.0,355.7,220819,017.7,E*63
01DDB5,02258D,00C528,$GPRMC,020039,A,5442.9454,N,11318.4656,W,000.0,355.7,220819,017.7,E*69
01DDB3,02258B,00C527,$GPRMC,020040,A,5442.9449,N,11318.4654,W,000.0,355.7,220819,017.7,E*69
01DDAF,022585,00C524,$GPRMC,020041,A,5442.9451,N,11318.4655,W,000.0,355.7,220819,017.7,E*60
01DDB5,02258E,00C528,$GPRMC,020042,A,5442.9449,N,11318.4653,W,000.0,355.7,220819,017.7,E*6C
01DDB4,02258C,00C528,$GPRMC,020043,A,5442.9447,N,11318.4650,W,000.0,355.7,220819,017.7,E*60
01DDB6,02258F,00C528,$GPRMC,020044,A,5442.9448,N,11318.4649,W,000.0,355.7,220819,017.7,E*60
01DDB6,022590,00C528,$GPRMC,020045,A,5442.9450,N,11318.4648,W,000.0,355.7,220819,017.7,E*69
01DDAF,022585,00C525,$GPRMC,020046,A,5442.9451,N,11318.4647,W,000.0,355.7,220819,017.7,E*64
01DDB3,02258B,00C527,$GPRMC,020047,A,5442.9447,N,11318.4644,W,000.0,355.7,220819,017.7,E*61
01DDB3,02258B,00C526,$GPRMC,020048,A,5442.9444,N,11318.4642,W,000.0,355.7,220819,017.7,E*6B
01DDB6,022590,00C529,$GPRMC,020049,A,5442.9443,N,11318.4641,W,000.0,355.7,220819,017.7,E*6E
01DDB2,02258A,00C526,$GPRMC,020050,A,5442.9438,N,11318.4639,W,000.0,355.7,220819,017.7,E*65
01DDB4,02258D,00C527,$GPRMC,020051,A,5442.9437,N,11318.4638,W,000.0,355.7,220819,017.7,E*6A
01DDB4,02258C,00C526,$GPRMC,020052,A,5442.9444,N,11318.4639,W,000.0,355.7,220819,017.7,E*6C
01DDB4,02258E,00C527,$GPRMC,020053,A,5442.9448,N,11318.4639,W,000.0,355.7,220819,017.7,E*61
01DDB2,02258A,00C526,$GPRMC,020054,A,5442.9453,N,11318.4639,W,000.0,355.7,220819,017.7,E*6C
01DDB3,02258C,00C527,$GPRMC,020055,A,5442.9450,N,11318.4638,W,000.0,355.7,220819,017.7,E*6F
01DDB2,02258B,00C526,$GPRMC,020056,A,5442.9442,N,11318.4636,W,000.0,355.7,220819,017.7,E*61
01DDB4,02258D,00C527,$GPRMC,020057,A,5442.9435,N,11318.4634,W,000.0,355.7,220819,017.7,E*62
01DDAE,022584,00C523,$GPRMC,020058,A,5442.9434,N,11318.4634,W,000.0,355.7,220819,017.7,E*6C
01DDB6,022591,00C528,$GPRMC,020059,A,5442.9431,N,11318.4634,W,000.0,355.7,220819,017.7,E*68
01DDB5,02258F,00C528,$GPRMC,020100,A,5442.9429,N,11318.4633,W,000.0,355.7,220819,017.7,E*6B
01DDB2,02258C,00C526,$GPRMC,020101,A,5442.9429,N,11318.4633,W,000.0,355.7,220819,017.7,E*6A
01DDB4,02258D,00C527,$GPRMC,020102,A,5442.9418,N,11318.4630,W,000.0,355.7,220819,017.7,E*68
01DDB5,022590,00C528,$GPRMC,020103,A,5442.9417,N,11318.4630,W,000.0,355.7,220819,017.7,E*66
01DDB3,02258B,00C527,$GPRMC,020104,A,5442.9418,N,11318.4631,W,000.0,355.7,220819,017.7,E*6F
01DDB5,022590,00C528,$GPRMC,020105,A,5442.9413,N,11318.4629,W,000.0,355.7,220819,017.7,E*6C
01DDB6,022590,00C528,$GPRMC,020106,A,5442.9412,N,11318.4630,W,000.0,355.7,220819,017.7,E*66
01DDB5,02258E,00C527,$GPRMC,020107,A,5442.9412,N,11318.4631,W,000.0,355.7,220819,017.7,E*66
01DDB4,02258C,00C526,$GPRMC,020108,A,5442.9413,N,11318.4633,W,000.0,355.7,220819,017.7,E*6A
01DDB3,02258D,00C527,$GPRMC,020109,A,5442.9414,N,11318.4635,W,000.0,355.7,220819,017.7,E*6A
01DDB2,02258B,00C526,$GPRMC,020110,A,5442.9417,N,11318.4637,W,000.0,355.7,220819,017.7,E*63
01DDB3,02258B,00C526,$GPRMC,020111,A,5442.9420,N,11318.4640,W,000.0,355.7,220819,017.7,E*66
01DDB0,022589,00C525,$GPRMC,020112,A,5442.9422,N,11318.4641,W,000.0,355.7,220819,017.7,E*66
01DDAF,022584,00C524,$GPRMC,020113,A,5442.9426,N,11318.4643,W,000.0,355.7,220819,017.7,E*61
01DDB6,022590,00C528,$GPRMC,020114,A,5442.9429,N,11318.4645,W,000.0,355.7,220819,017.7,E*6F
01DDAD,022584,00C523,$GPRMC,020115,A,5442.9432,N,11318.4643,W,000.0,355.7,220819,017.7,E*62
01DDB1,022589,00C526,$GPRMC,020116,A,5442.9431,N,11318.4643,W,000.0,355.7,220819,017.7,E*62
01DDB5,02258E,00C528,$GPRMC,020117,A,5442.9429,N,11318.4643,W,000.0,355.7,220819,017.7,E*6A
01DDB1,022589,00C526,$GPRMC,020118,A,5442.9428,N,11318.4643,W,000.0,355.7,220819,017.7,E*64
01DDB1,022589,00C525,$GPRMC,020119,A,5442.9427,N,11318.4643,W,000.0,355.7,220819,017.7,E*6A
01DDB3,02258D,00C527,$GPRMC,020120,A,5442.9426,N,11318.4643,W,000.0,355.7,220819,017.7,E*61
01DDB1,022588,00C525,$GPRMC,020121,A,5442.9423,N,11318.4640,W,000.0,355.7,220819,017.7,E*66
01DDB3,02258C,00C528,$GPRMC,020122,A,5442.9423,N,11318.4638,W,000.0,355.7,220819,017.7,E*6A
01DDB3,02258C,00C527,$GPRMC,020123,A,5442.9422,N,11318.4637,W,000.0,355.7,220819,017.7,E*65
01DDB5,02258F,00C528,$GPRMC,020124,A,5442.9421,N,11318.4636,W,000.0,355.7,220819,017.7,E*60
01DDB3,02258C,00C527,$GPRMC,020125,A,5442.9420,N,11318.4635,W,000.0,355.7,220819,017.7,E*63
01DDB7,022593,00C529,$GPRMC,020126,A,5442.9419,N,11318.4633,W,000.0,355.7,220819,017.7,E*6C
01DDB1,022589,00C525,$GPRMC,020127,A,5442.9420,N,11318.4630,W,000.0,355.7,220819,017.7,E*64
01DDB5,02258E,00C527,$GPRMC,020128,A,5442.9421,N,11318.4630,W,000.0,355.7,220819,017.7,E*6A
01DDB2,02258B,00C526,$GPRMC,020129,A,5442.9422,N,11318.4630,W,000.0,355.7,220819,017.7,E*68
01DDB1,022589,00C526,$GPRMC,020130,A,5442.9425,N,11318.4631,W,000.0,355.7,220819,017.7,E*66
01DDAF,022586,00C524,$GPRMC,020131,A,5442.9427,N,11318.4632,W,000.0,355.7,220819,017.7,E*66
01DDB2,02258A,00C526,$GPRMC,020132,A,5442.9430,N,11318.4632,W,000.0,355.7,220819,017.7,E*63
01DDB1,022589,00C526,$GPRMC,020133,A,5442.9433,N,11318.4633,W,000.0,355.7,220819,017.7,E*60
01DDB1,022587,00C525,$GPRMC,020134,A,5442.9424,N,11318.4629,W,000.0,355.7,220819,017.7,E*6A
01DDB5,02258E,00C528,$GPRMC,020135,A,5442.9428,N,11318.4628,W,000.0,355.7,220819,017.7,E*66
01DDAF,022586,00C525,$GPRMC,020136,A,5442.9429,N,11318.4626,W,000.0,355.7,220819,017.7,E*6A
01DDB3,02258B,00C526,$GPRMC,020137,A,5442.9429,N,11318.4624,W,000.0,355.7,220819,017.7,E*69
01DDB6,02258E,00C529,$GPRMC,020138,A,5442.9432,N,11318.4620,W,000.0,355.7,220819,017.7,E*68
01DDB4,02258B,00C527,$GPRMC,020139,A,5442.9434,N,11318.4616,W,000.0,355.7,220819,017.7,E*6A
01DDB2,02258B,00C527,$GPRMC,020140,A,5442.9437,N,11318.4613,W,000.0,355.7,220819,017.7,E*62
01DDB2,022589,00C526,$GPRMC,020141,A,5442.9442,N,11318.4610,W,000.0,355.7,220819,017.7,E*62
01DDB1,022588,00C525,$GPRMC,020142,A,5442.9443,N,11318.4608,W,000.0,355.7,220819,017.7,E*69
01DDB3,02258A,00C527,$GPRMC,020143,A,5442.9447,N,11318.4606,W,000.0,355.7,220819,017.7,E*62
01DDB2,022589,00C526,$GPRMC,020144,A,5442.9452,N,11318.4606,W,000.0,355.7,220819,017.7,E*61
01DDB3,02258B,00C526,$GPRMC,020145,A,5442.9453,N,11318.4605,W,000.0,355.7,220819,017.7,E*62
01DDB0,022587,00C525,$GPRMC,020146,A,5442.9453,N,11318.4606,W,000.0,355.7,220819,017.7,E*62
01DDB0,022586,00C525,$GPRMC,020147,A,5442.9450,N,11318.4605,W,000.0,355.7,220819,017.7,E*63
01DDB2,02258B,00C527,$GPRMC,020148,A,5442.9449,N,11318.4604,W,000.0,355.7,220819,017.7,E*65
01DDB1,022588,00C526,$GPRMC,020149,A,5442.9448,N,11318.4603,W,000.0,355.7,220819,017.7,E*62
01DDB0,022587,00C525,$GPRMC,020150,A,5442.9447,N,11318.4601,W,000.0,355.7,220819,017.7,E*67
01DDAF,022586,00C525,$GPRMC,020151,A,5442.9453,N,11318.4612,W,000.0,355.7,220819,017.7,E*61
01DDB0,022586,00C524,$GPRMC,020152,A,5442.9448,N,11318.4610,W,000.0,355.7,220819,017.7,E*6A
01DDB2,022589,00C526,$GPRMC,020153,A,5442.9448,N,11318.4607,W,000.0,355.7,220819,017.7,E*6D
01DDB1,02258A,00C527,$GPRMC,020154,A,5442.9442,N,11318.4604,W,000.0,355.7,220819,017.7,E*63
01DDB5,02258F,00C529,$GPRMC,020155,A,5442.9436,N,11318.4602,W,000.0,355.7,220819,017.7,E*67
01DDB0,022586,00C526,$GPRMC,020156,A,5442.9431,N,11318.4598,W,000.0,355.7,220819,017.7,E*63
01DDB3,02258B,00C527,$GPRMC,020157,A,5442.9426,N,11318.4597,W,000.0,355.7,220819,017.7,E*6B
01DDB1,022588,00C525,$GPRMC,020158,A,5442.9421,N,11318.4595,W,000.0,355.7,220819,017.7,E*61
01DDB3,02258C,00C528,$GPRMC,020159,A,5442.9416,N,11318.4592,W,000.0,355.7,220819,017.7,E*63
01DDB3,02258B,00C527,$GPRMC,020200,A,5442.9412,N,11318.4590,W,000.0,355.7,220819,017.7,E*6A
01DDB4,02258C,00C528,$GPRMC,020201,A,5442.9407,N,11318.4585,W,000.0,355.7,220819,017.7,E*6B
01DDB0,022588,00C526,$GPRMC,020202,A,5442.9403,N,11318.4584,W,000.0,355.7,220819,017.7,E*6D
01DDB3,02258D,00C528,$GPRMC,020203,A,5442.9399,N,11318.4582,W,000.0,355.7,220819,017.7,E*6E
01DDB2,02258A,00C526,$GPRMC,020204,A,5442.9396,N,11318.4580,W,000.0,355.7,220819,017.7,E*64
01DDB8,022593,00C52A,$GPRMC,020205,A,5442.9394,N,11318.4578,W,000.0,355.7,220819,017.7,E*60
01DDB3,02258D,00C528,$GPRMC,020206,A,5442.9393,N,11318.4577,W,000.0,355.7,220819,017.7,E*6B
01DDB7,022592,00C529,$GPRMC,020207,A,5442.9392,N,11318.4576,W,000.0,355.7,220819,017.7,E*6A
01DDB4,02258E,00C528,$GPRMC,020208,A,5442.9391,N,11318.4575,W,000.0,355.7,220819,017.7,E*65
01DDB6,022591,00C529,$GPRMC,020209,A,5442.9392,N,11318.4575,W,000.0,355.7,220819,017.7,E*67
01DDB5,022590,00C529,$GPRMC,020210,A,5442.9393,N,11318.4575,W,000.0,355.7,220819,017.7,E*6E
01DDBA,022597,00C52B,$GPRMC,020211,A,5442.9393,N,11318.4574,W,000.0,355.7,220819,017.7,E*6E
01DDB4,02258E,00C527,$GPRMC,020212,A,5442.9393,N,11318.4574,W,000.0,355.7,220819,017.7,E*6D
01DDB5,022590,00C529,$GPRMC,020213,A,5442.9392,N,11318.4574,W,000.0,355.7,220819,017.7,E*6D
01DDB7,022593,00C529,$GPRMC,020214,A,5442.9391,N,11318.4574,W,000.0,355.7,220819,017.7,E*69
01DDB2,02258B,00C527,$GPRMC,020215,A,5442.9390,N,11318.4573,W,000.0,355.7,220819,017.7,E*6E
01DDB1,02258B,00C526,$GPRMC,020216,A,5442.9389,N,11318.4573,W,000.0,355.7,220819,017.7,E*65
01DDB7,022593,00C529,$GPRMC,020217,A,5442.9387,N,11318.4573,W,000.0,355.7,220819,017.7,E*6A
01DDB0,022589,00C525,$GPRMC,020218,A,5442.9389,N,11318.4573,W,000.0,355.7,220819,017.7,E*6B
01DDB5,022590,00C528,$GPRMC,020219,A,5442.9389,N,11318.4572,W,000.0,355.7,220819,017.7,E*6B
01DDB4,02258E,00C528,$GPRMC,020220,A,5442.9389,N,11318.4572,W,000.0,355.7,220819,017.7,E*61
01DDB5,022591,00C529,$GPRMC,020221,A,5442.9388,N,11318.4572,W,000.0,355.7,220819,017.7,E*61
01DDB0,022587,00C525,$GPRMC,020222,A,5442.9388,N,11318.4572,W,000.0,355.7,220819,017.7,E*62
01DDB4,02258F,00C528,$GPRMC,020223,A,5442.9387,N,11318.4572,W,000.0,355.7,220819,017.7,E*6C
01DDB2,02258C,00C527,$GPRMC,020224,A,5442.9387,N,11318.4572,W,000.0,355.7,220819,017.7,E*6B
01DDB1,02258A,00C526,$GPRMC,020225,A,5442.9386,N,11318.4572,W,000.0,355.7,220819,017.7,E*6B
01DDB1,02258A,00C526,$GPRMC,020226,A,5442.9385,N,11318.4571,W,000.0,355.7,220819,017.7,E*68
01DDB1,02258A,00C527,$GPRMC,020227,A,5442.9384,N,11318.4571,W,000.0,355.7,220819,017.7,E*68
01DDB1,02258B,00C527,$GPRMC,020228,A,5442.9380,N,11318.4570,W,000.0,355.7,220819,017.7,E*62
01DDB1,02258A,00C527,$GPRMC,020229,A,5442.9377,N,11318.4569,W,000.0,355.7,220819,017.7,E*63
01DDB2,02258C,00C528,$GPRMC,020230,A,5442.9373,N,11318.4569,W,000.0,355.7,220819,017.7,E*6F
01DDB1,022589,00C527,$GPRMC,020231,A,5442.9370,N,11318.4569,W,000.0,355.7,220819,017.7,E*6D
01DDB7,022592,00C52B,$GPRMC,020232,A,5442.9367,N,11318.4569,W,000.0,355.7,220819,017.7,E*68
01DDB2,02258A,00C527,$GPRMC,020233,A,5442.9364,N,11318.4568,W,000.0,355.7,220819,017.7,E*6B
01DDB3,02258C,00C528,$GPRMC,020234,A,5442.9360,N,11318.4568,W,000.0,355.7,220819,017.7,E*68
01DDB5,02258F,00C529,$GPRMC,020235,A,5442.9357,N,11318.4568,W,000.0,355.7,220819,017.7,E*6D
01DDB2,02258B,00C527,$GPRMC,020236,A,5442.9353,N,11318.4568,W,000.0,355.7,220819,017.7,E*6A
01DDB4,02258F,00C528,$GPRMC,020237,A,5442.9349,N,11318.4568,W,000.0,355.7,220819,017.7,E*60
01DDB4,02258D,00C528,$GPRMC,020238,A,5442.9345,N,11318.4568,W,000.0,355.7,220819,017.7,E*63
01DDB2,02258B,00C527,$GPRMC,020239,A,5442.9342,N,11318.4567,W,000.0,355.7,220819,017.7,E*6A
01DDB3,02258C,00C527,$GPRMC,020240,A,5442.9338,N,11318.4567,W,000.0,355.7,220819,017.7,E*69
01DDB5,022590,00C52A,$GPRMC,020241,A,5442.9335,N,11318.4567,W,000.0,355.7,220819,017.7,E*65
01DDB5,02258F,00C529,$GPRMC,020242,A,5442.9332,N,11318.4566,W,000.0,355.7,220819,017.7,E*60
01DDB6,022591,00C52A,$GPRMC,020243,A,5442.9329,N,11318.4565,W,000.0,355.7,220819,017.7,E*68
01DDB5,022590,00C52A,$GPRMC,020244,A,5442.9326,N,11318.4565,W,000.0,355.7,220819,017.7,E*60
01DDB6,022591,00C52B,$GPRMC,020245,A,5442.9323,N,11318.4564,W,000.0,355.7,220819,017.7,E*65
01DDB4,02258F,00C529,$GPRMC,020246,A,5442.9318,N,11318.4564,W,000.0,355.7,220819,017.7,E*6E
01DDB6,022590,00C52A,$GPRMC,020247,A,5442.9312,N,11318.4563,W,000.0,355.7,220819,017.7,E*62
01DDB3,02258D,00C529,$GPRMC,020248,A,5442.9307,N,11318.4563,W,000.0,355.7,220819,017.7,E*69
01DDB3,02258C,00C528,$GPRMC,020249,A,5442.9309,N,11318.4563,W,000.0,355.7,220819,017.7,E*66
01DDB4,02258F,00C529,$GPRMC,020250,A,5442.9310,N,11318.4564,W,000.0,355.7,220819,017.7,E*61
01DDB2,02258C,00C528,$GPRMC,020251,A,5442.9308,N,11318.4564,W,000.0,355.7,220819,017.7,E*69
01DDB2,02258C,00C529,$GPRMC,020252,A,5442.9305,N,11318.4565,W,000.0,355.7,220819,017.7,E*66
01DDB6,022591,00C52A,$GPRMC,020253,A,5442.9304,N,11318.4566,W,000.0,355.7,220819,017.7,E*65
01DDB2,02258C,00C528,$GPRMC,020254,A,5442.9304,N,11318.4567,W,000.0,355.7,220819,017.7,E*63
01DDB1,02258A,00C527,$GPRMC,020255,A,5442.9304,N,11318.4568,W,000.0,355.7,220819,017.7,E*6D
01DDB5,022590,00C52A,$GPRMC,020256,A,5442.9304,N,11318.4569,W,000.0,355.7,220819,017.7,E*6F
01DDB0,02258B,00C527,$GPRMC,020257,A,5442.9305,N,11318.4570,W,000.0,355.7,220819,017.7,E*67
01DDB3,02258E,00C529,$GPRMC,020258,A,5442.9305,N,11318.4571,W,000.0,355.7,220819,017.7,E*69
01DDB0,022589,00C528,$GPRMC,020259,A,5442.9305,N,11318.4571,W,000.0,355.7,220819,017.7,E*68
01DDB3,02258F,00C529,$GPRMC,020300,A,5442.9306,N,11318.4572,W,000.0,355.7,220819,017.7,E*65
01DDB4,02258F,00C52A,$GPRMC,020301,A,5442.9306,N,11318.4572,W,000.0,355.7,220819,017.7,E*64
01DDB3,02258F,00C52A,$GPRMC,020302,A,5442.9306,N,11318.4572,W,000.0,355.7,220819,017.7,E*67
01DDB3,02258E,00C52A,$GPRMC,020303,A,5442.9306,N,11318.4572,W,000.0,355.7,220819,017.7,E*66
01DDB2,02258D,00C528,$GPRMC,020304,A,5442.9305,N,11318.4572,W,000.0,355.7,220819,017.7,E*62
01DDB5,022591,00C52B,$GPRMC,020305,A,5442.9306,N,11318.4571,W,000.0,355.7,220819,017.7,E*63
01DDB1,02258D,00C528,$GPRMC,020306,A,5442.9305,N,11318.4571,W,000.0,355.7,220819,017.7,E*63
01DDB1,02258C,00C528,$GPRMC,020307,A,5442.9305,N,11318.4571,W,000.0,355.7,220819,017.7,E*62
01DDB1,02258B,00C528,$GPRMC,020308,A,5442.9304,N,11318.4571,W,000.0,355.7,220819,017.7,E*6C
01DDB1,02258B,00C528,$GPRMC,020309,A,5442.9304,N,11318.4571,W,000.0,355.7,220819,017.7,E*6D
01DDAF,022588,00C527,$GPRMC,020310,A,5442.9304,N,11318.4571,W,000.0,355.7,220819,017.7,E*65
01DDB4,022591,00C52B,$GPRMC,020311,A,5442.9306,N,11318.4572,W,000.0,355.7,220819,017.7,E*65
01DDAF,022589,00C527,$GPRMC,020312,A,5442.9312,N,11318.4573,W,000.0,355.7,220819,017.7,E*62
01DDB0,02258B,00C528,$GPRMC,020313,A,5442.9317,N,11318.4573,W,000.0,355.7,220819,017.7,E*66
01DDB1,02258C,00C528,$GPRMC,020314,A,5442.9322,N,11318.4574,W,000.0,355.7,220819,017.7,E*60
01DDB3,02258F,00C52A,$GPRMC,020315,A,5442.9327,N,11318.4574,W,000.0,355.7,220819,017.7,E*64
01DDB1,02258C,00C529,$GPRMC,020316,A,5442.9323,N,11318.4569,W,000.0,355.7,220819,017.7,E*6F
01DDB1,02258B,00C528,$GPRMC,020317,A,5442.9329,N,11318.4571,W,000.0,355.7,220819,017.7,E*6D
01DDB0,02258A,00C528,$GPRMC,020318,A,5442.9328,N,11318.4571,W,000.0,355.7,220819,017.7,E*63
01DDB5,022592,00C52B,$GPRMC,020319,A,5442.9326,N,11318.4575,W,000.0,355.7,220819,017.7,E*68
01DDB0,02258B,00C527,$GPRMC,020320,A,5442.9322,N,11318.4579,W,000.0,355.7,220819,017.7,E*6A
01DDAF,022588,00C527,$GPRMC,020321,A,5442.9322,N,11318.4579,W,000.0,355.7,220819,017.7,E*6B
01DDB5,022593,00C52A,$GPRMC,020322,A,5442.9320,N,11318.4583,W,000.0,355.7,220819,017.7,E*6F
01DDB5,022590,00C527,$GPRMC,020323,A,5442.9318,N,11318.4586,W,000.0,355.7,220819,017.7,E*60
01DDB2,02258E,00C525,$GPRMC,020324,A,5442.9316,N,11318.4589,W,000.0,355.7,220819,017.7,E*66
01DDB5,022591,00C528,$GPRMC,020325,A,5442.9315,N,11318.4592,W,000.0,355.7,220819,017.7,E*6E
01DDB1,02258B,00C526,$GPRMC,020326,A,5442.9315,N,11318.4592,W,000.0,355.7,220819,017.7,E*6D
01DDB5,022591,00C529,$GPRMC,020327,A,5442.9311,N,11318.4593,W,000.0,355.7,220819,017.7,E*69
01DDAC,022587,00C525,$GPRMC,020328,A,5442.9307,N,11318.4593,W,000.0,355.7,220819,017.7,E*61
01DDB1,02258C,00C528,$GPRMC,020329,A,5442.9304,N,11318.4593,W,000.0,355.7,220819,017.7,E*63
01DDB0,02258C,00C528,$GPRMC,020330,A,5442.9302,N,11318.4594,W,000.0,355.7,220819,017.7,E*6A
01DDB2,022590,00C529,$GPRMC,020331,A,5442.9300,N,11318.4594,W,000.0,355.7,220819,017.7,E*69
01DDB4,022592,00C52A,$GPRMC,020332,A,5442.9299,N,11318.4594,W,000.0,355.7,220819,017.7,E*6B
01DDB3,022591,00C529,$GPRMC,020333,A,5442.9299,N,11318.4594,W,000.0,355.7,220819,017.7,E*6A
01DDB3,022591,00C52A,$GPRMC,020334,A,5442.9298,N,11318.4594,W,000.0,355.7,220819,017.7,E*6C
01DDAF,02258C,00C528,$GPRMC,020335,A,5442.9298,N,11318.4594,W,000.0,355.7,220819,017.7,E*6D
01DDB5,022594,00C52B,$GPRMC,020336,A,5442.9299,N,11318.4594,W,000.0,355.7,220819,017.7,E*6F
01DDB2,022590,00C529,$GPRMC,020337,A,5442.9300,N,11318.4594,W,000.0,355.7,220819,017.7,E*6F
01DDB1,02258E,00C529,$GPRMC,020338,A,5442.9301,N,11318.4595,W,000.0,355.7,220819,017.7,E*60
01DDB6,022596,00C52C,$GPRMC,020339,A,5442.9304,N,11318.4595,W,000.0,355.7,220819,017.7,E*64
01DDB3,022591,00C52A,$GPRMC,020340,A,5442.9306,N,11318.4596,W,000.0,355.7,220819,017.7,E*6B
01DDB2,022590,00C52A,$GPRMC,020341,A,5442.9309,N,11318.4596,W,000.0,355.7,220819,017.7,E*65
01DDB6,022595,00C52C,$GPRMC,020342,A,5442.9311,N,11318.4596,W,000.0,355.7,220819,017.7,E*6F
01DDB0,02258C,00C528,$GPRMC,020343,A,5442.9312,N,11318.4596,W,000.0,355.7,220819,017.7,E*6D
01DDB1,02258F,00C529,$GPRMC,020344,A,5442.9314,N,11318.4595,W,000.0,355.7,220819,017.7,E*6F
01DDB0,02258D,00C528,$GPRMC,020345,A,5442.9315,N,11318.4595,W,000.0,355.7,220819,017.7,E*6F
01DDB4,022592,00C52B,$GPRMC,020346,A,5442.9317,N,11318.4596,W,000.0,355.7,220819,017.7,E*6D
01DDB0,02258D,00C529,$GPRMC,020347,A,5442.9319,N,11318.4598,W,000.0,355.7,220819,017.7,E*6C
01DDB5,022593,00C52C,$GPRMC,020348,A,5442.9320,N,11318.4599,W,000.0,355.7,220819,017.7,E*68
01DDB4,022592,00C52B,$GPRMC,020349,A,5442.9320,N,11318.4601,W,000.0,355.7,220819,017.7,E*6B
01DDB6,022594,00C52C,$GPRMC,020350,A,5442.9319,N,11318.4603,W,000.0,355.7,220819,017.7,E*6B
01DDB2,02258E,00C529,$GPRMC,020351,A,5442.9317,N,11318.4603,W,000.0,355.7,220819,017.7,E*64
01DDB1,02258D,00C529,$GPRMC,020352,A,5442.9312,N,11318.4603,W,000.0,355.7,220819,017.7,E*62
01DDB1,02258D,00C528,$GPRMC,020353,A,5442.9309,N,11318.4604,W,000.0,355.7,220819,017.7,E*6E
01DDB1,02258D,00C528,$GPRMC,020354,A,5442.9306,N,11318.4604,W,000.0,355.7,220819,017.7,E*66
01DDB2,02258E,00C529,$GPRMC,020355,A,5442.9303,N,11318.4604,W,000.0,355.7,220819,017.7,E*62
01DDB5,022593,00C52C,$GPRMC,020356,A,5442.9301,N,11318.4604,W,000.0,355.7,220819,017.7,E*63
01DDB4,022590,00C52A,$GPRMC,020357,A,5442.9300,N,11318.4605,W,000.0,355.7,220819,017.7,E*62
01DDB3,02258E,00C52A,$GPRMC,020358,A,5442.9299,N,11318.4605,W,000.0,355.7,220819,017.7,E*6C
01DDB4,022592,00C52B,$GPRMC,020359,A,5442.9301,N,11318.4610,W,000.0,355.7,220819,017.7,E*69
01DDB5,022593,00C52B,$GPRMC,020400,A,5442.9305,N,11318.4611,W,000.0,355.7,220819,017.7,E*67
01DDB2,02258E,00C52A,$GPRMC,020401,A,5442.9308,N,11318.4613,W,000.0,355.7,220819,017.7,E*69
01DDB1,02258E,00C529,$GPRMC,020402,A,5442.9312,N,11318.4614,W,000.0,355.7,220819,017.7,E*66
01DDB0,02258A,00C528,$GPRMC,020403,A,5442.9316,N,11318.4616,W,000.0,355.7,220819,017.7,E*61
01DDB5,022592,00C52C,$GPRMC,020404,A,5442.9319,N,11318.4618,W,000.0,355.7,220819,017.7,E*67
01DDB1,02258D,00C529,$GPRMC,020405,A,5442.9322,N,11318.4620,W,000.0,355.7,220819,017.7,E*65
01DDB1,02258D,00C528,$GPRMC,020406,A,5442.9325,N,11318.4623,W,000.0,355.7,220819,017.7,E*62
01DDB1,02258D,00C529,$GPRMC,020407,A,5442.9327,N,11318.4625,W,000.0,355.7,220819,017.7,E*67
01DDB3,022590,00C52A,$GPRMC,020408,A,5442.9329,N,11318.4627,W,000.0,355.7,220819,017.7,E*64
01DDB3,02258F,00C52A,$GPRMC,020409,A,5442.9332,N,11318.4628,W,000.0,355.7,220819,017.7,E*60
01DDB2,02258F,00C52A,$GPRMC,020410,A,5442.9334,N,11318.4629,W,000.0,355.7,220819,017.7,E*6F
01DDB5,022593,00C52B,$GPRMC,020411,A,5442.9336,N,11318.4631,W,000.0,355.7,220819,017.7,E*65
01DDB5,022592,00C52B,$GPRMC,020412,A,5442.9338,N,11318.4632,W,000.0,355.7,220819,017.7,E*6B
01DDB4,022591,00C52A,$GPRMC,020413,A,5442.9341,N,11318.4633,W,000.0,355.7,220819,017.7,E*65
01DDB7,022596,00C52C,$GPRMC,020414,A,5442.9343,N,11318.4635,W,000.0,355.7,220819,017.7,E*66
01DDB1,02258E,00C529,$GPRMC,020415,A,5442.9345,N,11318.4636,W,000.0,355.7,220819,017.7,E*62
01DDB5,022593,00C52B,$GPRMC,020416,A,5442.9347,N,11318.4636,W,000.0,355.7,220819,017.7,E*63
01DDB2,022590,00C52A,$GPRMC,020417,A,5442.9349,N,11318.4637,W,000.0,355.7,220819,017.7,E*6D
01DDB1,02258E,00C529,$GPRMC,020418,A,5442.9351,N,11318.4637,W,000.0,355.7,220819,017.7,E*6B
01DDAF,02258A,00C527,$GPRMC,020419,A,5442.9352,N,11318.4638,W,000.0,355.7,220819,017.7,E*66
01DDB2,02258F,00C529,$GPRMC,020420,A,5442.9354,N,11318.4638,W,000.0,355.7,220819,017.7,E*6A
01DDB5,022595,00C52C,$GPRMC,020421,A,5442.9355,N,11318.4639,W,000.0,355.7,220819,017.7,E*6B
01DDB1,02258C,00C529,$GPRMC,020422,A,5442.9357,N,11318.4640,W,000.0,355.7,220819,017.7,E*64
01DDAF,02258A,00C528,$GPRMC,020423,A,5442.9358,N,11318.4641,W,000.0,355.7,220819,017.7,E*6B
01DDB5,022592,00C52B,$GPRMC,020424,A,5442.9360,N,11318.4641,W,000.0,355.7,220819,017.7,E*67
01DDB4,022592,00C52C,$GPRMC,020425,A,5442.9362,N,11318.4641,W,000.0,355.7,220819,017.7,E*64
01DDB4,022590,00C52A,$GPRMC,020426,A,5442.9363,N,11318.4641,W,000.0,355.7,220819,017.7,E*66
01DDB6,022596,00C52C,$GPRMC,020427,A,5442.9365,N,11318.4641,W,000.0,355.7,220819,017.7,E*61
01DDB4,022590,00C52A,$GPRMC,020428,A,5442.9366,N,11318.4640,W,000.0,355.7,220819,017.7,E*6C
01DDB4,022590,00C52A,$GPRMC,020429,A,5442.9367,N,11318.4639,W,000.0,355.7,220819,017.7,E*62
01DDB5,022592,00C52C,$GPRMC,020430,A,5442.9368,N,11318.4638,W,000.0,355.7,220819,017.7,E*64
01DDB2,02258E,00C52A,$GPRMC,020431,A,5442.9362,N,11318.4637,W,000.0,355.7,220819,017.7,E*60
01DDB1,02258D,00C52A,$GPRMC,020432,A,5442.9362,N,11318.4636,W,000.0,355.7,220819,017.7,E*62
01DDB8,022595,00C52D,$GPRMC,020433,A,5442.9362,N,11318.4635,W,000.0,355.7,220819,017.7,E*60
01DDB4,022591,00C52B,$GPRMC,020434,A,5442.9361,N,11318.4635,W,000.0,355.7,220819,017.7,E*64
01DDB4,022592,00C52C,$GPRMC,020435,A,5442.9360,N,11318.4634,W,000.0,355.7,220819,017.7,E*65
01DDB5,022592,00C52C,$GPRMC,020436,A,5442.9358,N,11318.4633,W,000.0,355.7,220819,017.7,E*6A
01DDB3,02258F,00C52B,$GPRMC,020437,A,5442.9357,N,11318.4633,W,000.0,355.7,220819,017.7,E*64
01DDB3,02258F,00C52B,$GPRMC,020438,A,5442.9356,N,11318.4632,W,000.0,355.7,220819,017.7,E*6B
01DDB4,022591,00C52B,$GPRMC,020439,A,5442.9355,N,11318.4632,W,000.0,355.7,220819,017.7,E*69
01DDB1,02258D,00C52A,$GPRMC,020440,A,5442.9354,N,11318.4631,W,000.0,355.7,220819,017.7,E*65
01DDB3,02258E,00C52B,$GPRMC,020441,A,5442.9353,N,11318.4631,W,000.0,355.7,220819,017.7,E*63
01DDB7,022596,00C52E,$GPRMC,020442,A,5442.9352,N,11318.4631,W,000.0,355.7,220819,017.7,E*61
01DDB3,022590,00C52B,$GPRMC,020443,A,5442.9351,N,11318.4630,W,000.0,355.7,220819,017.7,E*62
01DDB3,02258F,00C52B,$GPRMC,020444,A,5442.9350,N,11318.4630,W,000.0,355.7,220819,017.7,E*64
01DDB3,02258F,00C52B,$GPRMC,020445,A,5442.9350,N,11318.4630,W,000.0,355.7,220819,017.7,E*65
01DDB3,02258E,00C52A,$GPRMC,020446,A,5442.9350,N,11318.4630,W,000.0,355.7,220819,017.7,E*66
01DDB3,02258F,00C52B,$GPRMC,020447,A,5442.9350,N,11318.4630,W,000.0,355.7,220819,017.7,E*67
01DDB5,022592,00C52D,$GPRMC,020448,A,5442.9350,N,11318.4630,W,000.0,355.7,220819,017.7,E*68
01DDB1,02258D,00C52A,$GPRMC,020449,A,5442.9352,N,11318.4630,W,000.0,355.7,220819,017.7,E*6B
01DDB3,02258E,00C52B,$GPRMC,020450,A,5442.9352,N,11318.4630,W,000.0,355.7,220819,017.7,E*63
01DDB2,02258D,00C52A,$GPRMC,020451,A,5442.9352,N,11318.4629,W,000.0,355.7,220819,017.7,E*6A
01DDB2,02258D,00C52B,$GPRMC,020452,A,5442.9353,N,11318.4628,W,000.0,355.7,220819,017.7,E*69
01DDB4,022590,00C52C,$GPRMC,020453,A,5442.9353,N,11318.4627,W,000.0,355.7,220819,017.7,E*67
01DDB3,02258E,00C52B,$GPRMC,020454,A,5442.9353,N,11318.4625,W,000.0,355.7,220819,017.7,E*62
01DDB2,02258E,00C52B,$GPRMC,020455,A,5442.9353,N,11318.4624,W,000.0,355.7,220819,017.7,E*62
01DDB4,022591,00C52C,$GPRMC,020456,A,5442.9352,N,11318.4621,W,000.0,355.7,220819,017.7,E*65
01DDB4,022590,00C52C,$GPRMC,020457,A,5442.9352,N,11318.4621,W,000.0,355.7,220819,017.7,E*64
01DDB5,022592,00C52D,$GPRMC,020458,A,5442.9352,N,11318.4620,W,000.0,355.7,220819,017.7,E*6A
01DDB3,02258F,00C52B,$GPRMC,020459,A,5442.9351,N,11318.4619,W,000.0,355.7,220819,017.7,E*62
01DDB3,022591,00C52B,$GPRMC,020500,A,5442.9351,N,11318.4619,W,000.0,355.7,220819,017.7,E*6F
01DDB2,02258E,00C52B,$GPRMC,020501,A,5442.9350,N,11318.4619,W,000.0,355.7,220819,017.7,E*6F
01DDB4,022594,00C52C,$GPRMC,020502,A,5442.9350,N,11318.4619,W,000.0,355.7,220819,017.7,E*6C
01DDB5,022594,00C52C,$GPRMC,020503,A,5442.9350,N,11318.4620,W,000.0,355.7,220819,017.7,E*67
01DDB3,022592,00C52B,$GPRMC,020504,A,5442.9349,N,11318.4620,W,000.0,355.7,220819,017.7,E*68
01DDB5,022594,00C52C,$GPRMC,020505,A,5442.9349,N,11318.4621,W,000.0,355.7,220819,017.7,E*68
01DDB3,022592,00C52B,$GPRMC,020506,A,5442.9350,N,11318.4622,W,000.0,355.7,220819,017.7,E*60
01DDB6,022597,00C52D,$GPRMC,020507,A,5442.9350,N,11318.4622,W,000.0,355.7,220819,017.7,E*61
01DDB4,022594,00C52C,$GPRMC,020508,A,5442.9350,N,11318.4623,W,000.0,355.7,220819,017.7,E*6F
01DDB6,022596,00C52D,$GPRMC,020509,A,5442.9351,N,11318.4623,W,000.0,355.7,220819,017.7,E*6F
01DDB5,022596,00C52D,$GPRMC,020510,A,5442.9352,N,11318.4624,W,000.0,355.7,220819,017.7,E*63
01DDB2,022592,00C52C,$GPRMC,020511,A,5442.9353,N,11318.4624,W,000.0,355.7,220819,017.7,E*63
01DDB6,022597,00C52D,$GPRMC,020512,A,5442.9353,N,11318.4625,W,000.0,355.7,220819,017.7,E*61
01DDB6,022597,00C52D,$GPRMC,020513,A,5442.9354,N,11318.4625,W,000.0,355.7,220819,017.7,E*67
01DDB7,022598,00C52D,$GPRMC,020514,A,5442.9354,N,11318.4626,W,000.0,355.7,220819,017.7,E*63
01DDB6,022597,00C52D,$GPRMC,020515,A,5442.9354,N,11318.4627,W,000.0,355.7,220819,017.7,E*63
01DDB5,022596,00C52D,$GPRMC,020516,A,5442.9355,N,11318.4627,W,000.0,355.7,220819,017.7,E*61
01DDB7,022598,00C52E,$GPRMC,020517,A,5442.9355,N,11318.4628,W,000.0,355.7,220819,017.7,E*6F
01DDB3,022593,00C52C,$GPRMC,020518,A,5442.9355,N,11318.4630,W,000.0,355.7,220819,017.7,E*69
01DDB4,022593,00C52B,$GPRMC,020519,A,5442.9356,N,11318.4631,W,000.0,355.7,220819,017.7,E*6A
01DDB4,022594,00C52C,$GPRMC,020520,A,5442.9356,N,11318.4632,W,000.0,355.7,220819,017.7,E*63
01DDB4,022593,00C52B,$GPRMC,020521,A,5442.9356,N,11318.4633,W,000.0,355.7,220819,017.7,E*63
01DDB7,022597,00C52D,$GPRMC,020522,A,5442.9356,N,11318.4633,W,000.0,355.7,220819,017.7,E*60
01DDB5,022595,00C52C,$GPRMC,020523,A,5442.9357,N,11318.4633,W,000.0,355.7,220819,017.7,E*60
01DDB4,022593,00C52B,$GPRMC,020524,A,5442.9358,N,11318.4633,W,000.0,355.7,220819,017.7,E*68
01DDB5,022594,00C52C,$GPRMC,020525,A,5442.9358,N,11318.4633,W,000.0,355.7,220819,017.7,E*69
01DDB3,022592,00C52B,$GPRMC,020526,A,5442.9359,N,11318.4633,W,000.0,355.7,220819,017.7,E*6B
01DDB4,022593,00C52B,$GPRMC,020527,A,5442.9360,N,11318.4633,W,000.0,355.7,220819,017.7,E*60
01DDB6,022595,00C52C,$GPRMC,020528,A,5442.9361,N,11318.4632,W,000.0,355.7,220819,017.7,E*6F
01DDB5,022594,00C52B,$GPRMC,020529,A,5442.9361,N,11318.4631,W,000.0,355.7,220819,017.7,E*6D
01DDB3,022592,00C52A,$GPRMC,020530,A,5442.9360,N,11318.4631,W,000.0,355.7,220819,017.7,E*64
01DDB5,022594,00C52B,$GPRMC,020531,A,5442.9360,N,11318.4630,W,000.0,355.7,220819,017.7,E*64
01DDB6,022596,00C52C,$GPRMC,020532,A,5442.9359,N,11318.4629,W,000.0,355.7,220819,017.7,E*65
01DDB3,022591,00C52A,$GPRMC,020533,A,5442.9357,N,11318.4628,W,000.0,355.7,220819,017.7,E*6B
01DDB1,022590,00C52A,$GPRMC,020534,A,5442.9355,N,11318.4627,W,000.0,355.7,220819,017.7,E*61
01DDB2,022590,00C529,$GPRMC,020535,A,5442.9353,N,11318.4624,W,000.0,355.7,220819,017.7,E*65
01DDB2,022592,00C52A,$GPRMC,020536,A,5442.9352,N,11318.4624,W,000.0,355.7,220819,017.7,E*67
01DDB3,022591,00C52A,$GPRMC,020537,A,5442.9350,N,11318.4623,W,000.0,355.7,220819,017.7,E*63
01DDB4,022594,00C52B,$GPRMC,020538,A,5442.9348,N,11318.4622,W,000.0,355.7,220819,017.7,E*64
01DDB4,022592,00C52A,$GPRMC,020539,A,5442.9346,N,11318.4622,W,000.0,355.7,220819,017.7,E*6B
01DDB6,022597,00C52B,$GPRMC,020540,A,5442.9345,N,11318.4622,W,000.0,355.7,220819,017.7,E*66
01DDB1,02258F,00C529,$GPRMC,020541,A,5442.9344,N,11318.4622,W,000.0,355.7,220819,017.7,E*66
01DDB4,022595,00C52B,$GPRMC,020542,A,5442.9343,N,11318.4623,W,000.0,355.7,220819,017.7,E*63
01DDB2,022593,00C52A,$GPRMC,020543,A,5442.9342,N,11318.4623,W,000.0,355.7,220819,017.7,E*63
01DDB3,022592,00C52A,$GPRMC,020544,A,5442.9339,N,11318.4620,W,000.0,355.7,220819,017.7,E*6B
01DDB2,022593,00C52A,$GPRMC,020545,A,5442.9338,N,11318.4621,W,000.0,355.7,220819,017.7,E*6A
01DDB2,022592,00C52A,$GPRMC,020546,A,5442.9337,N,11318.4622,W,000.0,355.7,220819,017.7,E*65
01DDB0,02258F,00C529,$GPRMC,020547,A,5442.9336,N,11318.4624,W,000.0,355.7,220819,017.7,E*63
01DDB2,022593,00C52A,$GPRMC,020548,A,5442.9333,N,11318.4619,W,000.0,355.7,220819,017.7,E*67
01DDB1,022591,00C529,$GPRMC,020549,A,5442.9332,N,11318.4621,W,000.0,355.7,220819,017.7,E*6C
01DDB1,022591,00C529,$GPRMC,020550,A,5442.9332,N,11318.4622,W,000.0,355.7,220819,017.7,E*67
01DDB0,022590,00C529,$GPRMC,020551,A,5442.9331,N,11318.4623,W,000.0,355.7,220819,017.7,E*64
01DDB3,022594,00C52B,$GPRMC,020552,A,5442.9332,N,11318.4627,W,000.0,355.7,220819,017.7,E*60
01DDB2,022593,00C52A,$GPRMC,020553,A,5442.9334,N,11318.4633,W,000.0,355.7,220819,017.7,E*62
01DDB1,022590,00C52A,$GPRMC,020554,A,5442.9336,N,11318.4637,W,000.0,355.7,220819,017.7,E*63
01DDB1,022591,00C52A,$GPRMC,020555,A,5442.9338,N,11318.4642,W,000.0,355.7,220819,017.7,E*6E
01DDB4,022594,00C52B,$GPRMC,020556,A,5442.9340,N,11318.4646,W,000.0,355.7,220819,017.7,E*66
01DDB3,022592,00C52A,$GPRMC,020557,A,5442.9343,N,11318.4650,W,000.0,355.7,220819,017.7,E*63
01DDB1,02258F,00C529,$GPRMC,020558,A,5442.9344,N,11318.4654,W,000.0,355.7,220819,017.7,E*6F
01DDB3,022591,00C52A,$GPRMC,020559,A,5442.9346,N,11318.4658,W,000.0,355.7,220819,017.7,E*60
01DDB6,022594,00C52B,$GPRMC,020600,A,5442.9348,N,11318.4661,W,000.0,355.7,220819,017.7,E*6B
01DDB3,022590,00C52A,$GPRMC,020601,A,5442.9348,N,11318.4662,W,000.0,355.7,220819,017.7,E*69
01DDB0,02258C,00C529,$GPRMC,020602,A,5442.9350,N,11318.4664,W,000.0,355.7,220819,017.7,E*65
01DDB5,022593,00C52C,$GPRMC,020603,A,5442.9350,N,11318.4663,W,000.0,355.7,220819,017.7,E*63
01DDB4,022590,00C52B,$GPRMC,020604,A,5442.9351,N,11318.4665,W,000.0,355.7,220819,017.7,E*63
01DDB3,02258F,00C52A,$GPRMC,020605,A,5442.9352,N,11318.4666,W,000.0,355.7,220819,017.7,E*62
01DDB3,02258E,00C52A,$GPRMC,020606,A,5442.9354,N,11318.4668,W,000.0,355.7,220819,017.7,E*69
01DDB3,02258D,00C52A,$GPRMC,020607,A,5442.9355,N,11318.4670,W,000.0,355.7,220819,017.7,E*60
01DDB6,022592,00C52C,$GPRMC,020608,A,5442.9358,N,11318.4671,W,000.0,355.7,220819,017.7,E*63
01DDB4,022590,00C52C,$GPRMC,020609,A,5442.9360,N,11318.4672,W,000.0,355.7,220819,017.7,E*6A
01DDB3,02258D,00C52B,$GPRMC,020610,A,5442.9363,N,11318.4673,W,000.0,355.7,220819,017.7,E*60
01DDB6,022593,00C52D,$GPRMC,020611,A,5442.9365,N,11318.4673,W,000.0,355.7,220819,017.7,E*67
01DDB3,02258C,00C52B,$GPRMC,020612,A,5442.9368,N,11318.4673,W,000.0,355.7,220819,017.7,E*69
01DDB2,02258D,00C52B,$GPRMC,020613,A,5442.9370,N,11318.4673,W,000.0,355.7,220819,017.7,E*61
01DDB2,02258B,00C52B,$GPRMC,020614,A,5442.9372,N,11318.4672,W,000.0,355.7,220819,017.7,E*65
01DDB6,022591,00C52D,$GPRMC,020615,A,5442.9373,N,11318.4672,W,000.0,355.7,220819,017.7,E*65
01DDB5,022591,00C52E,$GPRMC,020616,A,5442.9374,N,11318.4670,W,000.0,355.7,220819,017.7,E*63
01DDB3,02258D,00C52C,$GPRMC,020617,A,5442.9375,N,11318.4670,W,000.0,355.7,220819,017.7,E*63
01DDB3,02258E,00C52D,$GPRMC,020618,A,5442.9376,N,11318.4669,W,000.0,355.7,220819,017.7,E*67
01DDB6,022592,00C52F,$GPRMC,020619,A,5442.9375,N,11318.4667,W,000.0,355.7,220819,017.7,E*6B
01DDB4,02258F,00C52D,$GPRMC,020620,A,5442.9375,N,11318.4667,W,000.0,355.7,220819,017.7,E*61
01DDB4,022590,00C52D,$GPRMC,020621,A,5442.9374,N,11318.4666,W,000.0,355.7,220819,017.7,E*60
01DDB4,02258F,00C52D,$GPRMC,020622,A,5442.9374,N,11318.4666,W,000.0,355.7,220819,017.7,E*63
01DDB5,022592,00C52F,$GPRMC,020623,A,5442.9374,N,11318.4667,W,000.0,355.7,220819,017.7,E*63
01DDB4,02258F,00C52E,$GPRMC,020624,A,5442.9374,N,11318.4667,W,000.0,355.7,220819,017.7,E*64
01DDB6,02258D,00C526,$GPRMC,020625,A,5442.9374,N,11318.4668,W,000.0,355.7,220819,017.7,E*6A
01DDB6,022589,00C520,$GPRMC,020626,A,5442.9374,N,11318.4668,W,000.0,355.7,220819,017.7,E*69
01DDB3,022584,00C51E,$GPRMC,020627,A,5442.9374,N,11318.4668,W,000.0,355.7,220819,017.7,E*68
01DDB2,022583,00C51E,$GPRMC,020628,A,5442.9373,N,11318.4668,W,000.0,355.7,220819,017.7,E*60
01DDB5,022587,00C520,$GPRMC,020629,A,5442.9373,N,11318.4667,W,000.0,355.7,220819,017.7,E*6E
01DDB4,022587,00C520,$GPRMC,020630,A,5442.9373,N,11318.4666,W,000.0,355.7,220819,017.7,E*67
01DDB3,022585,00C51F,$GPRMC,020631,A,5442.9373,N,11318.4665,W,000.0,355.7,220819,017.7,E*65
01DDB5,022588,00C520,$GPRMC,020632,A,5442.9373,N,11318.4663,W,000.0,355.7,220819,017.7,E*60
01DDB1,022582,00C51D,$GPRMC,020633,A,5442.9374,N,11318.4662,W,000.0,355.7,220819,017.7,E*67
01DDB5,022588,00C520,$GPRMC,020634,A,5442.9375,N,11318.4661,W,000.0,355.7,220819,017.7,E*62
01DDB3,022586,00C51F,$GPRMC,020635,A,5442.9376,N,11318.4660,W,000.0,355.7,220819,017.7,E*61
01DDB7,02258C,00C521,$GPRMC,020636,A,5442.9377,N,11318.4659,W,000.0,355.7,220819,017.7,E*69
01DDB4,022588,00C51F,$GPRMC,020637,A,5442.9378,N,11318.4657,W,000.0,355.7,220819,017.7,E*69
01DDB4,022588,00C520,$GPRMC,020638,A,5442.9378,N,11318.4656,W,000.0,355.7,220819,017.7,E*67
01DDB4,022589,00C520,$GPRMC,020639,A,5442.9378,N,11318.4655,W,000.0,355.7,220819,017.7,E*65
01DDB5,022589,00C520,$GPRMC,020640,A,5442.9378,N,11318.4654,W,000.0,355.7,220819,017.7,E*6A
01DDB6,02258F,00C528,$GPRMC,020641,A,5442.9377,N,11318.4652,W,000.0,355.7,220819,017.7,E*62
01DDB4,022592,00C52E,$GPRMC,020642,A,5442.9376,N,11318.4651,W,000.0,355.7,220819,017.7,E*63
01DDB2,022590,00C52C,$GPRMC,020643,A,5442.9376,N,11318.4651,W,000.0,355.7,220819,017.7,E*62
01DDB1,02258E,00C52B,$GPRMC,020644,A,5442.9375,N,11318.4651,W,000.0,355.7,220819,017.7,E*66
01DDB4,022591,00C52C,$GPRMC,020645,A,5442.9374,N,11318.4651,W,000.0,355.7,220819,017.7,E*66
01DDB3,022591,00C52C,$GPRMC,020646,A,5442.9372,N,11318.4650,W,000.0,355.7,220819,017.7,E*62
01DDB2,022590,00C52C,$GPRMC,020647,A,5442.9371,N,11318.4650,W,000.0,355.7,220819,017.7,E*60
01DDB6,022596,00C52E,$GPRMC,020648,A,5442.9370,N,11318.4650,W,000.0,355.7,220819,017.7,E*6E
01DDB4,022592,00C52C,$GPRMC,020649,A,5442.9369,N,11318.4649,W,000.0,355.7,220819,017.7,E*6F
01DDB2,022590,00C52B,$GPRMC,020650,A,5442.9368,N,11318.4648,W,000.0,355.7,220819,017.7,E*67
01DDB3,022592,00C52B,$GPRMC,020651,A,5442.9367,N,11318.4647,W,000.0,355.7,220819,017.7,E*66
01DDB3,022592,00C52C,$GPRMC,020652,A,5442.9366,N,11318.4646,W,000.0,355.7,220819,017.7,E*65
01DDB3,022592,00C52C,$GPRMC,020653,A,5442.9364,N,11318.4644,W,000.0,355.7,220819,017.7,E*64
01DDB2,022591,00C52B,$GPRMC,020654,A,5442.9363,N,11318.4642,W,000.0,355.7,220819,017.7,E*62
01DDB3,022592,00C52C,$GPRMC,020655,A,5442.9361,N,11318.4640,W,000.0,355.7,220819,017.7,E*63
01DDB2,022592,00C52B,$GPRMC,020656,A,5442.9359,N,11318.4638,W,000.0,355.7,220819,017.7,E*64
01DDB1,02258F,00C52A,$GPRMC,020657,A,5442.9357,N,11318.4636,W,000.0,355.7,220819,017.7,E*65
01DDB2,022592,00C52B,$GPRMC,020658,A,5442.9354,N,11318.4634,W,000.0,355.7,220819,017.7,E*6B
01DDB3,022591,00C52B,$GPRMC,020659,A,5442.9352,N,11318.4633,W,000.0,355.7,220819,017.7,E*6B
01DDB5,022594,00C52C,$GPRMC,020700,A,5442.9349,N,11318.4632,W,000.0,355.7,220819,017.7,E*6D
01DDB2,022591,00C52B,$GPRMC,020701,A,5442.9347,N,11318.4631,W,000.0,355.7,220819,017.7,E*61
01DDB7,022597,00C52E,$GPRMC,020702,A,5442.9345,N,11318.4630,W,000.0,355.7,220819,017.7,E*61
01DDB4,022593,00C52C,$GPRMC,020703,A,5442.9342,N,11318.4629,W,000.0,355.7,220819,017.7,E*6F
01DDB4,022592,00C52C,$GPRMC,020704,A,5442.9340,N,11318.4628,W,000.0,355.7,220819,017.7,E*6B
01DDB1,02258F,00C52A,$GPRMC,020705,A,5442.9339,N,11318.4627,W,000.0,355.7,220819,017.7,E*6B
01DDB3,022592,00C52B,$GPRMC,020706,A,5442.9337,N,11318.4627,W,000.0,355.7,220819,017.7,E*66
01DDB2,02258F,00C52A,$GPRMC,020707,A,5442.9336,N,11318.4626,W,000.0,355.7,220819,017.7,E*67
01DDB1,02258E,00C52B,$GPRMC,020708,A,5442.9335,N,11318.4626,W,000.0,355.7,220819,017.7,E*6B
01DDB3,022590,00C52B,$GPRMC,020709,A,5442.9334,N,11318.4626,W,000.0,355.7,220819,017.7,E*6B
01DDB2,022591,00C52C,$GPRMC,020710,A,5442.9333,N,11318.4626,W,000.0,355.7,220819,017.7,E*64
01DDB2,02258F,00C52C,$GPRMC,020711,A,5442.9332,N,11318.4626,W,000.0,355.7,220819,017.7,E*64
01DDB1,02258E,00C52B,$GPRMC,020712,A,5442.9330,N,11318.4625,W,000.0,355.7,220819,017.7,E*66
01DDB2,02258E,00C52C,$GPRMC,020713,A,5442.9330,N,11318.4625,W,000.0,355.7,220819,017.7,E*67
01DDB2,022590,00C52C,$GPRMC,020714,A,5442.9328,N,11318.4624,W,000.0,355.7,220819,017.7,E*68
01DDB2,02258F,00C52C,$GPRMC,020715,A,5442.9325,N,11318.4623,W,000.0,355.7,220819,017.7,E*63
01DDB4,022592,00C52D,$GPRMC,020716,A,5442.9324,N,11318.4622,W,000.0,355.7,220819,017.7,E*60
01DDB0,02258D,00C52A,$GPRMC,020717,A,5442.9322,N,11318.4622,W,000.0,355.7,220819,017.7,E*67
01DDB1,02258D,00C52A,$GPRMC,020718,A,5442.9320,N,11318.4621,W,000.0,355.7,220819,017.7,E*69
01DDB3,022591,00C52D,$GPRMC,020719,A,5442.9319,N,11318.4620,W,000.0,355.7,220819,017.7,E*63
01DDB4,022592,00C52D,$GPRMC,020720,A,5442.9319,N,11318.4619,W,000.0,355.7,220819,017.7,E*63
01DDAF,02258B,00C52A,$GPRMC,020721,A,5442.9318,N,11318.4617,W,000.0,355.7,220819,017.7,E*6D
01DDB2,022590,00C52C,$GPRMC,020722,A,5442.9318,N,11318.4616,W,000.0,355.7,220819,017.7,E*6F
01DDB0,02258D,00C52B,$GPRMC,020723,A,5442.9319,N,11318.4616,W,000.0,355.7,220819,017.7,E*6F
01DDB2,022590,00C52C,$GPRMC,020724,A,5442.9319,N,11318.4615,W,000.0,355.7,220819,017.7,E*6B
01DDB4,022592,00C52D,$GPRMC,020725,A,5442.9320,N,11318.4614,W,000.0,355.7,220819,017.7,E*61
01DDB1,02258E,00C52B,$GPRMC,020726,A,5442.9321,N,11318.4613,W,000.0,355.7,220819,017.7,E*64
01DDB0,02258F,00C52B,$GPRMC,020727,A,5442.9321,N,11318.4612,W,000.0,355.7,220819,017.7,E*64
01DDB4,022593,00C52D,$GPRMC,020728,A,5442.9321,N,11318.4611,W,000.0,355.7,220819,017.7,E*68
01DDB0,02258E,00C52B,$GPRMC,020729,A,5442.9321,N,11318.4610,W,000.0,355.7,220819,017.7,E*68
01DDB1,022590,00C52B,$GPRMC,020730,A,5442.9321,N,11318.4609,W,000.0,355.7,220819,017.7,E*68
01DDB5,022597,00C52E,$GPRMC,020731,A,5442.9321,N,11318.4608,W,000.0,355.7,220819,017.7,E*68
01DDB0,02258E,00C52A,$GPRMC,020732,A,5442.9322,N,11318.4607,W,000.0,355.7,220819,017.7,E*67
01DDB1,022591,00C52B,$GPRMC,020733,A,5442.9322,N,11318.4605,W,000.0,355.7,220819,017.7,E*64
01DDB3,022593,00C52C,$GPRMC,020734,A,5442.9323,N,11318.4604,W,000.0,355.7,220819,017.7,E*63
01DDB2,022593,00C52B,$GPRMC,020735,A,5442.9325,N,11318.4602,W,000.0,355.7,220819,017.7,E*62
01DDAF,02258D,00C529,$GPRMC,020736,A,5442.9326,N,11318.4600,W,000.0,355.7,220819,017.7,E*60
01DDB3,022593,00C52C,$GPRMC,020737,A,5442.9327,N,11318.4599,W,000.0,355.7,220819,017.7,E*63
01DDB1,022590,00C52B,$GPRMC,020738,A,5442.9328,N,11318.4597,W,000.0,355.7,220819,017.7,E*6D
01DDB1,022591,00C52A,$GPRMC,020739,A,5442.9329,N,11318.4596,W,000.0,355.7,220819,017.7,E*6C
01DDB4,022597,00C52C,$GPRMC,020740,A,5442.9329,N,11318.4594,W,000.0,355.7,220819,017.7,E*60
01DDB1,022593,00C52A,$GPRMC,020741,A,5442.9330,N,11318.4593,W,000.0,355.7,220819,017.7,E*6E
01DDAC,02258C,00C528,$GPRMC,020742,A,5442.9332,N,11318.4592,W,000.0,355.7,220819,017.7,E*6E
01DDAF,022590,00C52A,$GPRMC,020743,A,5442.9333,N,11318.4591,W,000.0,355.7,220819,017.7,E*6D
01DDB3,022596,00C52C,$GPRMC,020744,A,5442.9335,N,11318.4591,W,000.0,355.7,220819,017.7,E*6C
01DDB2,022595,00C52C,$GPRMC,020745,A,5442.9336,N,11318.4591,W,000.0,355.7,220819,017.7,E*6E
01DDB2,022595,00C52B,$GPRMC,020746,A,5442.9338,N,11318.4591,W,000.0,355.7,220819,017.7,E*63
01DDAD,02258D,00C528,$GPRMC,020747,A,5442.9339,N,11318.4591,W,000.0,355.7,220819,017.7,E*63
01DDAC,02258D,00C528,$GPRMC,020748,A,5442.9340,N,11318.4592,W,000.0,355.7,220819,017.7,E*61
01DDB0,022592,00C52A,$GPRMC,020749,A,5442.9340,N,11318.4593,W,000.0,355.7,220819,017.7,E*61
01DDAF,022591,00C52A,$GPRMC,020750,A,5442.9342,N,11318.4594,W,000.0,355.7,220819,017.7,E*6C
01DDB2,022594,00C52B,$GPRMC,020751,A,5442.9344,N,11318.4595,W,000.0,355.7,220819,017.7,E*6A
01DDAF,022590,00C52A,$GPRMC,020752,A,5442.9345,N,11318.4596,W,000.0,355.7,220819,017.7,E*6B
01DDAE,02258F,00C529,$GPRMC,020753,A,5442.9347,N,11318.4597,W,000.0,355.7,220819,017.7,E*69
01DDAD,02258D,00C529,$GPRMC,020754,A,5442.9348,N,11318.4598,W,000.0,355.7,220819,017.7,E*6E
01DDAC,02258C,00C528,$GPRMC,020755,A,5442.9350,N,11318.4599,W,000.0,355.7,220819,017.7,E*67
01DDB5,022598,00C52D,$GPRMC,020756,A,5442.9351,N,11318.4599,W,000.0,355.7,220819,017.7,E*65
01DDB1,022592,00C52B,$GPRMC,020757,A,5442.9354,N,11318.4600,W,000.0,355.7,220819,017.7,E*62
01DDB0,022590,00C52A,$GPRMC,020758,A,5442.9356,N,11318.4600,W,000.0,355.7,220819,017.7,E*6F
01DDB2,022593,00C52C,$GPRMC,020759,A,5442.9359,N,11318.4601,W,000.0,355.7,220819,017.7,E*60
01DDB3,022594,00C52C,$GPRMC,020800,A,5442.9361,N,11318.4602,W,000.0,355.7,220819,017.7,E*6B
01DDB5,022597,00C52E,$GPRMC,020801,A,5442.9364,N,11318.4602,W,000.0,355.7,220819,017.7,E*6F
01DDB3,022593,00C52D,$GPRMC,020802,A,5442.9366,N,11318.4602,W,000.0,355.7,220819,017.7,E*6E
01DDB0,02258F,00C52B,$GPRMC,020803,A,5442.9367,N,11318.4602,W,000.0,355.7,220819,017.7,E*6E
01DDAF,02258E,00C52B,$GPRMC,020804,A,5442.9369,N,11318.4603,W,000.0,355.7,220819,017.7,E*66
01DDB2,022592,00C52C,$GPRMC,020805,A,5442.9371,N,11318.4603,W,000.0,355.7,220819,017.7,E*6E
01DDB2,022590,00C52C,$GPRMC,020806,A,5442.9372,N,11318.4603,W,000.0,355.7,220819,017.7,E*6E
01DDB2,022591,00C52D,$GPRMC,020807,A,5442.9375,N,11318.4604,W,000.0,355.7,220819,017.7,E*6F
01DDB2,022590,00C52C,$GPRMC,020808,A,5442.9376,N,11318.4604,W,000.0,355.7,220819,017.7,E*63
01DDB0,02258D,00C52B,$GPRMC,020809,A,5442.9376,N,11318.4604,W,000.0,355.7,220819,017.7,E*62
01DDB1,022590,00C52C,$GPRMC,020810,A,5442.9377,N,11318.4605,W,000.0,355.7,220819,017.7,E*6A
01DDB1,022591,00C52C,$GPRMC,020811,A,5442.9378,N,11318.4605,W,000.0,355.7,220819,017.7,E*64
01DDB4,022594,00C52D,$GPRMC,020812,A,5442.9380,N,11318.4606,W,000.0,355.7,220819,017.7,E*63
01DDB1,022590,00C52C,$GPRMC,020813,A,5442.9381,N,11318.4606,W,000.0,355.7,220819,017.7,E*63
01DDB3,022593,00C52D,$GPRMC,020814,A,5442.9382,N,11318.4607,W,000.0,355.7,220819,017.7,E*66
01DDB3,022593,00C52D,$GPRMC,020815,A,5442.9383,N,11318.4607,W,000.0,355.7,220819,017.7,E*66
01DDB2,022592,00C52C,$GPRMC,020816,A,5442.9383,N,11318.4607,W,000.0,355.7,220819,017.7,E*65
01DDB2,022593,00C52D,$GPRMC,020817,A,5442.9383,N,11318.4607,W,000.0,355.7,220819,017.7,E*64
01DDB1,022591,00C52C,$GPRMC,020818,A,5442.9383,N,11318.4607,W,000.0,355.7,220819,017.7,E*6B
01DDB0,022590,00C52B,$GPRMC,020819,A,5442.9382,N,11318.4607,W,000.0,355.7,220819,017.7,E*6B
01DDB0,022590,00C52C,$GPRMC,020820,A,5442.9382,N,11318.4608,W,000.0,355.7,220819,017.7,E*6E
01DDB1,022592,00C52D,$GPRMC,020821,A,5442.9382,N,11318.4608,W,000.0,355.7,220819,017.7,E*6F
01DDB1,022593,00C52D,$GPRMC,020822,A,5442.9382,N,11318.4608,W,000.0,355.7,220819,017.7,E*6C
01DDB3,022595,00C52E,$GPRMC,020823,A,5442.9382,N,11318.4608,W,000.0,355.7,220819,017.7,E*6D
01DDB0,022591,00C52C,$GPRMC,020824,A,5442.9382,N,11318.4608,W,000.0,355.7,220819,017.7,E*6A
01DDB0,022591,00C52D,$GPRMC,020825,A,5442.9383,N,11318.4609,W,000.0,355.7,220819,017.7,E*6B
01DDB2,022594,00C52D,$GPRMC,020826,A,5442.9383,N,11318.4609,W,000.0,355.7,220819,017.7,E*68
01DDB0,022590,00C52B,$GPRMC,020827,A,5442.9383,N,11318.4610,W,000.0,355.7,220819,017.7,E*61
01DDB3,022596,00C52E,$GPRMC,020828,A,5442.9383,N,11318.4611,W,000.0,355.7,220819,017.7,E*6F
01DDB0,022591,00C52D,$GPRMC,020829,A,5442.9383,N,11318.4611,W,000.0,355.7,220819,017.7,E*6E
01DDB0,022591,00C52D,$GPRMC,020830,A,5442.9384,N,11318.4612,W,000.0,355.7,220819,017.7,E*62
01DDAF,022590,00C52C,$GPRMC,020831,A,5442.9385,N,11318.4613,W,000.0,355.7,220819,017.7,E*63
01DDAF,022591,00C52C,$GPRMC,020832,A,5442.9385,N,11318.4615,W,000.0,355.7,220819,017.7,E*66
01DDB0,022592,00C52D,$GPRMC,020833,A,5442.9386,N,11318.4616,W,000.0,355.7,220819,017.7,E*67
01DDAC,02258C,00C52A,$GPRMC,020834,A,5442.9386,N,11318.4617,W,000.0,355.7,220819,017.7,E*61
01DDAE,02258E,00C52B,$GPRMC,020835,A,5442.9387,N,11318.4619,W,000.0,355.7,220819,017.7,E*6F
01DDB0,022592,00C52E,$GPRMC,020836,A,5442.9387,N,11318.4620,W,000.0,355.7,220819,017.7,E*66
01DDAE,02258F,00C52C,$GPRMC,020837,A,5442.9386,N,11318.4622,W,000.0,355.7,220819,017.7,E*64
01DDB2,022594,00C52B,$GPRMC,020838,A,5442.9385,N,11318.4624,W,000.0,355.7,220819,017.7,E*6E
01DDAF,022591,00C528,$GPRMC,020839,A,5442.9385,N,11318.4626,W,000.0,355.7,220819,017.7,E*6D
01DDAD,02258E,00C52A,$GPRMC,020840,A,5442.9386,N,11318.4628,W,000.0,355.7,220819,017.7,E*6E
01DDAC,02258D,00C52B,$GPRMC,020841,A,5442.9387,N,11318.4630,W,000.0,355.7,220819,017.7,E*67
01DDAE,02258F,00C52C,$GPRMC,020842,A,5442.9388,N,11318.4631,W,000.0,355.7,220819,017.7,E*6A
01DDAC,02258B,00C52B,$GPRMC,020843,A,5442.9389,N,11318.4632,W,000.0,355.7,220819,017.7,E*69
01DDA9,022589,00C52A,$GPRMC,020844,A,5442.9389,N,11318.4633,W,000.0,355.7,220819,017.7,E*6F
01DDAD,02258E,00C52D,$GPRMC,020845,A,5442.9390,N,11318.4633,W,000.0,355.7,220819,017.7,E*66
01DDAD,02258E,00C52C,$GPRMC,020846,A,5442.9391,N,11318.4633,W,000.0,355.7,220819,017.7,E*64
01DDAE,022590,00C52D,$GPRMC,020847,A,5442.9392,N,11318.4633,W,000.0,355.7,220819,017.7,E*66
01DDA9,022588,00C52A,$GPRMC,020848,A,5442.9393,N,11318.4633,W,000.0,355.7,220819,017.7,E*68
01DDAB,02258B,00C52B,$GPRMC,020849,A,5442.9394,N,11318.4633,W,000.0,355.7,220819,017.7,E*6E
01DDAC,02258C,00C52B,$GPRMC,020850,A,5442.9396,N,11318.4633,W,000.0,355.7,220819,017.7,E*64
01DDAE,022590,00C52D,$GPRMC,020851,A,5442.9399,N,11318.4633,W,000.0,355.7,220819,017.7,E*6A
01DDAA,02258A,00C52B,$GPRMC,020852,A,5442.9401,N,11318.4634,W,000.0,355.7,220819,017.7,E*68
01DDA9,022587,00C52A,$GPRMC,020853,A,5442.9403,N,11318.4633,W,000.0,355.7,220819,017.7,E*6C
01DDAB,02258B,00C52C,$GPRMC,020854,A,5442.9404,N,11318.4633,W,000.0,355.7,220819,017.7,E*6C
01DDA9,022589,00C52A,$GPRMC,020855,A,5442.9404,N,11318.4632,W,000.0,355.7,220819,017.7,E*6C
01DDAA,022588,00C52A,$GPRMC,020856,A,5442.9404,N,11318.4632,W,000.0,355.7,220819,017.7,E*6F
01DDAB,022589,00C52A,$GPRMC,020857,A,5442.9403,N,11318.4632,W,000.0,355.7,220819,017.7,E*69
01DDA9,022587,00C52A,$GPRMC,020858,A,5442.9402,N,11318.4633,W,000.0,355.7,220819,017.7,E*66
01DDAA,022589,00C52B,$GPRMC,020859,A,5442.9402,N,11318.4633,W,000.0,355.7,220819,017.7,E*67
01DDAE,022590,00C52E,$GPRMC,020900,A,5442.9402,N,11318.4632,W,000.0,355.7,220819,017.7,E*6B
01DDAF,022590,00C52E,$GPRMC,020901,A,5442.9402,N,11318.4632,W,000.0,355.7,220819,017.7,E*6A
01DDAD,02258D,00C52D,$GPRMC,020902,A,5442.9402,N,11318.4632,W,000.0,355.7,220819,017.7,E*69
01DDAA,02258A,00C52B,$GPRMC,020903,A,5442.9402,N,11318.4632,W,000.0,355.7,220819,017.7,E*68
01DDB0,022591,00C52E,$GPRMC,020904,A,5442.9402,N,11318.4632,W,000.0,355.7,220819,017.7,E*6F
01DDB0,022590,00C52F,$GPRMC,020905,A,5442.9401,N,11318.4631,W,000.0,355.7,220819,017.7,E*6E
01DDAC,02258D,00C52D,$GPRMC,020906,A,5442.9399,N,11318.4631,W,000.0,355.7,220819,017.7,E*6B
01DDA9,022587,00C52B,$GPRMC,020907,A,5442.9399,N,11318.4631,W,000.0,355.7,220819,017.7,E*6A
01DDAA,022589,00C52C,$GPRMC,020908,A,5442.9399,N,11318.4632,W,000.0,355.7,220819,017.7,E*66
01DDAD,02258E,00C52E,$GPRMC,020909,A,5442.9398,N,11318.4632,W,000.0,355.7,220819,017.7,E*66
01DDAF,022591,00C52F,$GPRMC,020910,A,5442.9398,N,11318.4633,W,000.0,355.7,220819,017.7,E*6F
01DDAD,02258E,00C52E,$GPRMC,020911,A,5442.9397,N,11318.4633,W,000.0,355.7,220819,017.7,E*61
01DDAE,02258F,00C52E,$GPRMC,020912,A,5442.9396,N,11318.4633,W,000.0,355.7,220819,017.7,E*63
01DDAE,022590,00C52F,$GPRMC,020913,A,5442.9396,N,11318.4634,W,000.0,355.7,220819,017.7,E*65
01DDAC,02258D,00C52E,$GPRMC,020914,A,5442.9395,N,11318.4634,W,000.0,355.7,220819,017.7,E*61
01DDAD,02258E,00C52E,$GPRMC,020915,A,5442.9395,N,11318.4634,W,000.0,355.7,220819,017.7,E*60
01DDAF,022591,00C52F,$GPRMC,020916,A,5442.9394,N,11318.4635,W,000.0,355.7,220819,017.7,E*63
01DDAB,02258D,00C52D,$GPRMC,020917,A,5442.9393,N,11318.4635,W,000.0,355.7,220819,017.7,E*65
01DDAA,022589,00C52C,$GPRMC,020918,A,5442.9393,N,11318.4636,W,000.0,355.7,220819,017.7,E*69
01DDA8,022587,00C52B,$GPRMC,020919,A,5442.9391,N,11318.4637,W,000.0,355.7,220819,017.7,E*6B
01DDA7,022587,00C52B,$GPRMC,020920,A,5442.9390,N,11318.4638,W,000.0,355.7,220819,017.7,E*6F
01DDA7,022585,00C52A,$GPRMC,020921,A,5442.9390,N,11318.4639,W,000.0,355.7,220819,017.7,E*6F
01DDAA,02258A,00C52B,$GPRMC,020922,A,5442.9390,N,11318.4640,W,000.0,355.7,220819,017.7,E*62
01DDAA,02258A,00C52B,$GPRMC,020923,A,5442.9389,N,11318.4641,W,000.0,355.7,220819,017.7,E*6A
01DDAB,02258B,00C52C,$GPRMC,020924,A,5442.9389,N,11318.4643,W,000.0,355.7,220819,017.7,E*6F
01DDAC,02258D,00C52D,$GPRMC,020925,A,5442.9389,N,11318.4644,W,000.0,355.7,220819,017.7,E*69
01DDAD,022590,00C52F,$GPRMC,020926,A,5442.9389,N,11318.4646,W,000.0,355.7,220819,017.7,E*68
01DDAF,022592,00C52F,$GPRMC,020927,A,5442.9389,N,11318.4648,W,000.0,355.7,220819,017.7,E*67
01DDAA,02258C,00C52C,$GPRMC,020928,A,5442.9390,N,11318.4650,W,000.0,355.7,220819,017.7,E*69
01DDAB,02258B,00C52C,$GPRMC,020929,A,5442.9390,N,11318.4652,W,000.0,355.7,220819,017.7,E*6A
01DDAD,02258F,00C52E,$GPRMC,020930,A,5442.9390,N,11318.4654,W,000.0,355.7,220819,017.7,E*64
01DDA7,022585,00C52A,$GPRMC,020931,A,5442.9390,N,11318.4655,W,000.0,355.7,220819,017.7,E*64
01DDAD,022590,00C52E,$GPRMC,020932,A,5442.9390,N,11318.4658,W,000.0,355.7,220819,017.7,E*6A
01DDAE,022590,00C52D,$GPRMC,020933,A,5442.9391,N,11318.4660,W,000.0,355.7,220819,017.7,E*61
01DDAD,02258F,00C52D,$GPRMC,020934,A,5442.9391,N,11318.4661,W,000.0,355.7,220819,017.7,E*67
01DDAB,02258B,00C52C,$GPRMC,020935,A,5442.9391,N,11318.4663,W,000.0,355.7,220819,017.7,E*64
01DDAD,02258E,00C52D,$GPRMC,020936,A,5442.9393,N,11318.4664,W,000.0,355.7,220819,017.7,E*62
01DDAB,02258C,00C52C,$GPRMC,020937,A,5442.9394,N,11318.4665,W,000.0,355.7,220819,017.7,E*65
01DDAB,02258B,00C52B,$GPRMC,020938,A,5442.9395,N,11318.4666,W,000.0,355.7,220819,017.7,E*68
01DDAC,02258C,00C52C,$GPRMC,020939,A,5442.9396,N,11318.4667,W,000.0,355.7,220819,017.7,E*6B
01DDAB,02258C,00C52C,$GPRMC,020940,A,5442.9398,N,11318.4668,W,000.0,355.7,220819,017.7,E*64
01DDAA,022589,00C52B,$GPRMC,020941,A,5442.9399,N,11318.4668,W,000.0,355.7,220819,017.7,E*64
01DDAB,02258A,00C52B,$GPRMC,020942,A,5442.9400,N,11318.4668,W,000.0,355.7,220819,017.7,E*60
01DDAC,02258B,00C52B,$GPRMC,020943,A,5442.9402,N,11318.4669,W,000.0,355.7,220819,017.7,E*62
01DDAB,02258A,00C52B,$GPRMC,020944,A,5442.9402,N,11318.4669,W,000.0,355.7,220819,017.7,E*65
01DDAF,02258F,00C52E,$GPRMC,020945,A,5442.9403,N,11318.4669,W,000.0,355.7,220819,017.7,E*65
01DDAD,02258B,00C52C,$GPRMC,020946,A,5442.9402,N,11318.4668,W,000.0,355.7,220819,017.7,E*66
01DDAF,022590,00C52D,$GPRMC,020947,A,5442.9403,N,11318.4667,W,000.0,355.7,220819,017.7,E*69
01DDAD,02258C,00C52C,$GPRMC,020948,A,5442.9404,N,11318.4665,W,000.0,355.7,220819,017.7,E*63
01DDB0,022590,00C52D,$GPRMC,020949,A,5442.9406,N,11318.4664,W,000.0,355.7,220819,017.7,E*61
01DDAE,02258E,00C52D,$GPRMC,020950,A,5442.9408,N,11318.4660,W,000.0,355.7,220819,017.7,E*63
01DDAC,02258A,00C52C,$GPRMC,020951,A,5442.9409,N,11318.4659,W,000.0,355.7,220819,017.7,E*69
01DDB1,022590,00C52F,$GPRMC,020952,A,5442.9410,N,11318.4658,W,000.0,355.7,220819,017.7,E*63
01DDB1,022590,00C52F,$GPRMC,020953,A,5442.9411,N,11318.4656,W,000.0,355.7,220819,017.7,E*6D
01DDAF,02258E,00C52D,$GPRMC,020954,A,5442.9412,N,11318.4654,W,000.0,355.7,220819,017.7,E*6B
01DDB0,02258D,00C52D,$GPRMC,020955,A,5442.9412,N,11318.4653,W,000.0,355.7,220819,017.7,E*6D
01DDAE,02258D,00C52D,$GPRMC,020956,A,5442.9413,N,11318.4651,W,000.0,355.7,220819,017.7,E*6D
01DDAF,02258C,00C52D,$GPRMC,020957,A,5442.9413,N,11318.4649,W,000.0,355.7,220819,017.7,E*65
01DDAE,02258D,00C52D,$GPRMC,020958,A,5442.9414,N,11318.4647,W,000.0,355.7,220819,017.7,E*63
01DDAC,022589,00C52C,$GPRMC,020959,A,5442.9414,N,11318.4645,W,000.0,355.7,220819,017.7,E*60
01DDAC,022588,00C52B,$GPRMC,021000,A,5442.9414,N,11318.4644,W,000.0,355.7,220819,017.7,E*65
01DDB0,02258E,00C52D,$GPRMC,021001,A,5442.9413,N,11318.4643,W,000.0,355.7,220819,017.7,E*64
01DDAD,02258B,00C52C,$GPRMC,021002,A,5442.9413,N,11318.4642,W,000.0,355.7,220819,017.7,E*66
01DDB0,02258E,00C52E,$GPRMC,021003,A,5442.9412,N,11318.4642,W,000.0,355.7,220819,017.7,E*66
01DDAD,02258A,00C52C,$GPRMC,021004,A,5442.9411,N,11318.4641,W,000.0,355.7,220819,017.7,E*61
01DDB1,022590,00C52E,$GPRMC,021005,A,5442.9411,N,11318.4641,W,000.0,355.7,220819,017.7,E*60
01DDAF,02258E,00C52E,$GPRMC,021006,A,5442.9410,N,11318.4642,W,000.0,355.7,220819,017.7,E*61
01DDAE,02258D,00C52D,$GPRMC,021007,A,5442.9409,N,11318.4642,W,000.0,355.7,220819,017.7,E*68
01DDAC,02258A,00C52B,$GPRMC,021008,A,5442.9409,N,11318.4643,W,000.0,355.7,220819,017.7,E*66
01DDAE,02258D,00C52C,$GPRMC,021009,A,5442.9408,N,11318.4643,W,000.0,355.7,220819,017.7,E*66
01DDAF,022590,00C52D,$GPRMC,021010,A,5442.9408,N,11318.4644,W,000.0,355.7,220819,017.7,E*69
01DDAE,02258D,00C52C,$GPRMC,021011,A,5442.9407,N,11318.4644,W,000.0,355.7,220819,017.7,E*67
01DDAE,02258F,00C52C,$GPRMC,021012,A,5442.9408,N,11318.4643,W,000.0,355.7,220819,017.7,E*6C
01DDAF,022591,00C52E,$GPRMC,021013,A,5442.9409,N,11318.4644,W,000.0,355.7,220819,017.7,E*6B
01DDAB,02258B,00C52A,$GPRMC,021014,A,5442.9409,N,11318.4645,W,000.0,355.7,220819,017.7,E*6D
01DDA9,02258A,00C529,$GPRMC,021015,A,5442.9409,N,11318.4646,W,000.0,355.7,220819,017.7,E*6F
01DDAB,02258C,00C529,$GPRMC,021016,A,5442.9409,N,11318.4648,W,000.0,355.7,220819,017.7,E*62
01DDA5,022583,00C526,$GPRMC,021017,A,5442.9409,N,11318.4648,W,000.0,355.7,220819,017.7,E*63
01DDAC,02258F,00C52B,$GPRMC,021018,A,5442.9409,N,11318.4648,W,000.0,355.7,220819,017.7,E*6C
01DDAB,02258B,00C52A,$GPRMC,021019,A,5442.9409,N,11318.4647,W,000.0,355.7,220819,017.7,E*62
01DDAF,022593,00C52C,$GPRMC,021020,A,5442.9410,N,11318.4646,W,000.0,355.7,220819,017.7,E*61
01DDAF,022594,00C52D,$GPRMC,021021,A,5442.9411,N,11318.4646,W,000.0,355.7,220819,017.7,E*61
01DDB0,022595,00C52D,$GPRMC,021022,A,5442.9412,N,11318.4645,W,000.0,355.7,220819,017.7,E*62
01DDAD,022591,00C52B,$GPRMC,021023,A,5442.9414,N,11318.4645,W,000.0,355.7,220819,017.7,E*65
01DDB1,022596,00C52E,$GPRMC,021024,A,5442.9413,N,11318.4644,W,000.0,355.7,220819,017.7,E*64
01DDB0,022594,00C52D,$GPRMC,021025,A,5442.9413,N,11318.4643,W,000.0,355.7,220819,017.7,E*62
01DDAF,022593,00C52C,$GPRMC,021026,A,5442.9412,N,11318.4644,W,000.0,355.7,220819,017.7,E*67
01DDAF,022593,00C52C,$GPRMC,021027,A,5442.9412,N,11318.4643,W,000.0,355.7,220819,017.7,E*61
01DDAD,022590,00C52A,$GPRMC,021028,A,5442.9411,N,11318.4641,W,000.0,355.7,220819,017.7,E*6F
01DDAD,022591,00C52A,$GPRMC,021029,A,5442.9410,N,11318.4640,W,000.0,355.7,220819,017.7,E*6E
01DDAC,02258E,00C529,$GPRMC,021030,A,5442.9413,N,11318.4642,W,000.0,355.7,220819,017.7,E*67
01DDAD,022590,00C52A,$GPRMC,021031,A,5442.9413,N,11318.4643,W,000.0,355.7,220819,017.7,E*67
01DDAC,02258D,00C52A,$GPRMC,021032,A,5442.9413,N,11318.4642,W,000.0,355.7,220819,017.7,E*65
01DDB0,022595,00C52C,$GPRMC,021033,A,5442.9412,N,11318.4645,W,000.0,355.7,220819,017.7,E*62
01DDAE,022591,00C52B,$GPRMC,021034,A,5442.9411,N,11318.4648,W,000.0,355.7,220819,017.7,E*6B
01DDAF,022593,00C52C,$GPRMC,021035,A,5442.9411,N,11318.4649,W,000.0,355.7,220819,017.7,E*6B
01DDB0,022594,00C52C,$GPRMC,021036,A,5442.9411,N,11318.4650,W,000.0,355.7,220819,017.7,E*60
01DDB0,022594,00C52D,$GPRMC,021037,A,5442.9411,N,11318.4652,W,000.0,355.7,220819,017.7,E*63
01DDA9,022589,00C528,$GPRMC,021038,A,5442.9412,N,11318.4654,W,000.0,355.7,220819,017.7,E*69
01DDAD,022590,00C52B,$GPRMC,021039,A,5442.9412,N,11318.4656,W,000.0,355.7,220819,017.7,E*6A
