01DDD5,0225C3,00C4A5,$GPRMC,050000,A,5442.9509,N,11318.4443,W,001.6,022.4,220819,017.7,E*6C
01DDD4,0225C1,00C4A5,$GPRMC,050001,A,5442.9522,N,11318.4447,W,001.2,022.4,220819,017.7,E*64
01DDD3,0225BF,00C4A3,$GPRMC,050002,A,5442.9525,N,11318.4445,W,001.2,022.4,220819,017.7,E*62
01DDD5,0225C1,00C4A4,$GPRMC,050003,A,5442.9529,N,11318.4442,W,001.2,022.4,220819,017.7,E*68
01DDDC,0225CC,00C4A9,$GPRMC,050004,A,5442.9532,N,11318.4440,W,001.2,022.4,220819,017.7,E*67
01DDD8,0225C6,00C4A6,$GPRMC,050005,A,5442.9535,N,11318.4438,W,001.2,022.4,220819,017.7,E*6E
01DDD8,0225C7,00C4A7,$GPRMC,050006,A,5442.9538,N,11318.4436,W,001.2,022.4,220819,017.7,E*6E
01DDD6,0225C3,00C4A5,$GPRMC,050007,A,5442.9532,N,11318.4435,W,000.0,022.4,220819,017.7,E*65
01DDD9,0225C9,00C4A7,$GPRMC,050008,A,5442.9533,N,11318.4432,W,000.0,022.4,220819,017.7,E*6C
01DDD7,0225C5,00C4A6,$GPRMC,050009,A,5442.9533,N,11318.4430,W,000.0,022.4,220819,017.7,E*6F
01DDD9,0225C8,00C4A7,$GPRMC,050010,A,5442.9534,N,11318.4427,W,000.0,022.4,220819,017.7,E*66
01DDDA,0225C8,00C4A7,$GPRMC,050011,A,5442.9534,N,11318.4425,W,000.0,022.4,220819,017.7,E*65
01DDD8,0225C5,00C4A6,$GPRMC,050012,A,5442.9535,N,11318.4422,W,000.0,022.4,220819,017.7,E*60
01DDD9,0225C6,00C4A7,$GPRMC,050013,A,5442.9535,N,11318.4420,W,000.0,022.4,220819,017.7,E*63
01DDD8,0225C6,00C4A7,$GPRMC,050014,A,5442.9547,N,11318.4428,W,000.0,022.4,220819,017.7,E*69
01DDD3,0225BE,00C4A3,$GPRMC,050015,A,5442.9540,N,11318.4428,W,000.0,022.4,220819,017.7,E*6F
01DDD5,0225C2,00C4A5,$GPRMC,050016,A,5442.9538,N,11318.4426,W,000.0,022.4,220819,017.7,E*6D
01DDD6,0225C4,00C4A5,$GPRMC,050017,A,5442.9536,N,11318.4424,W,000.0,022.4,220819,017.7,E*60
01DDD3,0225BF,00C4A4,$GPRMC,050018,A,5442.9534,N,11318.4422,W,000.0,022.4,220819,017.7,E*6B
01DDD6,0225C4,00C4A6,$GPRMC,050019,A,5442.9532,N,11318.4420,W,000.0,022.4,220819,017.7,E*6E
01DDDA,0225C9,00C4A8,$GPRMC,050020,A,5442.9530,N,11318.4418,W,000.0,022.4,220819,017.7,E*6D
01DDDD,0225CF,00C4AA,$GPRMC,050021,A,5442.9528,N,11318.4416,W,000.0,022.4,220819,017.7,E*6B
01DDD9,0225C8,00C4A7,$GPRMC,050022,A,5442.9527,N,11318.4414,W,000.0,022.4,220819,017.7,E*65
01DDDB,0225CA,00C4A9,$GPRMC,050023,A,5442.9525,N,11318.4412,W,000.0,022.4,220819,017.7,E*60
01DDDA,0225C9,00C4A8,$GPRMC,050024,A,5442.9523,N,11318.4410,W,000.0,022.4,220819,017.7,E*63
01DDDC,0225CB,00C4A9,$GPRMC,050025,A,5442.9521,N,11318.4408,W,000.0,022.4,220819,017.7,E*69
01DDDC,0225CB,00C4A8,$GPRMC,050026,A,5442.9519,N,11318.4406,W,000.0,022.4,220819,017.7,E*6F
01DDD8,0225C6,00C4A6,$GPRMC,050027,A,5442.9517,N,11318.4404,W,000.0,022.4,220819,017.7,E*62
01DDD8,0225C6,00C4A6,$GPRMC,050028,A,5442.9515,N,11318.4402,W,000.0,022.4,220819,017.7,E*69
01DDD8,0225C6,00C4A6,$GPRMC,050029,A,5442.9516,N,11318.4407,W,000.0,022.4,220819,017.7,E*6E
01DDDA,0225C9,00C4A8,$GPRMC,050030,A,5442.9516,N,11318.4412,W,000.0,022.4,220819,017.7,E*62
01DDDC,0225CC,00C4A9,$GPRMC,050031,A,5442.9516,N,11318.4416,W,000.0,022.4,220819,017.7,E*67
01DDD7,0225C4,00C4A6,$GPRMC,050032,A,5442.9515,N,11318.4415,W,000.0,022.4,220819,017.7,E*64
01DDD9,0225C7,00C4A7,$GPRMC,050033,A,5442.9514,N,11318.4413,W,000.0,022.4,220819,017.7,E*62
01DDDB,0225CB,00C4A8,$GPRMC,050034,A,5442.9514,N,11318.4418,W,000.0,022.4,220819,017.7,E*6E
01DDD8,0225C6,00C4A7,$GPRMC,050035,A,5442.9513,N,11318.4421,W,000.0,022.4,220819,017.7,E*62
01DDDC,0225CC,00C4A9,$GPRMC,050036,A,5442.9514,N,11318.4426,W,000.0,022.4,220819,017.7,E*61
01DDDA,0225C8,00C4A7,$GPRMC,050037,A,5442.9514,N,11318.4430,W,000.0,022.4,220819,017.7,E*67
01DDDD,0225CD,00C4A9,$GPRMC,050038,A,5442.9513,N,11318.4434,W,000.0,022.4,220819,017.7,E*6B
01DDDE,0225CF,00C4AA,$GPRMC,050039,A,5442.9513,N,11318.4437,W,000.0,022.4,220819,017.7,E*69
01DDDC,0225CC,00C4A9,$GPRMC,050040,A,5442.9512,N,11318.4440,W,000.0,022.4,220819,017.7,E*66
01DDDA,0225C9,00C4A8,$GPRMC,050041,A,5442.9508,N,11318.4446,W,000.0,022.4,220819,017.7,E*6A
01DDDA,0225C9,00C4A7,$GPRMC,050042,A,5442.9504,N,11318.4451,W,000.0,022.4,220819,017.7,E*63
01DDDD,0225CD,00C4A9,$GPRMC,050043,A,5442.9504,N,11318.4451,W,000.0,022.4,220819,017.7,E*62
01DDDD,0225CD,00C4AA,$GPRMC,050044,A,5442.9508,N,11318.4455,W,000.0,022.4,220819,017.7,E*6D
01DDD8,0225C6,00C4A7,$GPRMC,050045,A,5442.9511,N,11318.4459,W,000.0,022.4,220819,017.7,E*68
01DDDB,0225CA,00C4A9,$GPRMC,050046,A,5442.9511,N,11318.4459,W,000.0,022.4,220819,017.7,E*6B
01DDD9,0225C7,00C4A7,$GPRMC,050047,A,5442.9511,N,11318.4459,W,000.0,022.4,220819,017.7,E*6A
01DDDA,0225C9,00C4A8,$GPRMC,050048,A,5442.9515,N,11318.4463,W,000.0,022.4,220819,017.7,E*68
01DDDA,0225C9,00C4A7,$GPRMC,050049,A,5442.9515,N,11318.4463,W,000.0,022.4,220819,017.7,E*69
01DDDB,0225C9,00C4A7,$GPRMC,050050,A,5442.9516,N,11318.4463,W,000.0,022.4,220819,017.7,E*62
01DDDB,0225CA,00C4A8,$GPRMC,050051,A,5442.9516,N,11318.4463,W,000.0,022.4,220819,017.7,E*63
01DDDC,0225CC,00C4A9,$GPRMC,050052,A,5442.9516,N,11318.4463,W,000.0,022.4,220819,017.7,E*60
01DDD9,0225C8,00C4A7,$GPRMC,050053,A,5442.9525,N,11318.4469,W,000.0,022.4,220819,017.7,E*6B
01DDD8,0225C6,00C4A7,$GPRMC,050054,A,5442.9526,N,11318.4469,W,000.0,022.4,220819,017.7,E*6F
01DDDC,0225CC,00C4AA,$GPRMC,050055,A,5442.9527,N,11318.4469,W,000.0,022.4,220819,017.7,E*6F
01DDDA,0225C9,00C4A8,$GPRMC,050056,A,5442.9528,N,11318.4469,W,000.0,022.4,220819,017.7,E*63
01DDD8,0225C4,00C4A6,$GPRMC,050057,A,5442.9528,N,11318.4469,W,000.0,022.4,220819,017.7,E*62
01DDDC,0225CD,00C4AA,$GPRMC,050058,A,5442.9529,N,11318.4469,W,000.0,022.4,220819,017.7,E*6C
01DDDA,0225C8,00C4A8,$GPRMC,050059,A,5442.9530,N,11318.4469,W,000.0,022.4,220819,017.7,E*65
01DDD5,0225C3,00C4A5,$GPRMC,050100,A,5442.9531,N,11318.4469,W,000.0,022.4,220819,017.7,E*69
01DDDA,0225C9,00C4A7,$GPRMC,050101,A,5442.9532,N,11318.4470,W,000.0,022.4,220819,017.7,E*63
01DDD8,0225C6,00C4A7,$GPRMC,050102,A,5442.9533,N,11318.4470,W,000.0,022.4,220819,017.7,E*61
01DDDA,0225CA,00C4A8,$GPRMC,050103,A,5442.9534,N,11318.4470,W,000.0,022.4,220819,017.7,E*67
01DDDA,0225C9,00C4A7,$GPRMC,050104,A,5442.9535,N,11318.4470,W,000.0,022.4,220819,017.7,E*61
01DDD6,0225C3,00C4A5,$GPRMC,050105,A,5442.9532,N,11318.4474,W,000.0,022.4,220819,017.7,E*63
01DDD7,0225C5,00C4A6,$GPRMC,050106,A,5442.9529,N,11318.4479,W,000.0,022.4,220819,017.7,E*67
01DDD7,0225C4,00C4A5,$GPRMC,050107,A,5442.9526,N,11318.4483,W,000.0,022.4,220819,017.7,E*6C
01DDD9,0225C7,00C4A7,$GPRMC,050108,A,5442.9521,N,11318.4488,W,000.0,022.4,220819,017.7,E*6F
01DDDC,0225CC,00C4A9,$GPRMC,050109,A,5442.9516,N,11318.4492,W,000.0,022.4,220819,017.7,E*61
01DDD4,0225BF,00C4A4,$GPRMC,050110,A,5442.9516,N,11318.4492,W,000.0,022.4,220819,017.7,E*69
01DDDC,0225CA,00C4A8,$GPRMC,050111,A,5442.9515,N,11318.4498,W,000.0,022.4,220819,017.7,E*61
01DDDC,0225CC,00C4A8,$GPRMC,050112,A,5442.9514,N,11318.4504,W,000.0,022.4,220819,017.7,E*67
01DDD8,0225C6,00C4A6,$GPRMC,050113,A,5442.9514,N,11318.4509,W,000.0,022.4,220819,017.7,E*6B
01DDD7,0225C5,00C4A5,$GPRMC,050114,A,5442.9514,N,11318.4513,W,000.0,022.4,220819,017.7,E*67
01DDDC,0225CA,00C4A8,$GPRMC,050115,A,5442.9508,N,11318.4514,W,000.0,022.4,220819,017.7,E*6C
01DDDA,0225C8,00C4A7,$GPRMC,050116,A,5442.9508,N,11318.4514,W,000.0,022.4,220819,017.7,E*6F
01DDDB,0225C9,00C4A7,$GPRMC,050117,A,5442.9505,N,11318.4515,W,000.0,022.4,220819,017.7,E*62
01DDD8,0225C4,00C4A6,$GPRMC,050118,A,5442.9502,N,11318.4515,W,000.0,022.4,220819,017.7,E*6A
01DDDD,0225CC,00C4A9,$GPRMC,050119,A,5442.9500,N,11318.4515,W,000.0,022.4,220819,017.7,E*69
01DDD8,0225C5,00C4A5,$GPRMC,050120,A,5442.9498,N,11318.4515,W,000.0,022.4,220819,017.7,E*63
01DDD9,0225C5,00C4A6,$GPRMC,050121,A,5442.9496,N,11318.4513,W,000.0,022.4,220819,017.7,E*6A
01DDD6,0225C2,00C4A4,$GPRMC,050122,A,5442.9493,N,11318.4511,W,000.0,022.4,220819,017.7,E*6E
01DDD9,0225C6,00C4A6,$GPRMC,050123,A,5442.9490,N,11318.4509,W,000.0,022.4,220819,017.7,E*65
01DDD6,0225C1,00C4A4,$GPRMC,050124,A,5442.9487,N,11318.4506,W,000.0,022.4,220819,017.7,E*6B
01DDD3,0225BF,00C4A3,$GPRMC,050125,A,5442.9487,N,11318.4506,W,000.0,022.4,220819,017.7,E*6A
01DDD8,0225C5,00C4A6,$GPRMC,050126,A,5442.9483,N,11318.4504,W,000.0,022.4,220819,017.7,E*6F
01DDD8,0225C6,00C4A5,$GPRMC,050127,A,5442.9480,N,11318.4501,W,000.0,022.4,220819,017.7,E*68
01DDD5,0225C0,00C4A4,$GPRMC,050128,A,5442.9478,N,11318.4500,W,000.0,022.4,220819,017.7,E*61
01DDD9,0225C5,00C4A6,$GPRMC,050129,A,5442.9478,N,11318.4500,W,000.0,022.4,220819,017.7,E*60
01DDD7,0225C3,00C4A5,$GPRMC,050130,A,5442.9476,N,11318.4498,W,000.0,022.4,220819,017.7,E*66
01DDD9,0225C5,00C4A6,$GPRMC,050131,A,5442.9478,N,11318.4499,W,000.0,022.4,220819,017.7,E*68
01DDD7,0225C4,00C4A5,$GPRMC,050132,A,5442.9479,N,11318.4500,W,000.0,022.4,220819,017.7,E*6B
01DDDC,0225CB,00C4A8,$GPRMC,050133,A,5442.9481,N,11318.4501,W,000.0,022.4,220819,017.7,E*6C
01DDDD,0225CC,00C4A9,$GPRMC,050134,A,5442.9482,N,11318.4502,W,000.0,022.4,220819,017.7,E*6B
01DDDC,0225C9,00C4A7,$GPRMC,050135,A,5442.9483,N,11318.4503,W,000.0,022.4,220819,017.7,E*6A
01DDDD,0225CE,00C4A9,$GPRMC,050136,A,5442.9484,N,11318.4504,W,000.0,022.4,220819,017.7,E*69
01DDDB,0225C8,00C4A8,$GPRMC,050137,A,5442.9483,N,11318.4505,W,000.0,022.4,220819,017.7,E*6E
01DDDB,0225C9,00C4A8,$GPRMC,050138,A,5442.9483,N,11318.4506,W,000.0,022.4,220819,017.7,E*62
01DDDA,0225C7,00C4A7,$GPRMC,050139,A,5442.9481,N,11318.4506,W,000.0,022.4,220819,017.7,E*61
01DDD9,0225C6,00C4A6,$GPRMC,050140,A,5442.9481,N,11318.4506,W,000.0,022.4,220819,017.7,E*6F
01DDDA,0225C7,00C4A7,$GPRMC,050141,A,5442.9479,N,11318.4506,W,000.0,022.4,220819,017.7,E*69
01DDDA,0225C7,00C4A7,$GPRMC,050142,A,5442.9476,N,11318.4505,W,000.0,022.4,220819,017.7,E*66
01DDDC,0225CA,00C4A7,$GPRMC,050143,A,5442.9473,N,11318.4505,W,000.0,022.4,220819,017.7,E*62
01DDDF,0225CE,00C4AA,$GPRMC,050144,A,5442.9471,N,11318.4504,W,000.0,022.4,220819,017.7,E*66
01DDD8,0225C5,00C4A5,$GPRMC,050145,A,5442.9471,N,11318.4504,W,000.0,022.4,220819,017.7,E*67
01DDDF,0225CF,00C4AA,$GPRMC,050146,A,5442.9472,N,11318.4504,W,000.0,022.4,220819,017.7,E*67
01DDD9,0225C5,00C4A6,$GPRMC,050147,A,5442.9469,N,11318.4504,W,000.0,022.4,220819,017.7,E*6C
01DDDD,0225CD,00C4A9,$GPRMC,050148,A,5442.9473,N,11318.4505,W,000.0,022.4,220819,017.7,E*69
01DDDC,0225C9,00C4A8,$GPRMC,050149,A,5442.9479,N,11318.4505,W,000.0,022.4,220819,017.7,E*62
01DDDB,0225C9,00C4A7,$GPRMC,050150,A,5442.9482,N,11318.4508,W,000.0,022.4,220819,017.7,E*63
01DDD8,0225C4,00C4A5,$GPRMC,050151,A,5442.9487,N,11318.4510,W,000.0,022.4,220819,017.7,E*6E
01DDD9,0225C6,00C4A6,$GPRMC,050152,A,5442.9492,N,11318.4511,W,000.0,022.4,220819,017.7,E*68
01DDD9,0225C5,00C4A6,$GPRMC,050153,A,5442.9492,N,11318.4511,W,000.0,022.4,220819,017.7,E*69
01DDDD,0225CA,00C4A7,$GPRMC,050154,A,5442.9494,N,11318.4513,W,000.0,022.4,220819,017.7,E*6A
01DDD8,0225C4,00C4A5,$GPRMC,050155,A,5442.9496,N,11318.4515,W,000.0,022.4,220819,017.7,E*6F
01DDDB,0225C7,00C4A7,$GPRMC,050156,A,5442.9497,N,11318.4518,W,000.0,022.4,220819,017.7,E*60
01DDDB,0225C8,00C4A7,$GPRMC,050157,A,5442.9497,N,11318.4520,W,000.0,022.4,220819,017.7,E*6A
01DDDA,0225C6,00C4A6,$GPRMC,050158,A,5442.9497,N,11318.4521,W,000.0,022.4,220819,017.7,E*64
01DDDA,0225C7,00C4A6,$GPRMC,050159,A,5442.9495,N,11318.4523,W,000.0,022.4,220819,017.7,E*65
01DDD9,0225C4,00C4A5,$GPRMC,050200,A,5442.9494,N,11318.4525,W,000.0,022.4,220819,017.7,E*6D
01DDDC,0225C7,00C4A6,$GPRMC,050201,A,5442.9494,N,11318.4526,W,000.0,022.4,220819,017.7,E*6F
01DDD8,0225C4,00C4A4,$GPRMC,050202,A,5442.9493,N,11318.4528,W,000.0,022.4,220819,017.7,E*65
01DDDB,0225C7,00C4A6,$GPRMC,050203,A,5442.9491,N,11318.4529,W,000.0,022.4,220819,017.7,E*67
01DDD9,0225C4,00C4A6,$GPRMC,050204,A,5442.9490,N,11318.4530,W,000.0,022.4,220819,017.7,E*69
01DDD5,0225BF,00C4A3,$GPRMC,050205,A,5442.9489,N,11318.4531,W,000.0,022.4,220819,017.7,E*61
01DDDB,0225C6,00C4A6,$GPRMC,050206,A,5442.9490,N,11318.4532,W,000.0,022.4,220819,017.7,E*69
01DDD9,0225C4,00C4A4,$GPRMC,050207,A,5442.9490,N,11318.4532,W,000.0,022.4,220819,017.7,E*68
01DDD9,0225C4,00C4A5,$GPRMC,050208,A,5442.9490,N,11318.4533,W,000.0,022.4,220819,017.7,E*66
01DDDB,0225C5,00C4A6,$GPRMC,050209,A,5442.9489,N,11318.4533,W,000.0,022.4,220819,017.7,E*6F
01DDD9,0225C4,00C4A5,$GPRMC,050210,A,5442.9488,N,11318.4533,W,000.0,022.4,220819,017.7,E*66
01DDDA,0225C5,00C4A5,$GPRMC,050211,A,5442.9488,N,11318.4532,W,000.0,022.4,220819,017.7,E*66
01DDDC,0225C6,00C4A6,$GPRMC,050212,A,5442.9488,N,11318.4531,W,000.0,022.4,220819,017.7,E*66
01DDDA,0225C4,00C4A5,$GPRMC,050213,A,5442.9488,N,11318.4531,W,000.0,022.4,220819,017.7,E*67
01DDD8,0225C1,00C4A4,$GPRMC,050214,A,5442.9488,N,11318.4532,W,000.0,022.4,220819,017.7,E*63
01DDDB,0225C6,00C4A5,$GPRMC,050215,A,5442.9488,N,11318.4533,W,000.0,022.4,220819,017.7,E*63
01DDDC,0225C6,00C4A6,$GPRMC,050216,A,5442.9491,N,11318.4528,W,000.0,022.4,220819,017.7,E*62
01DDDA,0225C5,00C4A5,$GPRMC,050217,A,5442.9487,N,11318.4525,W,000.0,022.4,220819,017.7,E*69
01DDDB,0225C6,00C4A5,$GPRMC,050218,A,5442.9486,N,11318.4526,W,000.0,022.4,220819,017.7,E*64
01DDD9,0225C2,00C4A4,$GPRMC,050219,A,5442.9486,N,11318.4528,W,000.0,022.4,220819,017.7,E*6B
01DDD6,0225BE,00C4A3,$GPRMC,050220,A,5442.9486,N,11318.4529,W,000.0,022.4,220819,017.7,E*60
01DDD9,0225C4,00C4A6,$GPRMC,050221,A,5442.9486,N,11318.4530,W,000.0,022.4,220819,017.7,E*69
01DDDA,0225C4,00C4A5,$GPRMC,050222,A,5442.9486,N,11318.4532,W,000.0,022.4,220819,017.7,E*68
01DDD9,0225C2,00C4A4,$GPRMC,050223,A,5442.9485,N,11318.4537,W,000.0,022.4,220819,017.7,E*6F
01DDD9,0225C2,00C4A5,$GPRMC,050224,A,5442.9485,N,11318.4542,W,000.0,022.4,220819,017.7,E*6A
01DDD9,0225C3,00C4A5,$GPRMC,050225,A,5442.9483,N,11318.4546,W,000.0,022.4,220819,017.7,E*69
01DDD5,0225BC,00C4A2,$GPRMC,050226,A,5442.9482,N,11318.4550,W,000.0,022.4,220819,017.7,E*6C
01DDD7,0225BF,00C4A3,$GPRMC,050227,A,5442.9482,N,11318.4554,W,000.0,022.4,220819,017.7,E*69
01DDD7,0225BE,00C4A3,$GPRMC,050228,A,5442.9482,N,11318.4557,W,000.0,022.4,220819,017.7,E*65
01DDDD,0225C8,00C4A7,$GPRMC,050229,A,5442.9481,N,11318.4557,W,000.0,022.4,220819,017.7,E*67
01DDDC,0225C7,00C4A7,$GPRMC,050230,A,5442.9482,N,11318.4561,W,000.0,022.4,220819,017.7,E*69
01DDD8,0225C2,00C4A4,$GPRMC,050231,A,5442.9482,N,11318.4564,W,000.0,022.4,220819,017.7,E*6D
01DDD7,0225BF,00C4A3,$GPRMC,050232,A,5442.9482,N,11318.4566,W,000.0,022.4,220819,017.7,E*6C
01DDE0,0225CD,00C4A8,$GPRMC,050233,A,5442.9483,N,11318.4568,W,000.0,022.4,220819,017.7,E*62
01DDDC,0225C7,00C4A6,$GPRMC,050234,A,5442.9484,N,11318.4569,W,000.0,022.4,220819,017.7,E*63
01DDDC,0225C6,00C4A6,$GPRMC,050235,A,5442.9484,N,11318.4570,W,000.0,022.4,220819,017.7,E*6A
01DDDE,0225CA,00C4A8,$GPRMC,050236,A,5442.9485,N,11318.4570,W,000.0,022.4,220819,017.7,E*68
01DDDD,0225C8,00C4A7,$GPRMC,050237,A,5442.9485,N,11318.4571,W,000.0,022.4,220819,017.7,E*68
01DDDF,0225CB,00C4A8,$GPRMC,050238,A,5442.9486,N,11318.4573,W,000.0,022.4,220819,017.7,E*66
01DDDC,0225C6,00C4A6,$GPRMC,050239,A,5442.9487,N,11318.4576,W,000.0,022.4,220819,017.7,E*63
01DDDE,0225C9,00C4A7,$GPRMC,050240,A,5442.9487,N,11318.4578,W,000.0,022.4,220819,017.7,E*63
01DDDC,0225C6,00C4A6,$GPRMC,050241,A,5442.9486,N,11318.4579,W,000.0,022.4,220819,017.7,E*62
01DDDC,0225C5,00C4A5,$GPRMC,050242,A,5442.9487,N,11318.4577,W,000.0,022.4,220819,017.7,E*6E
01DDDD,0225C7,00C4A6,$GPRMC,050243,A,5442.9488,N,11318.4575,W,000.0,022.4,220819,017.7,E*62
01DDDC,0225C6,00C4A6,$GPRMC,050244,A,5442.9488,N,11318.4575,W,000.0,022.4,220819,017.7,E*65
01DDDC,0225C7,00C4A6,$GPRMC,050245,A,5442.9488,N,11318.4575,W,000.0,022.4,220819,017.7,E*64
01DDDC,0225C6,00C4A6,$GPRMC,050246,A,5442.9486,N,11318.4578,W,000.0,022.4,220819,017.7,E*64
01DDDE,0225CA,00C4A8,$GPRMC,050247,A,5442.9485,N,11318.4577,W,000.0,022.4,220819,017.7,E*69
01DDDF,0225CB,00C4A8,$GPRMC,050248,A,5442.9486,N,11318.4575,W,000.0,022.4,220819,017.7,E*67
01DDDD,0225C9,00C4A7,$GPRMC,050249,A,5442.9487,N,11318.4575,W,000.0,022.4,220819,017.7,E*67
01DDE0,0225CC,00C4A8,$GPRMC,050250,A,5442.9487,N,11318.4574,W,000.0,022.4,220819,017.7,E*6E
01DDDC,0225C6,00C4A5,$GPRMC,050251,A,5442.9487,N,11318.4574,W,000.0,022.4,220819,017.7,E*6F
01DDDF,0225CA,00C4A7,$GPRMC,050252,A,5442.9487,N,11318.4574,W,000.0,022.4,220819,017.7,E*6C
01DDDC,0225C6,00C4A6,$GPRMC,050253,A,5442.9487,N,11318.4574,W,000.0,022.4,220819,017.7,E*6D
01DDDB,0225C5,00C4A5,$GPRMC,050254,A,5442.9486,N,11318.4575,W,000.0,022.4,220819,017.7,E*6A
01DDDE,0225C9,00C4A7,$GPRMC,050255,A,5442.9482,N,11318.4577,W,000.0,022.4,220819,017.7,E*6D
01DDDA,0225C4,00C4A5,$GPRMC,050256,A,5442.9480,N,11318.4577,W,000.0,022.4,220819,017.7,E*6C
01DDDE,0225C9,00C4A7,$GPRMC,050257,A,5442.9476,N,11318.4580,W,000.0,022.4,220819,017.7,E*6C
01DDDD,0225C8,00C4A7,$GPRMC,050258,A,5442.9473,N,11318.4582,W,000.0,022.4,220819,017.7,E*64
01DDDE,0225C9,00C4A7,$GPRMC,050259,A,5442.9470,N,11318.4585,W,000.0,022.4,220819,017.7,E*61
01DDE1,0225CD,00C4A9,$GPRMC,050300,A,5442.9467,N,11318.4588,W,000.0,022.4,220819,017.7,E*67
01DDE0,0225CE,00C4A9,$GPRMC,050301,A,5442.9464,N,11318.4591,W,000.0,022.4,220819,017.7,E*6D
01DDDE,0225C9,00C4A7,$GPRMC,050302,A,5442.9462,N,11318.4595,W,000.0,022.4,220819,017.7,E*6C
01DDDE,0225C9,00C4A7,$GPRMC,050303,A,5442.9461,N,11318.4598,W,000.0,022.4,220819,017.7,E*63
01DDDF,0225CB,00C4A8,$GPRMC,050304,A,5442.9459,N,11318.4601,W,000.0,022.4,220819,017.7,E*6C
01DDDE,0225CA,00C4A8,$GPRMC,050305,A,5442.9457,N,11318.4604,W,000.0,022.4,220819,017.7,E*66
01DDE2,0225CF,00C4AA,$GPRMC,050306,A,5442.9456,N,11318.4607,W,000.0,022.4,220819,017.7,E*67
01DDDE,0225C9,00C4A7,$GPRMC,050307,A,5442.9455,N,11318.4609,W,000.0,022.4,220819,017.7,E*6B
01DDDF,0225CC,00C4A8,$GPRMC,050308,A,5442.9454,N,11318.4612,W,000.0,022.4,220819,017.7,E*6F
01DDDF,0225CA,00C4A7,$GPRMC,050309,A,5442.9453,N,11318.4615,W,000.0,022.4,220819,017.7,E*6E
01DDDF,0225CB,00C4A7,$GPRMC,050310,A,5442.9451,N,11318.4618,W,000.0,022.4,220819,017.7,E*69
01DDE0,0225CC,00C4A8,$GPRMC,050311,A,5442.9450,N,11318.4620,W,000.0,022.4,220819,017.7,E*62
01DDDF,0225CA,00C4A8,$GPRMC,050312,A,5442.9449,N,11318.4622,W,000.0,022.4,220819,017.7,E*6B
01DDE1,0225CD,00C4A9,$GPRMC,050313,A,5442.9447,N,11318.4624,W,000.0,022.4,220819,017.7,E*62
01DDDE,0225CA,00C4A7,$GPRMC,050314,A,5442.9446,N,11318.4626,W,000.0,022.4,220819,017.7,E*66
01DDDC,0225C7,00C4A6,$GPRMC,050315,A,5442.9444,N,11318.4627,W,000.0,022.4,220819,017.7,E*64
01DDDB,0225C5,00C4A5,$GPRMC,050316,A,5442.9443,N,11318.4627,W,000.0,022.4,220819,017.7,E*60
01DDDD,0225CA,00C4A6,$GPRMC,050317,A,5442.9441,N,11318.4630,W,000.0,022.4,220819,017.7,E*65
01DDDD,0225C7,00C4A6,$GPRMC,050318,A,5442.9439,N,11318.4633,W,000.0,022.4,220819,017.7,E*66
01DDDF,0225CB,00C4A8,$GPRMC,050319,A,5442.9437,N,11318.4635,W,000.0,022.4,220819,017.7,E*6F
01DDDE,0225CA,00C4A7,$GPRMC,050320,A,5442.9436,N,11318.4639,W,000.0,022.4,220819,017.7,E*68
01DDDF,0225CA,00C4A7,$GPRMC,050321,A,5442.9434,N,11318.4642,W,000.0,022.4,220819,017.7,E*67
01DDDF,0225CB,00C4A7,$GPRMC,050322,A,5442.9432,N,11318.4645,W,000.0,022.4,220819,017.7,E*65
01DDDE,0225CA,00C4A6,$GPRMC,050323,A,5442.9430,N,11318.4648,W,000.0,022.4,220819,017.7,E*6B
01DDDC,0225C6,00C4A5,$GPRMC,050324,A,5442.9429,N,11318.4650,W,000.0,022.4,220819,017.7,E*6D
01DDE1,0225CD,00C4A8,$GPRMC,050325,A,5442.9426,N,11318.4653,W,000.0,022.4,220819,017.7,E*60
01DDDE,0225CA,00C4A6,$GPRMC,050326,A,5442.9424,N,11318.4657,W,000.0,022.4,220819,017.7,E*65
01DDE1,0225CE,00C4A9,$GPRMC,050327,A,5442.9423,N,11318.4659,W,000.0,022.4,220819,017.7,E*6D
01DDE1,0225CE,00C4A9,$GPRMC,050328,A,5442.9421,N,11318.4661,W,000.0,022.4,220819,017.7,E*6B
01DDE3,0225D1,00C4AA,$GPRMC,050329,A,5442.9420,N,11318.4662,W,000.0,022.4,220819,017.7,E*68
01DDE2,0225CE,00C4A9,$GPRMC,050330,A,5442.9419,N,11318.4663,W,000.0,022.4,220819,017.7,E*6B
01DDDF,0225CB,00C4A7,$GPRMC,050331,A,5442.9418,N,11318.4664,W,000.0,022.4,220819,017.7,E*6C
01DDE0,0225CC,00C4A7,$GPRMC,050332,A,5442.9417,N,11318.4666,W,000.0,022.4,220819,017.7,E*62
01DDE0,0225CB,00C4A7,$GPRMC,050333,A,5442.9416,N,11318.4667,W,000.0,022.4,220819,017.7,E*63
01DDDC,0225C5,00C4A5,$GPRMC,050334,A,5442.9415,N,11318.4668,W,000.0,022.4,220819,017.7,E*68
01DDD9,0225C2,00C4A3,$GPRMC,050335,A,5442.9415,N,11318.4669,W,000.0,022.4,220819,017.7,E*68
01DDE2,0225CE,00C4A8,$GPRMC,050336,A,5442.9414,N,11318.4668,W,000.0,022.4,220819,017.7,E*6B
01DDE0,0225CC,00C4A7,$GPRMC,050337,A,5442.9414,N,11318.4666,W,000.0,022.4,220819,017.7,E*64
01DDDF,0225CA,00C4A7,$GPRMC,050338,A,5442.9414,N,11318.4663,W,000.0,022.4,220819,017.7,E*6E
01DDDE,0225C8,00C4A6,$GPRMC,050339,A,5442.9414,N,11318.4661,W,000.0,022.4,220819,017.7,E*6D
01DDDB,0225C3,00C4A3,$GPRMC,050340,A,5442.9414,N,11318.4659,W,000.0,022.4,220819,017.7,E*68
01DDE1,0225CB,00C4A7,$GPRMC,050341,A,5442.9414,N,11318.4656,W,000.0,022.4,220819,017.7,E*66
01DDDF,0225CA,00C4A7,$GPRMC,050342,A,5442.9414,N,11318.4655,W,000.0,022.4,220819,017.7,E*66
01DDE3,0225D0,00C4A9,$GPRMC,050343,A,5442.9413,N,11318.4656,W,000.0,022.4,220819,017.7,E*63
01DDE1,0225CB,00C4A7,$GPRMC,050344,A,5442.9413,N,11318.4656,W,000.0,022.4,220819,017.7,E*64
01DDE3,0225CF,00C4A9,$GPRMC,050345,A,5442.9413,N,11318.4656,W,000.0,022.4,220819,017.7,E*65
01DDE1,0225CC,00C4A7,$GPRMC,050346,A,5442.9413,N,11318.4656,W,000.0,022.4,220819,017.7,E*66
01DDE2,0225CD,00C4A8,$GPRMC,050347,A,5442.9413,N,11318.4656,W,000.0,022.4,220819,017.7,E*67
01DDE2,0225CD,00C4A9,$GPRMC,050348,A,5442.9413,N,11318.4656,W,000.0,022.4,220819,017.7,E*68
01DDDF,0225C8,00C4A6,$GPRMC,050349,A,5442.9414,N,11318.4656,W,000.0,022.4,220819,017.7,E*6E
01DDE2,0225CE,00C4A8,$GPRMC,050350,A,5442.9415,N,11318.4656,W,000.0,022.4,220819,017.7,E*67
01DDDD,0225C8,00C4A6,$GPRMC,050351,A,5442.9415,N,11318.4656,W,000.0,022.4,220819,017.7,E*66
01DDE0,0225CB,00C4A8,$GPRMC,050352,A,5442.9415,N,11318.4654,W,000.0,022.4,220819,017.7,E*67
01DDE3,0225CE,00C4A9,$GPRMC,050353,A,5442.9416,N,11318.4652,W,000.0,022.4,220819,017.7,E*63
01DDE3,0225CF,00C4A9,$GPRMC,050354,A,5442.9415,N,11318.4650,W,000.0,022.4,220819,017.7,E*65
01DDDC,0225C6,00C4A5,$GPRMC,050355,A,5442.9415,N,11318.4648,W,000.0,022.4,220819,017.7,E*6D
01DDDE,0225C7,00C4A6,$GPRMC,050356,A,5442.9415,N,11318.4646,W,000.0,022.4,220819,017.7,E*60
01DDE2,0225CD,00C4A8,$GPRMC,050357,A,5442.9414,N,11318.4644,W,000.0,022.4,220819,017.7,E*62
01DDDE,0225C6,00C4A6,$GPRMC,050358,A,5442.9414,N,11318.4643,W,000.0,022.4,220819,017.7,E*6A
01DDE3,0225CF,00C4A9,$GPRMC,050359,A,5442.9414,N,11318.4640,W,000.0,022.4,220819,017.7,E*68
01DDE0,0225CB,00C4A7,$GPRMC,050400,A,5442.9414,N,11318.4638,W,000.0,022.4,220819,017.7,E*6C
01DDE0,0225CB,00C4A7,$GPRMC,050401,A,5442.9414,N,11318.4637,W,000.0,022.4,220819,017.7,E*62
01DDDD,0225C8,00C4A6,$GPRMC,050402,A,5442.9414,N,11318.4636,W,000.0,022.4,220819,017.7,E*60
01DDE1,0225CB,00C4A9,$GPRMC,050403,A,5442.9414,N,11318.4636,W,000.0,022.4,220819,017.7,E*61
01DDDE,0225C7,00C4A6,$GPRMC,050404,A,5442.9416,N,11318.4637,W,000.0,022.4,220819,017.7,E*65
01DDDE,0225C9,00C4A7,$GPRMC,050405,A,5442.9419,N,11318.4640,W,000.0,022.4,220819,017.7,E*6B
01DDDD,0225C7,00C4A6,$GPRMC,050406,A,5442.9421,N,11318.4642,W,000.0,022.4,220819,017.7,E*61
01DDDC,0225C5,00C4A4,$GPRMC,050407,A,5442.9421,N,11318.4639,W,000.0,022.4,220819,017.7,E*6C
01DDDC,0225C5,00C4A5,$GPRMC,050408,A,5442.9423,N,11318.4644,W,000.0,022.4,220819,017.7,E*6B
01DDE2,0225CE,00C4A9,$GPRMC,050409,A,5442.9425,N,11318.4653,W,000.0,022.4,220819,017.7,E*6A
01DDDB,0225C5,00C4A5,$GPRMC,050410,A,5442.9427,N,11318.4658,W,000.0,022.4,220819,017.7,E*6B
01DDDE,0225C8,00C4A7,$GPRMC,050411,A,5442.9428,N,11318.4663,W,000.0,022.4,220819,017.7,E*6D
01DDE0,0225CC,00C4A8,$GPRMC,050412,A,5442.9430,N,11318.4669,W,000.0,022.4,220819,017.7,E*6D
01DDE4,0225D0,00C4AA,$GPRMC,050413,A,5442.9431,N,11318.4675,W,000.0,022.4,220819,017.7,E*60
01DDDF,0225C9,00C4A7,$GPRMC,050414,A,5442.9432,N,11318.4680,W,000.0,022.4,220819,017.7,E*6E
01DDE1,0225CD,00C4A9,$GPRMC,050415,A,5442.9432,N,11318.4685,W,000.0,022.4,220819,017.7,E*6A
01DDDE,0225C8,00C4A6,$GPRMC,050416,A,5442.9432,N,11318.4684,W,000.0,022.4,220819,017.7,E*68
01DDDE,0225C9,00C4A6,$GPRMC,050417,A,5442.9432,N,11318.4689,W,000.0,022.4,220819,017.7,E*64
01DDDE,0225C7,00C4A6,$GPRMC,050418,A,5442.9432,N,11318.4694,W,000.0,022.4,220819,017.7,E*67
01DDE3,0225D0,00C4A9,$GPRMC,050419,A,5442.9430,N,11318.4696,W,000.4,022.4,220819,017.7,E*62
01DDE3,0225CE,00C4A9,$GPRMC,050420,A,5442.9429,N,11318.4699,W,000.0,022.4,220819,017.7,E*6B
01DDDF,0225CA,00C4A7,$GPRMC,050421,A,5442.9428,N,11318.4702,W,000.0,022.4,220819,017.7,E*68
01DDE0,0225CB,00C4A7,$GPRMC,050422,A,5442.9427,N,11318.4706,W,000.0,022.4,220819,017.7,E*60
01DDE1,0225CC,00C4A8,$GPRMC,050423,A,5442.9427,N,11318.4709,W,000.0,022.4,220819,017.7,E*6E
01DDE1,0225CD,00C4A8,$GPRMC,050424,A,5442.9427,N,11318.4712,W,000.0,022.4,220819,017.7,E*63
01DDDD,0225C7,00C4A6,$GPRMC,050425,A,5442.9424,N,11318.4709,W,000.0,022.4,220819,017.7,E*6B
01DDE0,0225CA,00C4A8,$GPRMC,050426,A,5442.9422,N,11318.4711,W,000.0,022.4,220819,017.7,E*67
01DDE5,0225D3,00C4AA,$GPRMC,050427,A,5442.9421,N,11318.4713,W,000.0,022.4,220819,017.7,E*67
01DDE0,0225CB,00C4A7,$GPRMC,050428,A,5442.9421,N,11318.4715,W,000.0,022.4,220819,017.7,E*6E
01DDE4,0225D0,00C4A9,$GPRMC,050429,A,5442.9421,N,11318.4718,W,000.0,022.4,220819,017.7,E*62
01DDE3,0225CF,00C4A9,$GPRMC,050430,A,5442.9422,N,11318.4721,W,000.0,022.4,220819,017.7,E*63
01DDE4,0225CF,00C4AA,$GPRMC,050431,A,5442.9422,N,11318.4725,W,000.0,022.4,220819,017.7,E*66
01DDE5,0225D1,00C4AA,$GPRMC,050432,A,5442.9422,N,11318.4728,W,000.0,022.4,220819,017.7,E*68
01DDE4,0225D1,00C4AA,$GPRMC,050433,A,5442.9423,N,11318.4732,W,000.0,022.4,220819,017.7,E*63
01DDE1,0225CC,00C4A8,$GPRMC,050434,A,5442.9424,N,11318.4735,W,000.0,022.4,220819,017.7,E*64
01DDE2,0225CD,00C4A8,$GPRMC,050435,A,5442.9423,N,11318.4736,W,000.0,022.4,220819,017.7,E*61
01DDDF,0225CA,00C4A7,$GPRMC,050436,A,5442.9423,N,11318.4739,W,000.0,022.4,220819,017.7,E*6D
01DDE0,0225CB,00C4A7,$GPRMC,050437,A,5442.9421,N,11318.4734,W,000.0,022.4,220819,017.7,E*63
01DDE1,0225CC,00C4A7,$GPRMC,050438,A,5442.9421,N,11318.4733,W,000.0,022.4,220819,017.7,E*6B
01DDE3,0225CE,00C4A9,$GPRMC,050439,A,5442.9420,N,11318.4730,W,000.0,022.4,220819,017.7,E*68
01DDE3,0225CF,00C4A9,$GPRMC,050440,A,5442.9419,N,11318.4728,W,000.0,022.4,220819,017.7,E*65
01DDE1,0225CC,00C4A8,$GPRMC,050441,A,5442.9419,N,11318.4726,W,000.0,022.4,220819,017.7,E*6A
01DDE2,0225CD,00C4A8,$GPRMC,050442,A,5442.9417,N,11318.4723,W,000.0,022.4,220819,017.7,E*62
01DDE0,0225CB,00C4A8,$GPRMC,050443,A,5442.9415,N,11318.4721,W,000.0,022.4,220819,017.7,E*63
01DDE4,0225D0,00C4AA,$GPRMC,050444,A,5442.9414,N,11318.4718,W,000.0,022.4,220819,017.7,E*6F
01DDDF,0225CA,00C4A7,$GPRMC,050445,A,5442.9413,N,11318.4717,W,000.0,022.4,220819,017.7,E*66
01DDE1,0225CB,00C4A8,$GPRMC,050446,A,5442.9411,N,11318.4713,W,000.0,022.4,220819,017.7,E*63
01DDE4,0225D1,00C4AA,$GPRMC,050447,A,5442.9409,N,11318.4709,W,000.0,022.4,220819,017.7,E*60
01DDDE,0225C6,00C4A5,$GPRMC,050448,A,5442.9410,N,11318.4712,W,000.0,022.4,220819,017.7,E*6D
01DDE4,0225CE,00C4A8,$GPRMC,050449,A,5442.9410,N,11318.4713,W,000.0,022.4,220819,017.7,E*6D
01DDE7,0225D5,00C4AB,$GPRMC,050450,A,5442.9410,N,11318.4714,W,000.0,022.4,220819,017.7,E*62
01DDE2,0225CC,00C4A7,$GPRMC,050451,A,5442.9410,N,11318.4714,W,000.0,022.4,220819,017.7,E*63
01DDE3,0225CD,00C4A8,$GPRMC,050452,A,5442.9412,N,11318.4719,W,000.0,022.4,220819,017.7,E*6F
01DDE5,0225D0,00C4A9,$GPRMC,050453,A,5442.9412,N,11318.4721,W,000.0,022.4,220819,017.7,E*65
01DDE0,0225CA,00C4A7,$GPRMC,050454,A,5442.9414,N,11318.4730,W,000.0,022.4,220819,017.7,E*64
01DDDF,0225C9,00C4A6,$GPRMC,050455,A,5442.9415,N,11318.4736,W,000.0,022.4,220819,017.7,E*62
01DDE0,0225C9,00C4A6,$GPRMC,050456,A,5442.9415,N,11318.4737,W,000.0,022.4,220819,017.7,E*60
01DDDE,0225C7,00C4A6,$GPRMC,050457,A,5442.9418,N,11318.4739,W,000.0,022.4,220819,017.7,E*62
01DDE0,0225CA,00C4A7,$GPRMC,050458,A,5442.9419,N,11318.4737,W,000.0,022.4,220819,017.7,E*62
01DDE3,0225CE,00C4A9,$GPRMC,050459,A,5442.9420,N,11318.4736,W,000.0,022.4,220819,017.7,E*68
01DDE2,0225CC,00C4A8,$GPRMC,050500,A,5442.9421,N,11318.4734,W,000.0,022.4,220819,017.7,E*66
01DDE3,0225CC,00C4A8,$GPRMC,050501,A,5442.9421,N,11318.4733,W,000.0,022.4,220819,017.7,E*60
01DDE5,0225D0,00C4A9,$GPRMC,050502,A,5442.9422,N,11318.4731,W,000.0,022.4,220819,017.7,E*62
01DDE4,0225CF,00C4A8,$GPRMC,050503,A,5442.9422,N,11318.4729,W,000.0,022.4,220819,017.7,E*6A
01DDE5,0225CF,00C4A9,$GPRMC,050504,A,5442.9423,N,11318.4728,W,000.0,022.4,220819,017.7,E*6D
01DDDF,0225C7,00C4A5,$GPRMC,050505,A,5442.9424,N,11318.4732,W,000.0,022.4,220819,017.7,E*60
01DDE1,0225CC,00C4A7,$GPRMC,050506,A,5442.9425,N,11318.4733,W,000.0,022.4,220819,017.7,E*63
01DDE0,0225C8,00C4A6,$GPRMC,050507,A,5442.9426,N,11318.4731,W,000.0,022.4,220819,017.7,E*63
01DDE5,0225D1,00C4AA,$GPRMC,050508,A,5442.9426,N,11318.4729,W,000.0,022.4,220819,017.7,E*65
01DDE4,0225CE,00C4A8,$GPRMC,050509,A,5442.9427,N,11318.4728,W,000.0,022.4,220819,017.7,E*64
01DDE1,0225CA,00C4A6,$GPRMC,050510,A,5442.9426,N,11318.4727,W,000.0,022.4,220819,017.7,E*62
01DDE0,0225C9,00C4A5,$GPRMC,050511,A,5442.9426,N,11318.4726,W,000.0,022.4,220819,017.7,E*62
01DDE4,0225CD,00C4A7,$GPRMC,050512,A,5442.9425,N,11318.4727,W,000.0,022.4,220819,017.7,E*63
01DDE0,0225C7,00C4A5,$GPRMC,050513,A,5442.9425,N,11318.4728,W,000.0,022.4,220819,017.7,E*6D
01DDE2,0225CA,00C4A7,$GPRMC,050514,A,5442.9424,N,11318.4728,W,000.0,022.4,220819,017.7,E*6B
01DDE2,0225CD,00C4A8,$GPRMC,050515,A,5442.9424,N,11318.4727,W,000.0,022.4,220819,017.7,E*65
01DDE5,0225D0,00C4A9,$GPRMC,050516,A,5442.9423,N,11318.4726,W,000.0,022.4,220819,017.7,E*60
01DDE2,0225CB,00C4A7,$GPRMC,050517,A,5442.9422,N,11318.4725,W,000.0,022.4,220819,017.7,E*63
01DDE1,0225C9,00C4A6,$GPRMC,050518,A,5442.9421,N,11318.4723,W,000.0,022.4,220819,017.7,E*69
01DDE3,0225CD,00C4A8,$GPRMC,050519,A,5442.9421,N,11318.4722,W,000.0,022.4,220819,017.7,E*69
01DDE1,0225C9,00C4A6,$GPRMC,050520,A,5442.9420,N,11318.4722,W,000.0,022.4,220819,017.7,E*62
01DDE4,0225CD,00C4A7,$GPRMC,050521,A,5442.9420,N,11318.4721,W,000.0,022.4,220819,017.7,E*60
01DDE5,0225D0,00C4A9,$GPRMC,050522,A,5442.9419,N,11318.4719,W,000.0,022.4,220819,017.7,E*62
01DDE2,0225CB,00C4A7,$GPRMC,050523,A,5442.9418,N,11318.4719,W,000.0,022.4,220819,017.7,E*62
01DDE0,0225C8,00C4A6,$GPRMC,050524,A,5442.9418,N,11318.4718,W,000.0,022.4,220819,017.7,E*64
01DDE5,0225D0,00C4AA,$GPRMC,050525,A,5442.9418,N,11318.4718,W,000.0,022.4,220819,017.7,E*65
01DDE3,0225CC,00C4A8,$GPRMC,050526,A,5442.9417,N,11318.4718,W,000.0,022.4,220819,017.7,E*69
01DDE0,0225C9,00C4A6,$GPRMC,050527,A,5442.9417,N,11318.4719,W,000.0,022.4,220819,017.7,E*69
01DDE1,0225C9,00C4A6,$GPRMC,050528,A,5442.9416,N,11318.4720,W,000.0,022.4,220819,017.7,E*6D
01DDDF,0225C7,00C4A5,$GPRMC,050529,A,5442.9416,N,11318.4723,W,000.0,022.4,220819,017.7,E*6F
01DDE0,0225C8,00C4A6,$GPRMC,050530,A,5442.9416,N,11318.4725,W,000.0,022.4,220819,017.7,E*61
01DDE1,0225CA,00C4A6,$GPRMC,050531,A,5442.9416,N,11318.4728,W,000.0,022.4,220819,017.7,E*6D
01DDE1,0225C9,00C4A6,$GPRMC,050532,A,5442.9417,N,11318.4733,W,000.0,022.4,220819,017.7,E*65
01DDE3,0225CC,00C4A7,$GPRMC,050533,A,5442.9417,N,11318.4739,W,000.0,022.4,220819,017.7,E*6E
01DDE1,0225C7,00C4A5,$GPRMC,050534,A,5442.9415,N,11318.4738,W,000.0,022.4,220819,017.7,E*6A
01DDE2,0225CC,00C4A7,$GPRMC,050535,A,5442.9414,N,11318.4738,W,000.0,022.4,220819,017.7,E*6A
01DDE3,0225CB,00C4A7,$GPRMC,050536,A,5442.9413,N,11318.4738,W,000.0,022.4,220819,017.7,E*6E
01DDE0,0225C9,00C4A5,$GPRMC,050537,A,5442.9412,N,11318.4738,W,000.0,022.4,220819,017.7,E*6E
01DDE7,0225D1,00C4A9,$GPRMC,050538,A,5442.9412,N,11318.4740,W,000.0,022.4,220819,017.7,E*6E
01DDE1,0225C9,00C4A5,$GPRMC,050539,A,5442.9410,N,11318.4736,W,000.0,022.4,220819,017.7,E*6C
01DDE2,0225CB,00C4A7,$GPRMC,050540,A,5442.9411,N,11318.4739,W,000.0,022.4,220819,017.7,E*6C
01DDE4,0225CE,00C4A8,$GPRMC,050541,A,5442.9412,N,11318.4738,W,000.0,022.4,220819,017.7,E*6F
01DDE3,0225CC,00C4A7,$GPRMC,050542,A,5442.9412,N,11318.4738,W,000.0,022.4,220819,017.7,E*6C
01DDE2,0225CA,00C4A7,$GPRMC,050543,A,5442.9412,N,11318.4737,W,000.0,022.4,220819,017.7,E*62
01DDE1,0225C9,00C4A6,$GPRMC,050544,A,5442.9413,N,11318.4737,W,000.0,022.4,220819,017.7,E*64
01DDE4,0225CE,00C4A7,$GPRMC,050545,A,5442.9412,N,11318.4736,W,000.0,022.4,220819,017.7,E*65
01DDE1,0225C9,00C4A6,$GPRMC,050546,A,5442.9412,N,11318.4737,W,000.0,022.4,220819,017.7,E*67
01DDE3,0225CD,00C4A8,$GPRMC,050547,A,5442.9412,N,11318.4738,W,000.0,022.4,220819,017.7,E*69
01DDE2,0225CB,00C4A6,$GPRMC,050548,A,5442.9412,N,11318.4738,W,000.0,022.4,220819,017.7,E*66
01DDDF,0225C5,00C4A4,$GPRMC,050549,A,5442.9412,N,11318.4737,W,000.0,022.4,220819,017.7,E*68
01DDE5,0225CD,00C4A8,$GPRMC,050550,A,5442.9411,N,11318.4736,W,000.0,022.4,220819,017.7,E*62
01DDE4,0225CD,00C4A7,$GPRMC,050551,A,5442.9412,N,11318.4736,W,000.0,022.4,220819,017.7,E*60
01DDDF,0225C7,00C4A5,$GPRMC,050552,A,5442.9411,N,11318.4736,W,000.0,022.4,220819,017.7,E*60
01DDE0,0225C7,00C4A5,$GPRMC,050553,A,5442.9412,N,11318.4735,W,000.0,022.4,220819,017.7,E*61
01DDE0,0225C7,00C4A6,$GPRMC,050554,A,5442.9410,N,11318.4732,W,000.0,022.4,220819,017.7,E*63
01DDE4,0225CD,00C4A7,$GPRMC,050555,A,5442.9411,N,11318.4734,W,000.0,022.4,220819,017.7,E*65
01DDE3,0225CB,00C4A6,$GPRMC,050556,A,5442.9411,N,11318.4735,W,000.0,022.4,220819,017.7,E*67
01DDE7,0225D1,00C4A9,$GPRMC,050557,A,5442.9411,N,11318.4736,W,000.0,022.4,220819,017.7,E*65
01DDE3,0225CB,00C4A7,$GPRMC,050558,A,5442.9411,N,11318.4739,W,000.0,022.4,220819,017.7,E*65
01DDE7,0225D1,00C4A9,$GPRMC,050559,A,5442.9411,N,11318.4739,W,000.0,022.4,220819,017.7,E*64
01DDE2,0225CA,00C4A6,$GPRMC,050600,A,5442.9410,N,11318.4736,W,000.0,022.4,220819,017.7,E*65
01DDE8,0225D2,00C4AA,$GPRMC,050601,A,5442.9410,N,11318.4735,W,000.0,022.4,220819,017.7,E*67
01DDE1,0225C9,00C4A6,$GPRMC,050602,A,5442.9408,N,11318.4731,W,000.0,022.4,220819,017.7,E*69
01DDE5,0225CD,00C4A8,$GPRMC,050603,A,5442.9407,N,11318.4729,W,000.0,022.4,220819,017.7,E*6E
01DDE2,0225CB,00C4A6,$GPRMC,050604,A,5442.9406,N,11318.4725,W,000.0,022.4,220819,017.7,E*64
01DDE4,0225CC,00C4A7,$GPRMC,050605,A,5442.9404,N,11318.4721,W,000.0,022.4,220819,017.7,E*63
01DDE1,0225C8,00C4A6,$GPRMC,050606,A,5442.9403,N,11318.4715,W,000.0,022.4,220819,017.7,E*60
01DDE5,0225CE,00C4A8,$GPRMC,050607,A,5442.9402,N,11318.4710,W,000.0,022.4,220819,017.7,E*65
01DDE4,0225CD,00C4A7,$GPRMC,050608,A,5442.9401,N,11318.4706,W,000.0,022.4,220819,017.7,E*6E
01DDE4,0225CC,00C4A7,$GPRMC,050609,A,5442.9400,N,11318.4703,W,000.0,022.4,220819,017.7,E*6B
01DDE2,0225C9,00C4A5,$GPRMC,050610,A,5442.9401,N,11318.4700,W,000.0,022.4,220819,017.7,E*61
01DDE2,0225C9,00C4A6,$GPRMC,050611,A,5442.9401,N,11318.4698,W,000.0,022.4,220819,017.7,E*60
01DDE4,0225CD,00C4A7,$GPRMC,050612,A,5442.9402,N,11318.4697,W,000.0,022.4,220819,017.7,E*6F
01DDE4,0225CD,00C4A7,$GPRMC,050613,A,5442.9403,N,11318.4696,W,000.0,022.4,220819,017.7,E*6E
01DDE2,0225C9,00C4A6,$GPRMC,050614,A,5442.9403,N,11318.4695,W,000.0,022.4,220819,017.7,E*6A
01DDE1,0225C8,00C4A5,$GPRMC,050615,A,5442.9402,N,11318.4694,W,000.0,022.4,220819,017.7,E*6B
01DDE5,0225CC,00C4A7,$GPRMC,050616,A,5442.9403,N,11318.4692,W,000.0,022.4,220819,017.7,E*6F
01DDDD,0225C3,00C4A3,$GPRMC,050617,A,5442.9403,N,11318.4691,W,000.0,022.4,220819,017.7,E*6D
01DDE1,0225C8,00C4A6,$GPRMC,050618,A,5442.9402,N,11318.4692,W,000.0,022.4,220819,017.7,E*60
01DDE4,0225CC,00C4A6,$GPRMC,050619,A,5442.9403,N,11318.4692,W,000.0,022.4,220819,017.7,E*60
01DDDD,0225C2,00C4A3,$GPRMC,050620,A,5442.9403,N,11318.4693,W,000.0,022.4,220819,017.7,E*6B
01DDE4,0225CB,00C4A6,$GPRMC,050621,A,5442.9404,N,11318.4693,W,000.0,022.4,220819,017.7,E*6D
01DDE7,0225D0,00C4A8,$GPRMC,050622,A,5442.9406,N,11318.4690,W,000.0,022.4,220819,017.7,E*6F
01DDE5,0225CD,00C4A7,$GPRMC,050623,A,5442.9407,N,11318.4686,W,000.0,022.4,220819,017.7,E*68
01DDE8,0225D2,00C4A9,$GPRMC,050624,A,5442.9415,N,11318.4686,W,000.0,022.4,220819,017.7,E*6C
01DDE6,0225D0,00C4A8,$GPRMC,050625,A,5442.9420,N,11318.4686,W,000.0,022.4,220819,017.7,E*6B
01DDE3,0225C9,00C4A5,$GPRMC,050626,A,5442.9422,N,11318.4685,W,000.0,022.4,220819,017.7,E*69
01DDE5,0225CE,00C4A7,$GPRMC,050627,A,5442.9430,N,11318.4686,W,000.0,022.4,220819,017.7,E*68
01DDE6,0225CF,00C4A8,$GPRMC,050628,A,5442.9441,N,11318.4685,W,000.0,022.4,220819,017.7,E*62
01DDE6,0225CE,00C4A7,$GPRMC,050629,A,5442.9444,N,11318.4684,W,000.0,022.4,220819,017.7,E*67
01DDE2,0225C8,00C4A5,$GPRMC,050630,A,5442.9448,N,11318.4684,W,000.0,022.4,220819,017.7,E*63
01DDE6,0225CD,00C4A6,$GPRMC,050631,A,5442.9449,N,11318.4684,W,000.0,022.4,220819,017.7,E*63
01DDE8,0225D1,00C4A8,$GPRMC,050632,A,5442.9448,N,11318.4685,W,000.0,022.4,220819,017.7,E*60
01DDE3,0225C9,00C4A5,$GPRMC,050633,A,5442.9448,N,11318.4685,W,000.0,022.4,220819,017.7,E*61
01DDE9,0225D3,00C4A9,$GPRMC,050634,A,5442.9448,N,11318.4686,W,000.0,022.4,220819,017.7,E*65
01DDE8,0225D1,00C4A8,$GPRMC,050635,A,5442.9448,N,11318.4687,W,000.0,022.4,220819,017.7,E*65
01DDE7,0225CF,00C4A8,$GPRMC,050636,A,5442.9449,N,11318.4687,W,000.0,022.4,220819,017.7,E*67
01DDE9,0225D2,00C4A8,$GPRMC,050637,A,5442.9450,N,11318.4689,W,000.0,022.4,220819,017.7,E*60
01DDE6,0225CE,00C4A7,$GPRMC,050638,A,5442.9450,N,11318.4692,W,000.0,022.4,220819,017.7,E*65
01DDE2,0225C7,00C4A5,$GPRMC,050639,A,5442.9450,N,11318.4696,W,000.0,022.4,220819,017.7,E*60
01DDE7,0225CE,00C4A7,$GPRMC,050640,A,5442.9449,N,11318.4699,W,000.0,022.4,220819,017.7,E*69
01DDE5,0225CC,00C4A6,$GPRMC,050641,A,5442.9448,N,11318.4704,W,000.0,022.4,220819,017.7,E*6C
01DDE6,0225CD,00C4A7,$GPRMC,050642,A,5442.9446,N,11318.4708,W,000.0,022.4,220819,017.7,E*6D
01DDEA,0225D4,00C4AA,$GPRMC,050643,A,5442.9442,N,11318.4713,W,000.0,022.4,220819,017.7,E*62
01DDE2,0225C8,00C4A5,$GPRMC,050644,A,5442.9437,N,11318.4718,W,000.0,022.4,220819,017.7,E*6C
01DDE5,0225CC,00C4A7,$GPRMC,050645,A,5442.9433,N,11318.4723,W,000.0,022.4,220819,017.7,E*61
01DDEA,0225D2,00C4A9,$GPRMC,050646,A,5442.9433,N,11318.4723,W,000.0,022.4,220819,017.7,E*62
01DDE3,0225C9,00C4A6,$GPRMC,050647,A,5442.9432,N,11318.4724,W,000.0,022.4,220819,017.7,E*65
01DDE7,0225CE,00C4A7,$GPRMC,050648,A,5442.9430,N,11318.4727,W,000.0,022.4,220819,017.7,E*6B
01DDE1,0225C6,00C4A4,$GPRMC,050649,A,5442.9431,N,11318.4726,W,000.0,022.4,220819,017.7,E*6A
01DDE8,0225D0,00C4A9,$GPRMC,050650,A,5442.9432,N,11318.4726,W,000.0,022.4,220819,017.7,E*61
01DDE4,0225CA,00C4A5,$GPRMC,050651,A,5442.9433,N,11318.4725,W,000.0,022.4,220819,017.7,E*62
01DDEA,0225D1,00C4A9,$GPRMC,050652,A,5442.9430,N,11318.4727,W,000.0,022.4,220819,017.7,E*60
01DDE9,0225D1,00C4A9,$GPRMC,050653,A,5442.9431,N,11318.4726,W,000.0,022.4,220819,017.7,E*61
01DDE9,0225D0,00C4A9,$GPRMC,050654,A,5442.9432,N,11318.4724,W,000.0,022.4,220819,017.7,E*67
01DDEA,0225D3,00C4AA,$GPRMC,050655,A,5442.9432,N,11318.4723,W,000.0,022.4,220819,017.7,E*61
01DDE9,0225D0,00C4A9,$GPRMC,050656,A,5442.9432,N,11318.4722,W,000.0,022.4,220819,017.7,E*63
01DDE9,0225D1,00C4A9,$GPRMC,050657,A,5442.9432,N,11318.4721,W,000.0,022.4,220819,017.7,E*61
01DDE9,0225D0,00C4A9,$GPRMC,050658,A,5442.9433,N,11318.4719,W,000.0,022.4,220819,017.7,E*64
01DDEA,0225D2,00C4A9,$GPRMC,050659,A,5442.9434,N,11318.4718,W,000.0,022.4,220819,017.7,E*63
01DDE5,0225CB,00C4A6,$GPRMC,050700,A,5442.9435,N,11318.4718,W,000.0,022.4,220819,017.7,E*6F
01DDE9,0225D1,00C4A8,$GPRMC,050701,A,5442.9437,N,11318.4716,W,000.0,022.4,220819,017.7,E*62
01DDE5,0225CB,00C4A6,$GPRMC,050702,A,5442.9440,N,11318.4715,W,000.0,022.4,220819,017.7,E*62
01DDE6,0225CD,00C4A7,$GPRMC,050703,A,5442.9441,N,11318.4714,W,000.0,022.4,220819,017.7,E*63
01DDE5,0225CB,00C4A6,$GPRMC,050704,A,5442.9443,N,11318.4714,W,000.0,022.4,220819,017.7,E*66
01DDE5,0225CC,00C4A6,$GPRMC,050705,A,5442.9445,N,11318.4713,W,000.0,022.4,220819,017.7,E*66
01DDE9,0225D2,00C4A9,$GPRMC,050706,A,5442.9447,N,11318.4711,W,000.0,022.4,220819,017.7,E*65
01DDE9,0225D0,00C4A8,$GPRMC,050707,A,5442.9448,N,11318.4711,W,000.0,022.4,220819,017.7,E*6B
01DDEA,0225D2,00C4A9,$GPRMC,050708,A,5442.9449,N,11318.4710,W,000.0,022.4,220819,017.7,E*64
01DDE8,0225CF,00C4A8,$GPRMC,050709,A,5442.9451,N,11318.4709,W,000.0,022.4,220819,017.7,E*64
01DDE7,0225CC,00C4A7,$GPRMC,050710,A,5442.9452,N,11318.4708,W,000.0,022.4,220819,017.7,E*6E
01DDEA,0225D3,00C4AA,$GPRMC,050711,A,5442.9454,N,11318.4707,W,000.0,022.4,220819,017.7,E*66
01DDE8,0225D0,00C4A8,$GPRMC,050712,A,5442.9456,N,11318.4705,W,000.0,022.4,220819,017.7,E*65
01DDE7,0225CE,00C4A8,$GPRMC,050713,A,5442.9458,N,11318.4704,W,000.0,022.4,220819,017.7,E*6B
01DDE5,0225CD,00C4A7,$GPRMC,050714,A,5442.9461,N,11318.4702,W,000.0,022.4,220819,017.7,E*60
01DDE7,0225CF,00C4A7,$GPRMC,050715,A,5442.9463,N,11318.4700,W,000.0,022.4,220819,017.7,E*61
01DDE9,0225D1,00C4A8,$GPRMC,050716,A,5442.9465,N,11318.4699,W,000.0,022.4,220819,017.7,E*65
01DDE9,0225D2,00C4A9,$GPRMC,050717,A,5442.9466,N,11318.4698,W,000.0,022.4,220819,017.7,E*66
01DDE6,0225CD,00C4A7,$GPRMC,050718,A,5442.9468,N,11318.4697,W,000.0,022.4,220819,017.7,E*68
01DDE7,0225D0,00C4A8,$GPRMC,050719,A,5442.9467,N,11318.4696,W,000.0,022.4,220819,017.7,E*67
01DDE7,0225D0,00C4A8,$GPRMC,050720,A,5442.9467,N,11318.4696,W,000.0,022.4,220819,017.7,E*6D
01DDE8,0225D1,00C4A8,$GPRMC,050721,A,5442.9466,N,11318.4695,W,000.0,022.4,220819,017.7,E*6E
01DDE8,0225D0,00C4A8,$GPRMC,050722,A,5442.9466,N,11318.4695,W,000.0,022.4,220819,017.7,E*6D
01DDE9,0225D1,00C4A9,$GPRMC,050723,A,5442.9465,N,11318.4695,W,000.0,022.4,220819,017.7,E*6F
01DDE7,0225CE,00C4A7,$GPRMC,050724,A,5442.9462,N,11318.4698,W,000.0,022.4,220819,017.7,E*62
01DDE8,0225CF,00C4A8,$GPRMC,050725,A,5442.9458,N,11318.4702,W,000.0,022.4,220819,017.7,E*68
01DDE7,0225CE,00C4A7,$GPRMC,050726,A,5442.9452,N,11318.4707,W,000.0,022.4,220819,017.7,E*64
01DDE8,0225D0,00C4A8,$GPRMC,050727,A,5442.9447,N,11318.4712,W,000.0,022.4,220819,017.7,E*65
01DDE7,0225CE,00C4A7,$GPRMC,050728,A,5442.9444,N,11318.4714,W,000.0,022.4,220819,017.7,E*6F
01DDE6,0225CF,00C4A7,$GPRMC,050729,A,5442.9441,N,11318.4718,W,000.0,022.4,220819,017.7,E*67
01DDE4,0225CB,00C4A6,$GPRMC,050730,A,5442.9439,N,11318.4718,W,000.0,022.4,220819,017.7,E*60
01DDE6,0225CE,00C4A7,$GPRMC,050731,A,5442.9437,N,11318.4718,W,000.0,022.4,220819,017.7,E*6F
01DDE7,0225CE,00C4A7,$GPRMC,050732,A,5442.9438,N,11318.4717,W,000.0,022.4,220819,017.7,E*6C
01DDE8,0225D0,00C4A8,$GPRMC,050733,A,5442.9435,N,11318.4718,W,000.0,022.4,220819,017.7,E*6F
01DDE9,0225D1,00C4A8,$GPRMC,050734,A,5442.9435,N,11318.4717,W,000.0,022.4,220819,017.7,E*67
01DDE4,0225CA,00C4A5,$GPRMC,050735,A,5442.9433,N,11318.4719,W,000.0,022.4,220819,017.7,E*6E
01DDE6,0225CC,00C4A6,$GPRMC,050736,A,5442.9431,N,11318.4721,W,000.0,022.4,220819,017.7,E*64
01DDEA,0225D2,00C4A8,$GPRMC,050737,A,5442.9430,N,11318.4723,W,000.0,022.4,220819,017.7,E*66
01DDE5,0225CC,00C4A5,$GPRMC,050738,A,5442.9428,N,11318.4725,W,000.0,022.4,220819,017.7,E*66
01DDE4,0225C9,00C4A5,$GPRMC,050739,A,5442.9427,N,11318.4724,W,000.0,022.4,220819,017.7,E*69
01DDEA,0225D3,00C4A8,$GPRMC,050740,A,5442.9426,N,11318.4723,W,000.0,022.4,220819,017.7,E*61
01DDE8,0225CE,00C4A7,$GPRMC,050741,A,5442.9424,N,11318.4723,W,000.0,022.4,220819,017.7,E*62
01DDE9,0225D0,00C4A7,$GPRMC,050742,A,5442.9423,N,11318.4723,W,000.0,022.4,220819,017.7,E*66
01DDE7,0225CE,00C4A6,$GPRMC,050743,A,5442.9421,N,11318.4722,W,000.0,022.4,220819,017.7,E*64
01DDE8,0225CD,00C4A7,$GPRMC,050744,A,5442.9420,N,11318.4721,W,000.0,022.4,220819,017.7,E*61
01DDE7,0225CE,00C4A7,$GPRMC,050745,A,5442.9418,N,11318.4721,W,000.0,022.4,220819,017.7,E*6B
01DDE4,0225CA,00C4A5,$GPRMC,050746,A,5442.9419,N,11318.4719,W,000.0,022.4,220819,017.7,E*62
01DDEA,0225D1,00C4A8,$GPRMC,050747,A,5442.9420,N,11318.4718,W,000.0,022.4,220819,017.7,E*68
01DDEC,0225D5,00C4A9,$GPRMC,050748,A,5442.9420,N,11318.4716,W,000.0,022.4,220819,017.7,E*69
01DDEC,0225D3,00C4A9,$GPRMC,050749,A,5442.9420,N,11318.4716,W,000.0,022.4,220819,017.7,E*68
01DDE9,0225CF,00C4A7,$GPRMC,050750,A,5442.9418,N,11318.4716,W,000.0,022.4,220819,017.7,E*6B
01DDE8,0225CE,00C4A6,$GPRMC,050751,A,5442.9417,N,11318.4717,W,000.0,022.4,220819,017.7,E*64
01DDE6,0225CB,00C4A5,$GPRMC,050752,A,5442.9415,N,11318.4718,W,000.0,022.4,220819,017.7,E*6A
01DDE7,0225CD,00C4A7,$GPRMC,050753,A,5442.9413,N,11318.4719,W,000.0,022.4,220819,017.7,E*6C
01DDE8,0225CE,00C4A7,$GPRMC,050754,A,5442.9412,N,11318.4719,W,000.0,022.4,220819,017.7,E*6A
01DDE9,0225D1,00C4A8,$GPRMC,050755,A,5442.9411,N,11318.4719,W,000.0,022.4,220819,017.7,E*68
01DDE9,0225CF,00C4A7,$GPRMC,050756,A,5442.9410,N,11318.4720,W,000.0,022.4,220819,017.7,E*60
01DDE4,0225C9,00C4A4,$GPRMC,050757,A,5442.9411,N,11318.4719,W,000.0,022.4,220819,017.7,E*6A
01DDE5,0225C9,00C4A5,$GPRMC,050758,A,5442.9412,N,11318.4718,W,000.0,022.4,220819,017.7,E*67
01DDED,0225D4,00C4AA,$GPRMC,050759,A,5442.9406,N,11318.4726,W,000.0,022.4,220819,017.7,E*6E
01DDE5,0225CA,00C4A5,$GPRMC,050800,A,5442.9401,N,11318.4732,W,000.0,022.4,220819,017.7,E*6F
01DDEB,0225D3,00C4A9,$GPRMC,050801,A,5442.9397,N,11318.4739,W,000.0,022.4,220819,017.7,E*6D
01DDE5,0225CB,00C4A5,$GPRMC,050802,A,5442.9392,N,11318.4745,W,000.0,022.4,220819,017.7,E*60
01DDE8,0225CF,00C4A7,$GPRMC,050803,A,5442.9393,N,11318.4744,W,000.0,022.4,220819,017.7,E*61
01DDE9,0225D1,00C4A8,$GPRMC,050804,A,5442.9392,N,11318.4745,W,000.0,022.4,220819,017.7,E*66
01DDE8,0225CD,00C4A7,$GPRMC,050805,A,5442.9389,N,11318.4750,W,000.0,022.4,220819,017.7,E*69
01DDE9,0225D0,00C4A7,$GPRMC,050806,A,5442.9387,N,11318.4752,W,000.0,022.4,220819,017.7,E*66
01DDEB,0225D4,00C4A9,$GPRMC,050807,A,5442.9386,N,11318.4753,W,000.0,022.4,220819,017.7,E*67
01DDE7,0225CD,00C4A6,$GPRMC,050808,A,5442.9386,N,11318.4754,W,000.0,022.4,220819,017.7,E*6F
01DDEB,0225D4,00C4A9,$GPRMC,050809,A,5442.9386,N,11318.4754,W,000.0,022.4,220819,017.7,E*6E
01DDE5,0225CA,00C4A5,$GPRMC,050810,A,5442.9383,N,11318.4759,W,000.0,022.4,220819,017.7,E*6E
01DDE6,0225CD,00C4A5,$GPRMC,050811,A,5442.9379,N,11318.4762,W,000.0,022.4,220819,017.7,E*62
01DDE8,0225CF,00C4A7,$GPRMC,050812,A,5442.9377,N,11318.4765,W,000.0,022.4,220819,017.7,E*68
01DDEC,0225D3,00C4A8,$GPRMC,050813,A,5442.9374,N,11318.4768,W,000.0,022.4,220819,017.7,E*67
01DDE6,0225CB,00C4A5,$GPRMC,050814,A,5442.9372,N,11318.4768,W,000.0,022.4,220819,017.7,E*66
01DDED,0225D5,00C4A9,$GPRMC,050815,A,5442.9370,N,11318.4767,W,000.0,022.4,220819,017.7,E*6A
01DDE4,0225C7,00C4A4,$GPRMC,050816,A,5442.9366,N,11318.4771,W,000.0,022.4,220819,017.7,E*69
01DDEA,0225D1,00C4A8,$GPRMC,050817,A,5442.9366,N,11318.4772,W,000.0,022.4,220819,017.7,E*6B
01DDE9,0225D0,00C4A7,$GPRMC,050818,A,5442.9366,N,11318.4772,W,000.0,022.4,220819,017.7,E*64
01DDE8,0225CF,00C4A7,$GPRMC,050819,A,5442.9368,N,11318.4769,W,000.0,022.4,220819,017.7,E*61
01DDE4,0225C9,00C4A4,$GPRMC,050820,A,5442.9371,N,11318.4770,W,000.0,022.4,220819,017.7,E*6B
01DDEC,0225D5,00C4A9,$GPRMC,050821,A,5442.9371,N,11318.4773,W,000.0,022.4,220819,017.7,E*69
01DDEA,0225D1,00C4A7,$GPRMC,050822,A,5442.9371,N,11318.4776,W,000.0,022.4,220819,017.7,E*6F
01DDEE,0225D7,00C4AA,$GPRMC,050823,A,5442.9371,N,11318.4778,W,000.0,022.4,220819,017.7,E*60
01DDEB,0225D1,00C4A7,$GPRMC,050824,A,5442.9371,N,11318.4780,W,000.0,022.4,220819,017.7,E*60
01DDEC,0225D4,00C4A8,$GPRMC,050825,A,5442.9372,N,11318.4781,W,000.0,022.4,220819,017.7,E*63
01DDE9,0225D0,00C4A7,$GPRMC,050826,A,5442.9373,N,11318.4780,W,000.0,022.4,220819,017.7,E*60
01DDEC,0225D4,00C4A8,$GPRMC,050827,A,5442.9374,N,11318.4779,W,000.0,022.4,220819,017.7,E*60
01DDE9,0225CF,00C4A6,$GPRMC,050828,A,5442.9377,N,11318.4775,W,000.0,022.4,220819,017.7,E*60
01DDEE,0225D7,00C4AA,$GPRMC,050829,A,5442.9379,N,11318.4771,W,000.0,022.4,220819,017.7,E*6B
01DDEC,0225D4,00C4A8,$GPRMC,050830,A,5442.9381,N,11318.4768,W,000.0,022.4,220819,017.7,E*6C
01DDEE,0225D7,00C4AA,$GPRMC,050831,A,5442.9383,N,11318.4764,W,000.0,022.4,220819,017.7,E*63
01DDEC,0225D4,00C4A8,$GPRMC,050832,A,5442.9385,N,11318.4760,W,000.0,022.4,220819,017.7,E*62
01DDEF,0225D9,00C4AA,$GPRMC,050833,A,5442.9387,N,11318.4757,W,000.0,022.4,220819,017.7,E*65
01DDEC,0225D4,00C4A8,$GPRMC,050834,A,5442.9390,N,11318.4754,W,000.0,022.4,220819,017.7,E*67
01DDEE,0225D6,00C4A9,$GPRMC,050835,A,5442.9391,N,11318.4750,W,000.0,022.4,220819,017.7,E*63
01DDEB,0225D1,00C4A7,$GPRMC,050836,A,5442.9390,N,11318.4756,W,000.0,022.4,220819,017.7,E*67
01DDED,0225D6,00C4A9,$GPRMC,050837,A,5442.9392,N,11318.4754,W,000.0,022.4,220819,017.7,E*66
01DDEA,0225D1,00C4A8,$GPRMC,050838,A,5442.9394,N,11318.4752,W,000.0,022.4,220819,017.7,E*69
01DDEB,0225D1,00C4A7,$GPRMC,050839,A,5442.9394,N,11318.4750,W,000.0,022.4,220819,017.7,E*6A
01DDEC,0225D4,00C4A8,$GPRMC,050840,A,5442.9395,N,11318.4749,W,000.0,022.4,220819,017.7,E*6D
01DDED,0225D4,00C4A9,$GPRMC,050841,A,5442.9395,N,11318.4747,W,000.0,022.4,220819,017.7,E*62
01DDEA,0225D1,00C4A7,$GPRMC,050842,A,5442.9396,N,11318.4745,W,000.0,022.4,220819,017.7,E*60
01DDED,0225D3,00C4A8,$GPRMC,050843,A,5442.9398,N,11318.4744,W,000.0,022.4,220819,017.7,E*6E
01DDEA,0225CF,00C4A6,$GPRMC,050844,A,5442.9400,N,11318.4742,W,000.0,022.4,220819,017.7,E*69
01DDE9,0225CE,00C4A6,$GPRMC,050845,A,5442.9398,N,11318.4752,W,000.0,022.4,220819,017.7,E*6F
01DDED,0225D5,00C4A9,$GPRMC,050846,A,5442.9398,N,11318.4756,W,000.0,022.4,220819,017.7,E*68
01DDEA,0225CF,00C4A6,$GPRMC,050847,A,5442.9400,N,11318.4751,W,000.0,022.4,220819,017.7,E*68
01DDEA,0225CF,00C4A7,$GPRMC,050848,A,5442.9402,N,11318.4747,W,000.0,022.4,220819,017.7,E*62
01DDEE,0225D4,00C4A8,$GPRMC,050849,A,5442.9403,N,11318.4744,W,000.0,022.4,220819,017.7,E*61
01DDED,0225D3,00C4A8,$GPRMC,050850,A,5442.9402,N,11318.4749,W,000.0,022.4,220819,017.7,E*65
01DDEE,0225D5,00C4A9,$GPRMC,050851,A,5442.9401,N,11318.4754,W,000.0,022.4,220819,017.7,E*6B
01DDED,0225D3,00C4A8,$GPRMC,050852,A,5442.9403,N,11318.4752,W,000.0,022.4,220819,017.7,E*6C
01DDE9,0225CE,00C4A5,$GPRMC,050853,A,5442.9398,N,11318.4766,W,000.0,022.4,220819,017.7,E*6F
01DDE9,0225CE,00C4A5,$GPRMC,050854,A,5442.9400,N,11318.4764,W,000.0,022.4,220819,017.7,E*6C
01DDEB,0225D1,00C4A7,$GPRMC,050855,A,5442.9401,N,11318.4762,W,000.0,022.4,220819,017.7,E*6A
01DDEB,0225CF,00C4A6,$GPRMC,050856,A,5442.9403,N,11318.4760,W,000.0,022.4,220819,017.7,E*69
01DDEA,0225CF,00C4A6,$GPRMC,050857,A,5442.9404,N,11318.4758,W,000.0,022.4,220819,017.7,E*64
01DDEC,0225D1,00C4A7,$GPRMC,050858,A,5442.9405,N,11318.4756,W,000.0,022.4,220819,017.7,E*64
01DDEB,0225D0,00C4A6,$GPRMC,050859,A,5442.9407,N,11318.4753,W,000.0,022.4,220819,017.7,E*62
01DDE9,0225CF,00C4A6,$GPRMC,050900,A,5442.9407,N,11318.4752,W,000.0,022.4,220819,017.7,E*6E
01DDEC,0225D2,00C4A7,$GPRMC,050901,A,5442.9406,N,11318.4752,W,000.0,022.4,220819,017.7,E*6E
01DDEB,0225D0,00C4A6,$GPRMC,050902,A,5442.9406,N,11318.4752,W,000.0,022.4,220819,017.7,E*6D
01DDE9,0225CE,00C4A5,$GPRMC,050903,A,5442.9404,N,11318.4752,W,000.0,022.4,220819,017.7,E*6E
01DDF3,0225DD,00C4AC,$GPRMC,050904,A,5442.9403,N,11318.4753,W,000.0,022.4,220819,017.7,E*6F
01DDED,0225D2,00C4A7,$GPRMC,050905,A,5442.9402,N,11318.4754,W,000.0,022.4,220819,017.7,E*68
01DDEE,0225D5,00C4A8,$GPRMC,050906,A,5442.9400,N,11318.4754,W,000.0,022.4,220819,017.7,E*69
01DDEE,0225D5,00C4A8,$GPRMC,050907,A,5442.9399,N,11318.4755,W,000.0,022.4,220819,017.7,E*6E
01DDED,0225D4,00C4A8,$GPRMC,050908,A,5442.9397,N,11318.4755,W,000.0,022.4,220819,017.7,E*6F
01DDEC,0225D2,00C4A7,$GPRMC,050909,A,5442.9398,N,11318.4753,W,000.0,022.4,220819,017.7,E*67
01DDEA,0225CF,00C4A6,$GPRMC,050910,A,5442.9395,N,11318.4752,W,000.0,022.4,220819,017.7,E*63
01DDED,0225D2,00C4A7,$GPRMC,050911,A,5442.9394,N,11318.4753,W,000.0,022.4,220819,017.7,E*62
01DDE7,0225CB,00C4A4,$GPRMC,050912,A,5442.9393,N,11318.4753,W,000.0,022.4,220819,017.7,E*66
01DDE8,0225CE,00C4A5,$GPRMC,050913,A,5442.9392,N,11318.4751,W,000.0,022.4,220819,017.7,E*64
01DDE8,0225CB,00C4A4,$GPRMC,050914,A,5442.9391,N,11318.4751,W,000.0,022.4,220819,017.7,E*60
01DDEC,0225D3,00C4A7,$GPRMC,050915,A,5442.9391,N,11318.4749,W,000.0,022.4,220819,017.7,E*68
01DDEE,0225D4,00C4A8,$GPRMC,050916,A,5442.9390,N,11318.4750,W,000.0,022.4,220819,017.7,E*62
01DDE7,0225CB,00C4A4,$GPRMC,050917,A,5442.9390,N,11318.4752,W,000.0,022.4,220819,017.7,E*61
01DDEE,0225D5,00C4A7,$GPRMC,050918,A,5442.9390,N,11318.4749,W,000.0,022.4,220819,017.7,E*64
01DDEB,0225CF,00C4A6,$GPRMC,050919,A,5442.9385,N,11318.4749,W,000.0,022.4,220819,017.7,E*61
01DDEA,0225CE,00C4A6,$GPRMC,050920,A,5442.9385,N,11318.4748,W,000.0,022.4,220819,017.7,E*6A
01DDED,0225D4,00C4A8,$GPRMC,050921,A,5442.9386,N,11318.4746,W,000.0,022.4,220819,017.7,E*66
01DDEF,0225D5,00C4A8,$GPRMC,050922,A,5442.9387,N,11318.4745,W,000.0,022.4,220819,017.7,E*67
01DDEE,0225D5,00C4A8,$GPRMC,050923,A,5442.9387,N,11318.4744,W,000.0,022.4,220819,017.7,E*67
01DDED,0225D3,00C4A7,$GPRMC,050924,A,5442.9388,N,11318.4743,W,000.0,022.4,220819,017.7,E*68
01DDEC,0225D2,00C4A7,$GPRMC,050925,A,5442.9388,N,11318.4742,W,000.0,022.4,220819,017.7,E*68
01DDEC,0225D1,00C4A7,$GPRMC,050926,A,5442.9388,N,11318.4742,W,000.0,022.4,220819,017.7,E*6B
01DDEB,0225D0,00C4A6,$GPRMC,050927,A,5442.9389,N,11318.4741,W,000.0,022.4,220819,017.7,E*68
01DDEC,0225D1,00C4A7,$GPRMC,050928,A,5442.9389,N,11318.4740,W,000.0,022.4,220819,017.7,E*66
01DDEC,0225D1,00C4A7,$GPRMC,050929,A,5442.9390,N,11318.4739,W,000.0,022.4,220819,017.7,E*61
01DDED,0225D3,00C4A6,$GPRMC,050930,A,5442.9389,N,11318.4738,W,000.0,022.4,220819,017.7,E*60
01DDEA,0225CF,00C4A6,$GPRMC,050931,A,5442.9390,N,11318.4739,W,000.0,022.4,220819,017.7,E*68
01DDED,0225D2,00C4A7,$GPRMC,050932,A,5442.9390,N,11318.4738,W,000.0,022.4,220819,017.7,E*6A
01DDEC,0225D2,00C4A7,$GPRMC,050933,A,5442.9390,N,11318.4737,W,000.0,022.4,220819,017.7,E*64
01DDEE,0225D4,00C4A7,$GPRMC,050934,A,5442.9390,N,11318.4736,W,000.0,022.4,220819,017.7,E*62
01DDEA,0225CE,00C4A5,$GPRMC,050935,A,5442.9390,N,11318.4733,W,000.0,022.4,220819,017.7,E*66
01DDEE,0225D5,00C4A7,$GPRMC,050936,A,5442.9390,N,11318.4732,W,000.0,022.4,220819,017.7,E*64
01DDEC,0225D1,00C4A6,$GPRMC,050937,A,5442.9391,N,11318.4730,W,000.0,022.4,220819,017.7,E*66
01DDF0,0225D7,00C4A9,$GPRMC,050938,A,5442.9391,N,11318.4729,W,000.0,022.4,220819,017.7,E*61
01DDEB,0225CF,00C4A6,$GPRMC,050939,A,5442.9390,N,11318.4727,W,000.0,022.4,220819,017.7,E*6F
01DDF0,0225D6,00C4A8,$GPRMC,050940,A,5442.9391,N,11318.4728,W,000.0,022.4,220819,017.7,E*6F
01DDEC,0225D1,00C4A6,$GPRMC,050941,A,5442.9392,N,11318.4729,W,000.0,022.4,220819,017.7,E*6C
01DDED,0225D3,00C4A8,$GPRMC,050942,A,5442.9392,N,11318.4728,W,000.0,022.4,220819,017.7,E*6E
01DDEE,0225D4,00C4A8,$GPRMC,050943,A,5442.9391,N,11318.4728,W,000.0,022.4,220819,017.7,E*6C
01DDF1,0225D9,00C4AA,$GPRMC,050944,A,5442.9391,N,11318.4728,W,000.0,022.4,220819,017.7,E*6B
01DDEF,0225D4,00C4A8,$GPRMC,050945,A,5442.9391,N,11318.4727,W,000.0,022.4,220819,017.7,E*65
01DDF0,0225D6,00C4A8,$GPRMC,050946,A,5442.9391,N,11318.4726,W,000.0,022.4,220819,017.7,E*67
01DDEB,0225CF,00C4A6,$GPRMC,050947,A,5442.9391,N,11318.4725,W,000.0,022.4,220819,017.7,E*65
01DDEC,0225D0,00C4A5,$GPRMC,050948,A,5442.9390,N,11318.4725,W,000.0,022.4,220819,017.7,E*6B
01DDEE,0225D2,00C4A7,$GPRMC,050949,A,5442.9390,N,11318.4724,W,000.0,022.4,220819,017.7,E*6B
01DDEE,0225D4,00C4A7,$GPRMC,050950,A,5442.9389,N,11318.4723,W,000.0,022.4,220819,017.7,E*6C
01DDF0,0225D5,00C4A8,$GPRMC,050951,A,5442.9388,N,11318.4722,W,000.0,022.4,220819,017.7,E*6D
01DDED,0225D2,00C4A6,$GPRMC,050952,A,5442.9387,N,11318.4721,W,000.0,022.4,220819,017.7,E*62
01DDEF,0225D4,00C4A8,$GPRMC,050953,A,5442.9387,N,11318.4719,W,000.0,022.4,220819,017.7,E*68
01DDEE,0225D3,00C4A7,$GPRMC,050954,A,5442.9386,N,11318.4718,W,000.0,022.4,220819,017.7,E*6F
01DDEF,0225D4,00C4A7,$GPRMC,050955,A,5442.9386,N,11318.4717,W,000.0,022.4,220819,017.7,E*61
01DDEC,0225D0,00C4A5,$GPRMC,050956,A,5442.9386,N,11318.4716,W,000.0,022.4,220819,017.7,E*63
01DDEE,0225D3,00C4A7,$GPRMC,050957,A,5442.9386,N,11318.4714,W,000.0,022.4,220819,017.7,E*60
01DDEF,0225D4,00C4A8,$GPRMC,050958,A,5442.9385,N,11318.4712,W,000.0,022.4,220819,017.7,E*6A
01DDEF,0225D4,00C4A8,$GPRMC,050959,A,5442.9385,N,11318.4710,W,000.0,022.4,220819,017.7,E*69
01DDEE,0225D1,00C4A7,$GPRMC,051000,A,5442.9385,N,11318.4707,W,000.0,022.4,220819,017.7,E*6B
01DDEF,0225D3,00C4A8,$GPRMC,051001,A,5442.9385,N,11318.4705,W,000.0,022.4,220819,017.7,E*68
01DDEE,0225D2,00C4A7,$GPRMC,051002,A,5442.9385,N,11318.4702,W,000.0,022.4,220819,017.7,E*6C
01DDED,0225D0,00C4A6,$GPRMC,051003,A,5442.9385,N,11318.4700,W,000.0,022.4,220819,017.7,E*6F
01DDEE,0225D3,00C4A7,$GPRMC,051004,A,5442.9386,N,11318.4698,W,000.0,022.4,220819,017.7,E*6B
01DDEF,0225D3,00C4A7,$GPRMC,051005,A,5442.9387,N,11318.4696,W,000.0,022.4,220819,017.7,E*65
01DDEF,0225D3,00C4A7,$GPRMC,051006,A,5442.9387,N,11318.4694,W,000.0,022.4,220819,017.7,E*64
01DDF0,0225D3,00C4A8,$GPRMC,051007,A,5442.9387,N,11318.4693,W,000.0,022.4,220819,017.7,E*62
01DDED,0225CF,00C4A6,$GPRMC,051008,A,5442.9391,N,11318.4690,W,000.0,022.4,220819,017.7,E*69
01DDF0,0225D5,00C4A8,$GPRMC,051009,A,5442.9394,N,11318.4687,W,000.0,022.4,220819,017.7,E*6B
01DDED,0225CF,00C4A6,$GPRMC,051010,A,5442.9393,N,11318.4687,W,000.0,022.4,220819,017.7,E*64
01DDF3,0225D8,00C4A9,$GPRMC,051011,A,5442.9393,N,11318.4686,W,000.0,022.4,220819,017.7,E*64
01DDF0,0225D3,00C4A7,$GPRMC,051012,A,5442.9392,N,11318.4686,W,000.0,022.4,220819,017.7,E*66
01DDF1,0225D4,00C4A9,$GPRMC,051013,A,5442.9397,N,11318.4684,W,000.0,022.4,220819,017.7,E*60
01DDEC,0225CD,00C4A5,$GPRMC,051014,A,5442.9402,N,11318.4682,W,000.0,022.4,220819,017.7,E*6A
01DDF1,0225D4,00C4A8,$GPRMC,051015,A,5442.9402,N,11318.4682,W,000.0,022.4,220819,017.7,E*6B
01DDF2,0225D6,00C4A8,$GPRMC,051016,A,5442.9403,N,11318.4681,W,000.0,022.4,220819,017.7,E*6A
01DDF2,0225D7,00C4A9,$GPRMC,051017,A,5442.9404,N,11318.4681,W,000.0,022.4,220819,017.7,E*6C
01DDF0,0225D2,00C4A8,$GPRMC,051018,A,5442.9404,N,11318.4681,W,000.0,022.4,220819,017.7,E*63
01DDF3,0225D8,00C4AA,$GPRMC,051019,A,5442.9405,N,11318.4680,W,000.0,022.4,220819,017.7,E*62
01DDED,0225CE,00C4A6,$GPRMC,051020,A,5442.9408,N,11318.4678,W,000.0,022.4,220819,017.7,E*62
01DDF4,0225D7,00C4A9,$GPRMC,051021,A,5442.9410,N,11318.4677,W,000.0,022.4,220819,017.7,E*65
01DDF1,0225D3,00C4A7,$GPRMC,051022,A,5442.9411,N,11318.4676,W,000.0,022.4,220819,017.7,E*66
01DDF2,0225D4,00C4A8,$GPRMC,051023,A,5442.9412,N,11318.4675,W,000.0,022.4,220819,017.7,E*67
01DDF2,0225D4,00C4A8,$GPRMC,051024,A,5442.9413,N,11318.4674,W,000.0,022.4,220819,017.7,E*60
01DDF0,0225D3,00C4A7,$GPRMC,051025,A,5442.9414,N,11318.4673,W,000.0,022.4,220819,017.7,E*61
01DDEF,0225D1,00C4A7,$GPRMC,051026,A,5442.9415,N,11318.4673,W,000.0,022.4,220819,017.7,E*63
01DDF2,0225D6,00C4A9,$GPRMC,051027,A,5442.9416,N,11318.4672,W,000.0,022.4,220819,017.7,E*60
01DDF0,0225D2,00C4A7,$GPRMC,051028,A,5442.9416,N,11318.4671,W,000.0,022.4,220819,017.7,E*6C
01DDF1,0225D5,00C4A8,$GPRMC,051029,A,5442.9416,N,11318.4670,W,000.0,022.4,220819,017.7,E*6C
01DDF2,0225D5,00C4A9,$GPRMC,051030,A,5442.9416,N,11318.4669,W,000.0,022.4,220819,017.7,E*6C
01DDEF,0225D1,00C4A7,$GPRMC,051031,A,5442.9415,N,11318.4669,W,000.0,022.4,220819,017.7,E*6E
01DDF0,0225D4,00C4A7,$GPRMC,051032,A,5442.9415,N,11318.4668,W,000.0,022.4,220819,017.7,E*6C
01DDF0,0225D3,00C4A7,$GPRMC,051033,A,5442.9414,N,11318.4667,W,000.0,022.4,220819,017.7,E*63
01DDED,0225CE,00C4A5,$GPRMC,051034,A,5442.9414,N,11318.4666,W,000.0,022.4,220819,017.7,E*65
01DDF1,0225D4,00C4A8,$GPRMC,051035,A,5442.9413,N,11318.4665,W,000.0,022.4,220819,017.7,E*60
01DDF0,0225D4,00C4A8,$GPRMC,051036,A,5442.9412,N,11318.4664,W,000.0,022.4,220819,017.7,E*63
01DDF0,0225D3,00C4A7,$GPRMC,051037,A,5442.9411,N,11318.4663,W,000.0,022.4,220819,017.7,E*66
01DDED,0225CF,00C4A6,$GPRMC,051038,A,5442.9410,N,11318.4661,W,000.0,022.4,220819,017.7,E*6A
01DDF2,0225D7,00C4A9,$GPRMC,051039,A,5442.9409,N,11318.4660,W,000.0,022.4,220819,017.7,E*62
01DDF0,0225D4,00C4A8,$GPRMC,051040,A,5442.9408,N,11318.4659,W,000.0,022.4,220819,017.7,E*67
01DDF0,0225D4,00C4A8,$GPRMC,051041,A,5442.9407,N,11318.4657,W,000.0,022.4,220819,017.7,E*67
01DDF1,0225D5,00C4A8,$GPRMC,051042,A,5442.9406,N,11318.4656,W,000.0,022.4,220819,017.7,E*64
01DDF0,0225D4,00C4A7,$GPRMC,051043,A,5442.9406,N,11318.4655,W,000.0,022.4,220819,017.7,E*66
01DDEC,0225CF,00C4A5,$GPRMC,051044,A,5442.9406,N,11318.4653,W,000.0,022.4,220819,017.7,E*67
01DDF2,0225D6,00C4A8,$GPRMC,051045,A,5442.9406,N,11318.4652,W,000.0,022.4,220819,017.7,E*67
01DDF0,0225D3,00C4A7,$GPRMC,051046,A,5442.9406,N,11318.4652,W,000.0,022.4,220819,017.7,E*64
01DDF0,0225D3,00C4A8,$GPRMC,051047,A,5442.9406,N,11318.4651,W,000.0,022.4,220819,017.7,E*66
01DDF1,0225D6,00C4A9,$GPRMC,051048,A,5442.9406,N,11318.4650,W,000.0,022.4,220819,017.7,E*68
01DDEE,0225D2,00C4A6,$GPRMC,051049,A,5442.9407,N,11318.4649,W,000.0,022.4,220819,017.7,E*60
01DDEF,0225D2,00C4A7,$GPRMC,051050,A,5442.9407,N,11318.4648,W,000.0,022.4,220819,017.7,E*69
01DDF0,0225D4,00C4A8,$GPRMC,051051,A,5442.9408,N,11318.4647,W,000.0,022.4,220819,017.7,E*68
