01DDDF,0225D9,00C4AA,$GPRMC,025959,A,5442.9280,N,11318.4647,W,000.0,355.7,220819,017.7,E*6C
01DDDC,0225D5,00C4A9,$GPRMC,030000,A,5442.9279,N,11318.4648,W,000.0,355.7,220819,017.7,E*64
01DDDF,0225D8,00C4AA,$GPRMC,030001,A,5442.9278,N,11318.4649,W,000.0,355.7,220819,017.7,E*65
01DDDE,0225D7,00C4AA,$GPRMC,030002,A,5442.9275,N,11318.4651,W,000.0,355.7,220819,017.7,E*62
01DDDD,0225D6,00C4AA,$GPRMC,030003,A,5442.9274,N,11318.4652,W,000.0,355.7,220819,017.7,E*61
01DDE0,0225D9,00C4AB,$GPRMC,030004,A,5442.9273,N,11318.4652,W,000.0,355.7,220819,017.7,E*61
01DDDF,0225DA,00C4AB,$GPRMC,030005,A,5442.9273,N,11318.4653,W,000.0,355.7,220819,017.7,E*61
01DDDF,0225D6,00C4AA,$GPRMC,030006,A,5442.9262,N,11318.4655,W,000.0,355.7,220819,017.7,E*64
01DDDC,0225D4,00C4A9,$GPRMC,030007,A,5442.9251,N,11318.4658,W,000.0,355.7,220819,017.7,E*68
01DDE0,0225D8,00C4AB,$GPRMC,030008,A,5442.9238,N,11318.4660,W,000.0,355.7,220819,017.7,E*63
01DDDD,0225D4,00C4A9,$GPRMC,030009,A,5442.9248,N,11318.4659,W,000.0,355.7,220819,017.7,E*6F
01DDE0,0225D8,00C4AB,$GPRMC,030010,A,5442.9257,N,11318.4657,W,000.0,355.7,220819,017.7,E*67
01DDDB,0225D2,00C4A9,$GPRMC,030011,A,5442.9244,N,11318.4659,W,000.0,355.7,220819,017.7,E*6A
01DDDF,0225D6,00C4AB,$GPRMC,030012,A,5442.9233,N,11318.4661,W,000.0,355.7,220819,017.7,E*62
01DDDE,0225D5,00C4AB,$GPRMC,030013,A,5442.9234,N,11318.4658,W,000.0,355.7,220819,017.7,E*6E
01DDDC,0225D3,00C4A9,$GPRMC,030014,A,5442.9228,N,11318.4658,W,000.0,355.7,220819,017.7,E*64
01DDDB,0225D2,00C4A9,$GPRMC,030015,A,5442.9221,N,11318.4658,W,000.0,355.7,220819,017.7,E*6C
01DDDC,0225D2,00C4AA,$GPRMC,030016,A,5442.9213,N,11318.4659,W,000.0,355.7,220819,017.7,E*6F
01DDDE,0225D6,00C4AB,$GPRMC,030017,A,5442.9207,N,11318.4659,W,000.0,355.7,220819,017.7,E*6B
01DDDD,0225D3,00C4AA,$GPRMC,030018,A,5442.9201,N,11318.4658,W,000.0,355.7,220819,017.7,E*63
01DDDD,0225D4,00C4AB,$GPRMC,030019,A,5442.9197,N,11318.4658,W,000.0,355.7,220819,017.7,E*6E
01DDDD,0225D4,00C4AC,$GPRMC,030020,A,5442.9193,N,11318.4658,W,000.0,355.7,220819,017.7,E*60
01DDDE,0225D3,00C4AB,$GPRMC,030021,A,5442.9188,N,11318.4658,W,000.0,355.7,220819,017.7,E*6B
01DDDB,0225D1,00C4AA,$GPRMC,030022,A,5442.9185,N,11318.4658,W,000.0,355.7,220819,017.7,E*65
01DDDD,0225D2,00C4AB,$GPRMC,030023,A,5442.9181,N,11318.4658,W,000.0,355.7,220819,017.7,E*60
01DDDB,0225D1,00C4AB,$GPRMC,030024,A,5442.9177,N,11318.4658,W,000.0,355.7,220819,017.7,E*6E
01DDDC,0225D0,00C4AB,$GPRMC,030025,A,5442.9173,N,11318.4658,W,000.0,355.7,220819,017.7,E*6B
01DDDD,0225D3,00C4AC,$GPRMC,030026,A,5442.9167,N,11318.4659,W,000.0,355.7,220819,017.7,E*6C
01DDDD,0225D2,00C4AC,$GPRMC,030027,A,5442.9159,N,11318.4660,W,000.0,355.7,220819,017.7,E*6A
01DDDD,0225D3,00C4AC,$GPRMC,030028,A,5442.9151,N,11318.4661,W,000.0,355.7,220819,017.7,E*6C
01DDDC,0225D1,00C4AC,$GPRMC,030029,A,5442.9142,N,11318.4663,W,000.0,355.7,220819,017.7,E*6D
01DDDB,0225CF,00C4AB,$GPRMC,030030,A,5442.9134,N,11318.4664,W,000.0,355.7,220819,017.7,E*63
01DDDE,0225D3,00C4AC,$GPRMC,030031,A,5442.9126,N,11318.4666,W,000.0,355.7,220819,017.7,E*63
01DDDC,0225D0,00C4AB,$GPRMC,030032,A,5442.9118,N,11318.4668,W,000.0,355.7,220819,017.7,E*63
01DDDD,0225D1,00C4AC,$GPRMC,030033,A,5442.9111,N,11318.4669,W,000.0,355.7,220819,017.7,E*6A
01DDDC,0225D1,00C4AC,$GPRMC,030034,A,5442.9104,N,11318.4671,W,000.0,355.7,220819,017.7,E*60
01DDDA,0225CD,00C4AA,$GPRMC,030035,A,5442.9099,N,11318.4672,W,000.0,355.7,220819,017.7,E*67
01DDDE,0225D3,00C4AC,$GPRMC,030036,A,5442.9094,N,11318.4673,W,000.0,355.7,220819,017.7,E*68
01DDDE,0225D2,00C4AC,$GPRMC,030037,A,5442.9089,N,11318.4674,W,000.0,355.7,220819,017.7,E*62
01DDDD,0225D1,00C4AC,$GPRMC,030038,A,5442.9085,N,11318.4675,W,000.0,355.7,220819,017.7,E*60
01DDDA,0225CC,00C4AA,$GPRMC,030039,A,5442.9082,N,11318.4675,W,000.0,355.7,220819,017.7,E*66
01DDD8,0225C9,00C4A9,$GPRMC,030040,A,5442.9080,N,11318.4676,W,000.0,355.7,220819,017.7,E*69
01DDDB,0225CD,00C4AB,$GPRMC,030041,A,5442.9079,N,11318.4676,W,000.0,355.7,220819,017.7,E*6E
01DDDA,0225CB,00C4AA,$GPRMC,030042,A,5442.9079,N,11318.4675,W,000.0,355.7,220819,017.7,E*6E
01DDD9,0225CA,00C4AA,$GPRMC,030043,A,5442.9081,N,11318.4675,W,000.0,355.7,220819,017.7,E*68
01DDDB,0225CD,00C4AC,$GPRMC,030044,A,5442.9082,N,11318.4674,W,000.0,355.7,220819,017.7,E*6D
01DDD9,0225CB,00C4AB,$GPRMC,030045,A,5442.9084,N,11318.4674,W,000.0,355.7,220819,017.7,E*6A
01DDD8,0225C8,00C4AA,$GPRMC,030046,A,5442.9086,N,11318.4673,W,000.0,355.7,220819,017.7,E*6C
01DDDA,0225CB,00C4AC,$GPRMC,030047,A,5442.9089,N,11318.4673,W,000.0,355.7,220819,017.7,E*62
01DDD9,0225CA,00C4AB,$GPRMC,030048,A,5442.9091,N,11318.4672,W,000.0,355.7,220819,017.7,E*65
01DDDD,0225CF,00C4AE,$GPRMC,030049,A,5442.9091,N,11318.4672,W,000.0,355.7,220819,017.7,E*64
01DDDA,0225CB,00C4AC,$GPRMC,030050,A,5442.9090,N,11318.4673,W,000.0,355.7,220819,017.7,E*6C
01DDDD,0225D0,00C4AE,$GPRMC,030051,A,5442.9089,N,11318.4673,W,000.0,355.7,220819,017.7,E*65
01DDD8,0225C7,00C4AB,$GPRMC,030052,A,5442.9087,N,11318.4674,W,000.0,355.7,220819,017.7,E*6F
01DDDD,0225CE,00C4AE,$GPRMC,030053,A,5442.9084,N,11318.4675,W,000.0,355.7,220819,017.7,E*6C
01DDD7,0225C6,00C4AB,$GPRMC,030054,A,5442.9081,N,11318.4677,W,000.0,355.7,220819,017.7,E*6C
01DDDD,0225CD,00C4AE,$GPRMC,030055,A,5442.9076,N,11318.4678,W,000.0,355.7,220819,017.7,E*6A
01DDD9,0225C7,00C4AB,$GPRMC,030056,A,5442.9072,N,11318.4679,W,000.0,355.7,220819,017.7,E*6C
01DDDB,0225CB,00C4AD,$GPRMC,030057,A,5442.9068,N,11318.4680,W,000.0,355.7,220819,017.7,E*60
01DDD9,0225C7,00C4AC,$GPRMC,030058,A,5442.9063,N,11318.4680,W,000.0,355.7,220819,017.7,E*64
01DDDE,0225CF,00C4B0,$GPRMC,030059,A,5442.9060,N,11318.4680,W,000.0,355.7,220819,017.7,E*66
01DDDA,0225C8,00C4AD,$GPRMC,030100,A,5442.9060,N,11318.4680,W,000.0,355.7,220819,017.7,E*6B
01DDDB,0225CA,00C4AE,$GPRMC,030101,A,5442.9059,N,11318.4680,W,000.0,355.7,220819,017.7,E*60
01DDD8,0225C4,00C4AB,$GPRMC,030102,A,5442.9059,N,11318.4680,W,000.0,355.7,220819,017.7,E*63
01DDDB,0225C9,00C4AE,$GPRMC,030103,A,5442.9059,N,11318.4680,W,000.0,355.7,220819,017.7,E*62
01DDD7,0225C2,00C4AB,$GPRMC,030104,A,5442.9059,N,11318.4680,W,000.0,355.7,220819,017.7,E*65
01DDD9,0225C6,00C4AC,$GPRMC,030105,A,5442.9059,N,11318.4680,W,000.0,355.7,220819,017.7,E*64
01DDD7,0225C0,00C4AB,$GPRMC,030106,A,5442.9059,N,11318.4680,W,000.0,355.7,220819,017.7,E*67
01DDDC,0225C8,00C4AF,$GPRMC,030107,A,5442.9063,N,11318.4678,W,000.0,355.7,220819,017.7,E*68
01DDD7,0225C1,00C4AC,$GPRMC,030108,A,5442.9064,N,11318.4676,W,000.0,355.7,220819,017.7,E*6E
01DDD8,0225C2,00C4AC,$GPRMC,030109,A,5442.9064,N,11318.4676,W,000.0,355.7,220819,017.7,E*6F
01DDD5,0225BE,00C4AB,$GPRMC,030110,A,5442.9065,N,11318.4676,W,000.0,355.7,220819,017.7,E*66
01DDDA,0225C4,00C4AE,$GPRMC,030111,A,5442.9065,N,11318.4676,W,000.0,355.7,220819,017.7,E*67
01DDD9,0225C2,00C4AE,$GPRMC,030112,A,5442.9066,N,11318.4676,W,000.0,355.7,220819,017.7,E*67
01DDD7,0225BF,00C4AD,$GPRMC,030113,A,5442.9066,N,11318.4675,W,000.0,355.7,220819,017.7,E*65
01DDD7,0225BF,00C4AD,$GPRMC,030114,A,5442.9056,N,11318.4673,W,000.0,355.7,220819,017.7,E*67
01DDD9,0225C1,00C4AE,$GPRMC,030115,A,5442.9045,N,11318.4672,W,000.0,355.7,220819,017.7,E*65
01DDDA,0225C3,00C4AF,$GPRMC,030116,A,5442.9034,N,11318.4670,W,000.0,355.7,220819,017.7,E*62
01DDD9,0225BF,00C4AE,$GPRMC,030117,A,5442.9022,N,11318.4669,W,000.0,355.7,220819,017.7,E*6C
01DDD8,0225BF,00C4AE,$GPRMC,030118,A,5442.9011,N,11318.4667,W,000.0,355.7,220819,017.7,E*6D
01DDD9,0225C0,00C4AE,$GPRMC,030119,A,5442.9011,N,11318.4667,W,000.0,355.7,220819,017.7,E*6C
01DDD6,0225BD,00C4AD,$GPRMC,030120,A,5442.9012,N,11318.4667,W,000.0,355.7,220819,017.7,E*65
01DDD7,0225BD,00C4AD,$GPRMC,030121,A,5442.9012,N,11318.4667,W,000.0,355.7,220819,017.7,E*64
01DDD5,0225BA,00C4AC,$GPRMC,030122,A,5442.9012,N,11318.4667,W,000.0,355.7,220819,017.7,E*67
01DDD9,0225C0,00C4AF,$GPRMC,030123,A,5442.9013,N,11318.4667,W,000.0,355.7,220819,017.7,E*67
01DDD5,0225BB,00C4AC,$GPRMC,030124,A,5442.9013,N,11318.4667,W,000.0,355.7,220819,017.7,E*60
01DDD5,0225B9,00C4AC,$GPRMC,030125,A,5442.9013,N,11318.4667,W,000.0,355.7,220819,017.7,E*61
01DDD5,0225B9,00C4AC,$GPRMC,030126,A,5442.9014,N,11318.4666,W,000.0,355.7,220819,017.7,E*64
01DDD6,0225BB,00C4AC,$GPRMC,030127,A,5442.9014,N,11318.4666,W,000.0,355.7,220819,017.7,E*65
01DDD6,0225BB,00C4AD,$GPRMC,030128,A,5442.9014,N,11318.4666,W,000.0,355.7,220819,017.7,E*6A
01DDD9,0225BF,00C4AF,$GPRMC,030129,A,5442.9015,N,11318.4666,W,000.0,355.7,220819,017.7,E*6A
01DDD3,0225B7,00C4AC,$GPRMC,030130,A,5442.9015,N,11318.4666,W,000.0,355.7,220819,017.7,E*62
01DDD8,0225BD,00C4AE,$GPRMC,030131,A,5442.9015,N,11318.4666,W,000.0,355.7,220819,017.7,E*63
01DDD3,0225B7,00C4AB,$GPRMC,030132,A,5442.9016,N,11318.4666,W,000.0,355.7,220819,017.7,E*63
01DDD6,0225BC,00C4AD,$GPRMC,030133,A,5442.9016,N,11318.4666,W,000.0,355.7,220819,017.7,E*62
01DDD3,0225B6,00C4AC,$GPRMC,030134,A,5442.9016,N,11318.4666,W,000.0,355.7,220819,017.7,E*65
01DDD8,0225BE,00C4AF,$GPRMC,030135,A,5442.9017,N,11318.4665,W,000.0,355.7,220819,017.7,E*66
01DDD3,0225B7,00C4AC,$GPRMC,030136,A,5442.9017,N,11318.4665,W,000.0,355.7,220819,017.7,E*65
01DDD8,0225BC,00C4AE,$GPRMC,030137,A,5442.9017,N,11318.4665,W,000.0,355.7,220819,017.7,E*64
01DDD9,0225C0,00C4B0,$GPRMC,030138,A,5442.9018,N,11318.4665,W,000.0,355.7,220819,017.7,E*64
01DDD8,0225BE,00C4AF,$GPRMC,030139,A,5442.9018,N,11318.4665,W,000.0,355.7,220819,017.7,E*65
01DDD8,0225BF,00C4AF,$GPRMC,030140,A,5442.9018,N,11318.4665,W,000.0,355.7,220819,017.7,E*6B
01DDDB,0225C2,00C4B1,$GPRMC,030141,A,5442.9019,N,11318.4665,W,000.0,355.7,220819,017.7,E*6B
01DDD4,0225B9,00C4AD,$GPRMC,030142,A,5442.9019,N,11318.4665,W,000.0,355.7,220819,017.7,E*68
01DDD9,0225C1,00C4B0,$GPRMC,030143,A,5442.9020,N,11318.4665,W,000.0,355.7,220819,017.7,E*63
01DDD7,0225BE,00C4AF,$GPRMC,030144,A,5442.9020,N,11318.4665,W,000.0,355.7,220819,017.7,E*64
01DDD7,0225BD,00C4AF,$GPRMC,030145,A,5442.9020,N,11318.4664,W,000.0,355.7,220819,017.7,E*64
01DDD8,0225BD,00C4AF,$GPRMC,030146,A,5442.9021,N,11318.4664,W,000.0,355.7,220819,017.7,E*66
01DDD9,0225BF,00C4B0,$GPRMC,030147,A,5442.9021,N,11318.4664,W,000.0,355.7,220819,017.7,E*67
01DDD6,0225BB,00C4AF,$GPRMC,030148,A,5442.9021,N,11318.4664,W,000.0,355.7,220819,017.7,E*68
01DDD4,0225B9,00C4AE,$GPRMC,030149,V,5442.9021,N,11318.4664,W,,,220819,017.7,E*7A
01DDD4,0225B9,00C4AE,$GPRMC,030150,V,5442.9021,N,11318.4664,W,,,220819,017.7,E*72
01DDD4,0225B9,00C4AE,$GPRMC,030151,V,5442.9021,N,11318.4664,W,,,220819,017.7,E*73
01DDD4,0225B8,00C4AE,$GPRMC,030152,V,5442.9021,N,11318.4664,W,,,220819,017.7,E*70
01DDD7,0225BD,00C4B0,$GPRMC,030153,V,5442.9021,N,11318.4664,W,,,220819,017.7,E*71
01DDD2,0225B6,00C4AE,$GPRMC,030154,V,5442.9021,N,11318.4664,W,,,220819,017.7,E*76
01DDD5,0225BA,00C4B0,$GPRMC,030155,V,5442.9021,N,11318.4664,W,,,220819,017.7,E*77
01DDD5,0225BB,00C4AF,$GPRMC,030156,V,5442.9021,N,11318.4664,W,,,220819,017.7,E*74
01DDD4,0225B8,00C4AF,$GPRMC,030157,V,5442.9021,N,11318.4664,W,,,220819,017.7,E*75
01DDD6,0225B9,00C4B0,$GPRMC,030158,V,5442.9021,N,11318.4664,W,,,220819,017.7,E*7A
01DDD5,0225B9,00C4B0,$GPRMC,030159,V,5442.9021,N,11318.4664,W,,,220819,017.7,E*7B
01DDD5,0225B8,00C4AF,$GPRMC,030200,V,5442.9021,N,11318.4664,W,,,220819,017.7,E*74
01DDD4,0225B6,00C4AF,$GPRMC,030201,V,5442.9021,N,11318.4664,W,,,220819,017.7,E*75
01DDD7,0225BA,00C4B0,$GPRMC,030202,V,5442.9021,N,11318.4664,W,,,220819,017.7,E*76
01DDD4,0225B5,00C4AF,$GPRMC,030203,V,5442.9021,N,11318.4664,W,,,220819,017.7,E*77
01DDD6,0225B8,00C4B1,$GPRMC,030204,V,5442.9021,N,11318.4664,W,,,220819,017.7,E*70
01DDD4,0225B5,00C4B0,$GPRMC,030205,V,5442.9021,N,11318.4664,W,,,220819,017.7,E*71
01DDD3,0225B4,00C4AF,$GPRMC,030206,V,5442.9021,N,11318.4664,W,,,220819,017.7,E*72
01DDD3,0225B3,00C4AF,$GPRMC,030207,V,5442.9021,N,11318.4664,W,,,220819,017.7,E*73
01DDD5,0225B7,00C4B0,$GPRMC,030208,V,5442.9021,N,11318.4664,W,,,220819,017.7,E*7C
01DDD4,0225B4,00C4AF,$GPRMC,030209,V,5442.9021,N,11318.4664,W,,,220819,017.7,E*7D
01DDD5,0225B6,00C4B0,$GPRMC,030210,V,5442.9021,N,11318.4664,W,,,220819,017.7,E*75
01DDD3,0225B2,00C4AF,$GPRMC,030211,V,5442.9021,N,11318.4664,W,,,220819,017.7,E*74
01DDDA,0225BD,00C4B4,$GPRMC,030212,V,5442.9021,N,11318.4664,W,,,220819,017.7,E*77
01DDD3,0225B1,00C4AF,$GPRMC,030213,V,5442.9021,N,11318.4664,W,,,220819,017.7,E*76
01DDD3,0225B3,00C4B0,$GPRMC,030214,V,5442.9021,N,11318.4664,W,,,220819,017.7,E*71
01DDD2,0225B1,00C4B0,$GPRMC,030215,V,5442.9021,N,11318.4664,W,,,220819,017.7,E*70
01DDD9,0225BB,00C4B4,$GPRMC,030216,V,5442.9021,N,11318.4664,W,,,220819,017.7,E*73
01DDD5,0225B4,00C4B1,$GPRMC,030217,V,5442.9021,N,11318.4664,W,,,220819,017.7,E*72
01DDD5,0225B3,00C4B1,$GPRMC,030218,V,5442.9021,N,11318.4664,W,,,220819,017.7,E*7D
01DDD6,0225B7,00C4B2,$GPRMC,030219,V,5442.9021,N,11318.4664,W,,,220819,017.7,E*7C
01DDD5,0225B5,00C4B2,$GPRMC,030220,V,5442.9021,N,11318.4664,W,,,220819,017.7,E*76
01DDD3,0225B1,00C4B0,$GPRMC,030221,V,5442.9021,N,11318.4664,W,,,220819,017.7,E*77
01DDD5,0225B3,00C4B1,$GPRMC,030222,V,5442.9021,N,11318.4664,W,,,220819,017.7,E*74
01DDCF,0225AA,00C4AE,$GPRMC,030223,V,5442.9021,N,11318.4664,W,,,220819,017.7,E*75
01DDD3,0225B2,00C4B1,$GPRMC,030224,V,5442.9021,N,11318.4664,W,,,220819,017.7,E*72
01DDD3,0225B1,00C4B2,$GPRMC,030225,V,5442.9021,N,11318.4664,W,,,220819,017.7,E*73
01DDD1,0225AD,00C4B0,$GPRMC,030226,V,5442.9021,N,11318.4664,W,,,220819,017.7,E*70
01DDD0,0225AD,00C4B0,$GPRMC,030227,V,5442.9021,N,11318.4664,W,,,220819,017.7,E*71
01DDD0,0225AC,00C4B0,$GPRMC,030228,V,5442.9021,N,11318.4664,W,,,220819,017.7,E*7E
01DDD4,0225B1,00C4B1,$GPRMC,030229,V,5442.9021,N,11318.4664,W,,,220819,017.7,E*7F
01DDCF,0225AB,00C4AF,$GPRMC,030230,A,5442.9591,N,11318.4590,W,000.0,010.1,220819,017.7,E*66
01DDD2,0225AE,00C4B1,$GPRMC,030231,A,5442.9576,N,11318.4589,W,000.0,355.7,220819,017.7,E*62
01DDD5,0225B2,00C4B3,$GPRMC,030232,A,5442.9518,N,11318.4593,W,000.0,355.7,220819,017.7,E*62
01DDD4,0225B0,00C4B2,$GPRMC,030233,A,5442.9490,N,11318.4598,W,000.0,355.7,220819,017.7,E*69
01DDD6,0225B3,00C4B4,$GPRMC,030234,A,5442.9457,N,11318.4606,W,000.0,355.7,220819,017.7,E*61
01DDD2,0225AE,00C4B1,$GPRMC,030235,A,5442.9423,N,11318.4610,W,000.0,355.7,220819,017.7,E*64
01DDD3,0225AE,00C4B1,$GPRMC,030236,A,5442.9397,N,11318.4612,W,000.0,355.7,220819,017.7,E*6D
01DDD4,0225B0,00C4B2,$GPRMC,030237,A,5442.9370,N,11318.4616,W,000.0,355.7,220819,017.7,E*61
01DDD4,0225B0,00C4B2,$GPRMC,030238,A,5442.9354,N,11318.4618,W,000.0,355.7,220819,017.7,E*66
01DDD3,0225B0,00C4B2,$GPRMC,030239,A,5442.9337,N,11318.4620,W,000.0,355.7,220819,017.7,E*69
01DDD2,0225AE,00C4B1,$GPRMC,030240,A,5442.9322,N,11318.4622,W,000.0,355.7,220819,017.7,E*61
01DDD5,0225B2,00C4B3,$GPRMC,030241,A,5442.9306,N,11318.4625,W,000.0,355.7,220819,017.7,E*61
01DDD2,0225AE,00C4B1,$GPRMC,030242,A,5442.9292,N,11318.4628,W,000.0,355.7,220819,017.7,E*63
01DDD0,0225AB,00C4AF,$GPRMC,030243,A,5442.9292,N,11318.4628,W,000.0,355.7,220819,017.7,E*62
01DDD4,0225B1,00C4B2,$GPRMC,030244,A,5442.9292,N,11318.4628,W,000.0,355.7,220819,017.7,E*65
01DDD3,0225B0,00C4B2,$GPRMC,030245,A,5442.9269,N,11318.4629,W,000.0,355.7,220819,017.7,E*61
01DDD1,0225AD,00C4B1,$GPRMC,030246,A,5442.9254,N,11318.4630,W,000.0,355.7,220819,017.7,E*64
01DDD3,0225B1,00C4B2,$GPRMC,030247,A,5442.9245,N,11318.4631,W,000.0,355.7,220819,017.7,E*64
01DDD3,0225B1,00C4B3,$GPRMC,030248,A,5442.9240,N,11318.4632,W,000.0,355.7,220819,017.7,E*6D
01DDD1,0225AE,00C4B1,$GPRMC,030249,A,5442.9235,N,11318.4632,W,000.0,355.7,220819,017.7,E*6E
01DDD4,0225B3,00C4B2,$GPRMC,030250,A,5442.9230,N,11318.4633,W,000.0,355.7,220819,017.7,E*62
01DDD3,0225B2,00C4B2,$GPRMC,030251,A,5442.9218,N,11318.4637,W,000.0,355.7,220819,017.7,E*6D
01DDD2,0225B0,00C4B1,$GPRMC,030252,A,5442.9209,N,11318.4640,W,000.0,355.7,220819,017.7,E*6E
01DDD0,0225AE,00C4B0,$GPRMC,030253,A,5442.9203,N,11318.4642,W,000.0,355.7,220819,017.7,E*67
01DDD6,0225B6,00C4B4,$GPRMC,030254,A,5442.9198,N,11318.4643,W,000.0,355.7,220819,017.7,E*60
01DDD6,0225B6,00C4B4,$GPRMC,030255,A,5442.9196,N,11318.4644,W,000.0,355.7,220819,017.7,E*68
01DDD2,0225B1,00C4B2,$GPRMC,030256,A,5442.9194,N,11318.4645,W,000.0,355.7,220819,017.7,E*68
01DDD5,0225B4,00C4B3,$GPRMC,030257,A,5442.9193,N,11318.4645,W,000.0,355.7,220819,017.7,E*6E
01DDD4,0225B4,00C4B3,$GPRMC,030258,A,5442.9192,N,11318.4646,W,000.0,355.7,220819,017.7,E*63
01DDD2,0225B1,00C4B2,$GPRMC,030259,A,5442.9191,N,11318.4646,W,000.0,355.7,220819,017.7,E*61
01DDD5,0225B5,00C4B4,$GPRMC,030300,A,5442.9189,N,11318.4647,W,000.0,355.7,220819,017.7,E*64
01DDD2,0225B1,00C4B2,$GPRMC,030301,A,5442.9178,N,11318.4648,W,000.0,355.7,220819,017.7,E*64
01DDD3,0225B2,00C4B2,$GPRMC,030302,A,5442.9167,N,11318.4650,W,000.0,355.7,220819,017.7,E*60
01DDD4,0225B3,00C4B2,$GPRMC,030303,A,5442.9158,N,11318.4651,W,000.0,355.7,220819,017.7,E*6C
01DDD4,0225B3,00C4B3,$GPRMC,030304,A,5442.9149,N,11318.4653,W,000.0,355.7,220819,017.7,E*69
01DDD4,0225B2,00C4B3,$GPRMC,030305,A,5442.9141,N,11318.4654,W,000.0,355.7,220819,017.7,E*67
01DDD4,0225B1,00C4B2,$GPRMC,030306,A,5442.9136,N,11318.4654,W,000.0,355.7,220819,017.7,E*64
01DDD3,0225B1,00C4B1,$GPRMC,030307,A,5442.9128,N,11318.4656,W,000.0,355.7,220819,017.7,E*68
01DDD5,0225B3,00C4B3,$GPRMC,030308,A,5442.9123,N,11318.4658,W,000.0,355.7,220819,017.7,E*62
01DDD4,0225B2,00C4B3,$GPRMC,030309,A,5442.9116,N,11318.4660,W,000.0,355.7,220819,017.7,E*6E
01DDD3,0225B0,00C4B2,$GPRMC,030310,A,5442.9110,N,11318.4662,W,000.0,355.7,220819,017.7,E*62
01DDD4,0225B1,00C4B3,$GPRMC,030311,A,5442.9105,N,11318.4663,W,000.0,355.7,220819,017.7,E*66
01DDD5,0225B2,00C4B3,$GPRMC,030312,A,5442.9106,N,11318.4662,W,000.0,355.7,220819,017.7,E*67
01DDD1,0225AC,00C4B0,$GPRMC,030313,A,5442.9108,N,11318.4662,W,000.0,355.7,220819,017.7,E*68
01DDD5,0225B1,00C4B2,$GPRMC,030314,A,5442.9109,N,11318.4663,W,000.0,355.7,220819,017.7,E*6F
01DDD4,0225B1,00C4B2,$GPRMC,030315,A,5442.9109,N,11318.4664,W,000.0,355.7,220819,017.7,E*69
01DDD4,0225B0,00C4B2,$GPRMC,030316,A,5442.9108,N,11318.4665,W,000.0,355.7,220819,017.7,E*6A
01DDD6,0225B4,00C4B4,$GPRMC,030317,A,5442.9107,N,11318.4666,W,000.0,355.7,220819,017.7,E*67
01DDD2,0225AD,00C4B1,$GPRMC,030318,A,5442.9112,N,11318.4664,W,000.0,355.7,220819,017.7,E*6E
01DDD5,0225B1,00C4B3,$GPRMC,030319,A,5442.9117,N,11318.4662,W,000.0,355.7,220819,017.7,E*6C
01DDD0,0225AA,00C4B0,$GPRMC,030320,A,5442.9120,N,11318.4660,W,000.0,355.7,220819,017.7,E*60
01DDD0,0225AB,00C4B0,$GPRMC,030321,A,5442.9123,N,11318.4659,W,000.0,355.7,220819,017.7,E*68
01DDD1,0225AB,00C4B0,$GPRMC,030322,A,5442.9130,N,11318.4656,W,000.0,355.7,220819,017.7,E*66
01DDD5,0225B2,00C4B3,$GPRMC,030323,A,5442.9129,N,11318.4658,W,000.0,355.7,220819,017.7,E*61
01DDD6,0225B2,00C4B4,$GPRMC,030324,A,5442.9125,N,11318.4660,W,000.0,355.7,220819,017.7,E*61
01DDD1,0225AD,00C4B1,$GPRMC,030325,A,5442.9127,N,11318.4658,W,000.0,355.7,220819,017.7,E*69
01DDD6,0225B2,00C4B4,$GPRMC,030326,A,5442.9130,N,11318.4657,W,000.0,355.7,220819,017.7,E*63
01DDD6,0225B4,00C4B5,$GPRMC,030327,A,5442.9131,N,11318.4657,W,000.0,355.7,220819,017.7,E*63
01DDD5,0225B1,00C4B4,$GPRMC,030328,A,5442.9132,N,11318.4656,W,000.0,355.7,220819,017.7,E*6E
01DDD0,0225AC,00C4B2,$GPRMC,030329,A,5442.9132,N,11318.4656,W,000.0,355.7,220819,017.7,E*6F
01DDD4,0225AF,00C4B3,$GPRMC,030330,A,5442.9132,N,11318.4656,W,000.0,355.7,220819,017.7,E*67
01DDD4,0225AF,00C4B3,$GPRMC,030331,A,5442.9129,N,11318.4657,W,000.0,355.7,220819,017.7,E*6D
01DDD5,0225B0,00C4B3,$GPRMC,030332,A,5442.9128,N,11318.4657,W,000.0,355.7,220819,017.7,E*6F
01DDD4,0225AE,00C4B3,$GPRMC,030333,A,5442.9126,N,11318.4658,W,000.0,355.7,220819,017.7,E*6F
01DDD1,0225A9,00C4B0,$GPRMC,030334,A,5442.9118,N,11318.4661,W,000.0,355.7,220819,017.7,E*6F
01DDD4,0225AF,00C4B3,$GPRMC,030335,A,5442.9108,N,11318.4663,W,000.0,355.7,220819,017.7,E*6D
01DDD4,0225AD,00C4B3,$GPRMC,030336,A,5442.9098,N,11318.4666,W,000.0,355.7,220819,017.7,E*63
01DDD3,0225AB,00C4B1,$GPRMC,030337,A,5442.9088,N,11318.4669,W,000.0,355.7,220819,017.7,E*6C
01DDD2,0225AB,00C4B0,$GPRMC,030338,A,5442.9083,N,11318.4671,W,000.0,355.7,220819,017.7,E*61
01DDD8,0225B3,00C4B4,$GPRMC,030339,A,5442.9079,N,11318.4672,W,000.0,355.7,220819,017.7,E*66
01DDD6,0225B1,00C4B4,$GPRMC,030340,A,5442.9076,N,11318.4674,W,000.0,355.7,220819,017.7,E*61
01DDD5,0225AF,00C4B3,$GPRMC,030341,A,5442.9072,N,11318.4675,W,000.0,355.7,220819,017.7,E*65
01DDD4,0225AD,00C4B2,$GPRMC,030342,A,5442.9068,N,11318.4677,W,000.0,355.7,220819,017.7,E*6F
01DDDA,0225B7,00C4B6,$GPRMC,030343,A,5442.9065,N,11318.4678,W,000.0,355.7,220819,017.7,E*6C
01DDD7,0225B2,00C4B5,$GPRMC,030344,A,5442.9061,N,11318.4680,W,000.0,355.7,220819,017.7,E*68
01DDD6,0225B2,00C4B4,$GPRMC,030345,A,5442.9059,N,11318.4681,W,000.0,355.7,220819,017.7,E*63
01DDD8,0225B3,00C4B4,$GPRMC,030346,A,5442.9058,N,11318.4683,W,000.0,355.7,220819,017.7,E*63
01DDD6,0225B1,00C4B3,$GPRMC,030347,A,5442.9056,N,11318.4684,W,000.0,355.7,220819,017.7,E*6B
01DDD6,0225B2,00C4B4,$GPRMC,030348,A,5442.9057,N,11318.4685,W,000.0,355.7,220819,017.7,E*64
01DDD7,0225B3,00C4B5,$GPRMC,030349,A,5442.9059,N,11318.4686,W,000.0,355.7,220819,017.7,E*68
01DDD5,0225B0,00C4B3,$GPRMC,030350,A,5442.9061,N,11318.4686,W,000.0,355.7,220819,017.7,E*6B
01DDD6,0225B3,00C4B4,$GPRMC,030351,A,5442.9065,N,11318.4686,W,000.0,355.7,220819,017.7,E*6E
01DDD8,0225B4,00C4B5,$GPRMC,030352,A,5442.9061,N,11318.4689,W,000.0,355.7,220819,017.7,E*66
01DDD5,0225B0,00C4B3,$GPRMC,030353,A,5442.9065,N,11318.4689,W,000.0,355.7,220819,017.7,E*63
01DDD5,0225AF,00C4B2,$GPRMC,030354,A,5442.9069,N,11318.4689,W,000.0,355.7,220819,017.7,E*68
01DDD7,0225B2,00C4B4,$GPRMC,030355,A,5442.9074,N,11318.4690,W,000.0,355.7,220819,017.7,E*6D
01DDD6,0225B2,00C4B3,$GPRMC,030356,A,5442.9080,N,11318.4690,W,000.0,355.7,220819,017.7,E*65
01DDD5,0225B2,00C4B2,$GPRMC,030357,A,5442.9085,N,11318.4691,W,000.0,355.7,220819,017.7,E*60
01DDD4,0225B0,00C4B2,$GPRMC,030358,A,5442.9091,N,11318.4691,W,000.0,355.7,220819,017.7,E*6A
01DDD8,0225B5,00C4B4,$GPRMC,030359,A,5442.9097,N,11318.4691,W,000.0,355.7,220819,017.7,E*6D
01DDD8,0225B5,00C4B5,$GPRMC,030400,A,5442.9102,N,11318.4691,W,000.0,355.7,220819,017.7,E*6B
01DDD7,0225B3,00C4B3,$GPRMC,030401,A,5442.9107,N,11318.4692,W,000.0,355.7,220819,017.7,E*6C
01DDD4,0225B1,00C4B2,$GPRMC,030402,A,5442.9111,N,11318.4692,W,000.0,355.7,220819,017.7,E*68
01DDD6,0225B4,00C4B3,$GPRMC,030403,A,5442.9116,N,11318.4692,W,000.0,355.7,220819,017.7,E*6E
01DDD5,0225B2,00C4B2,$GPRMC,030404,A,5442.9120,N,11318.4693,W,000.0,355.7,220819,017.7,E*6D
01DDD7,0225B4,00C4B4,$GPRMC,030405,A,5442.9118,N,11318.4693,W,000.0,355.7,220819,017.7,E*67
01DDD7,0225B5,00C4B4,$GPRMC,030406,A,5442.9116,N,11318.4694,W,000.0,355.7,220819,017.7,E*6D
01DDD7,0225B6,00C4B4,$GPRMC,030407,A,5442.9115,N,11318.4694,W,000.0,355.7,220819,017.7,E*6F
01DDD7,0225B5,00C4B3,$GPRMC,030408,A,5442.9113,N,11318.4694,W,000.0,355.7,220819,017.7,E*66
01DDD7,0225B3,00C4B3,$GPRMC,030409,A,5442.9111,N,11318.4694,W,000.0,355.7,220819,017.7,E*65
01DDD5,0225B3,00C4B2,$GPRMC,030410,A,5442.9113,N,11318.4690,W,000.0,355.7,220819,017.7,E*6B
01DDD7,0225B4,00C4B3,$GPRMC,030411,A,5442.9110,N,11318.4690,W,000.0,355.7,220819,017.7,E*69
01DDD2,0225AE,00C4B0,$GPRMC,030412,A,5442.9109,N,11318.4689,W,000.0,355.7,220819,017.7,E*6A
01DDD7,0225B5,00C4B3,$GPRMC,030413,A,5442.9106,N,11318.4688,W,000.0,355.7,220819,017.7,E*65
01DDD6,0225B2,00C4B2,$GPRMC,030414,A,5442.9105,N,11318.4687,W,000.0,355.7,220819,017.7,E*6E
01DDD3,0225B0,00C4B1,$GPRMC,030415,A,5442.9104,N,11318.4686,W,000.0,355.7,220819,017.7,E*6F
01DDD6,0225B2,00C4B3,$GPRMC,030416,A,5442.9104,N,11318.4685,W,000.0,355.7,220819,017.7,E*6F
01DDD4,0225B1,00C4B2,$GPRMC,030417,A,5442.9107,N,11318.4683,W,000.0,355.7,220819,017.7,E*6B
01DDD7,0225B4,00C4B3,$GPRMC,030418,A,5442.9106,N,11318.4682,W,000.0,355.7,220819,017.7,E*64
01DDD3,0225AF,00C4B0,$GPRMC,030419,A,5442.9108,N,11318.4680,W,000.0,355.7,220819,017.7,E*69
01DDD2,0225AE,00C4B0,$GPRMC,030420,A,5442.9111,N,11318.4678,W,000.0,355.7,220819,017.7,E*6C
01DDD5,0225B2,00C4B2,$GPRMC,030421,A,5442.9114,N,11318.4676,W,000.0,355.7,220819,017.7,E*66
01DDD5,0225B3,00C4B2,$GPRMC,030422,A,5442.9117,N,11318.4675,W,000.0,355.7,220819,017.7,E*65
01DDD4,0225B0,00C4B1,$GPRMC,030423,A,5442.9120,N,11318.4673,W,000.0,355.7,220819,017.7,E*66
01DDD4,0225B1,00C4B1,$GPRMC,030424,A,5442.9124,N,11318.4671,W,000.0,355.7,220819,017.7,E*67
01DDD3,0225AF,00C4B0,$GPRMC,030425,A,5442.9129,N,11318.4669,W,000.0,355.7,220819,017.7,E*62
01DDD3,0225B0,00C4B0,$GPRMC,030426,A,5442.9135,N,11318.4668,W,000.0,355.7,220819,017.7,E*6D
01DDD4,0225B1,00C4B1,$GPRMC,030427,A,5442.9141,N,11318.4666,W,000.0,355.7,220819,017.7,E*61
01DDD7,0225B5,00C4B2,$GPRMC,030428,A,5442.9147,N,11318.4665,W,000.0,355.7,220819,017.7,E*6B
01DDD4,0225B1,00C4B1,$GPRMC,030429,A,5442.9151,N,11318.4664,W,000.0,355.7,220819,017.7,E*6C
01DDD4,0225B2,00C4B1,$GPRMC,030430,A,5442.9155,N,11318.4663,W,000.0,355.7,220819,017.7,E*67
01DDD7,0225B6,00C4B3,$GPRMC,030431,A,5442.9158,N,11318.4662,W,000.0,355.7,220819,017.7,E*6A
01DDD6,0225B5,00C4B3,$GPRMC,030432,A,5442.9160,N,11318.4661,W,000.0,355.7,220819,017.7,E*61
01DDD5,0225B2,00C4B2,$GPRMC,030433,A,5442.9161,N,11318.4661,W,000.0,355.7,220819,017.7,E*61
01DDD8,0225B6,00C4B4,$GPRMC,030434,A,5442.9161,N,11318.4660,W,000.0,355.7,220819,017.7,E*67
01DDD9,0225BA,00C4B5,$GPRMC,030435,A,5442.9160,N,11318.4659,W,000.0,355.7,220819,017.7,E*6D
01DDD5,0225B3,00C4B2,$GPRMC,030436,A,5442.9159,N,11318.4659,W,000.0,355.7,220819,017.7,E*64
01DDD6,0225B4,00C4B2,$GPRMC,030437,A,5442.9157,N,11318.4658,W,000.0,355.7,220819,017.7,E*6A
01DDD6,0225B2,00C4B1,$GPRMC,030438,A,5442.9156,N,11318.4658,W,000.0,355.7,220819,017.7,E*64
01DDD8,0225B8,00C4B3,$GPRMC,030439,A,5442.9153,N,11318.4657,W,000.0,355.7,220819,017.7,E*6F
01DDD7,0225B6,00C4B3,$GPRMC,030440,A,5442.9150,N,11318.4657,W,000.0,355.7,220819,017.7,E*62
01DDD4,0225B4,00C4B1,$GPRMC,030441,A,5442.9147,N,11318.4656,W,000.0,355.7,220819,017.7,E*64
01DDD5,0225B4,00C4B2,$GPRMC,030442,A,5442.9144,N,11318.4656,W,000.0,355.7,220819,017.7,E*64
01DDD7,0225B7,00C4B3,$GPRMC,030443,A,5442.9141,N,11318.4655,W,000.0,355.7,220819,017.7,E*63
01DDD4,0225B3,00C4B2,$GPRMC,030444,A,5442.9137,N,11318.4654,W,000.0,355.7,220819,017.7,E*64
01DDD8,0225B8,00C4B3,$GPRMC,030445,A,5442.9133,N,11318.4654,W,000.0,355.7,220819,017.7,E*61
01DDD7,0225B9,00C4B3,$GPRMC,030446,A,5442.9130,N,11318.4653,W,000.0,355.7,220819,017.7,E*66
01DDD2,0225B0,00C4AF,$GPRMC,030447,A,5442.9127,N,11318.4653,W,000.0,355.7,220819,017.7,E*61
01DDD4,0225B4,00C4B2,$GPRMC,030448,A,5442.9126,N,11318.4651,W,000.0,355.7,220819,017.7,E*6D
01DDD4,0225B4,00C4B1,$GPRMC,030449,A,5442.9125,N,11318.4649,W,000.0,355.7,220819,017.7,E*66
01DDD4,0225B3,00C4B1,$GPRMC,030450,A,5442.9125,N,11318.4647,W,000.0,355.7,220819,017.7,E*60
01DDD4,0225B4,00C4B1,$GPRMC,030451,A,5442.9131,N,11318.4646,W,000.0,355.7,220819,017.7,E*65
01DDD2,0225B1,00C4B1,$GPRMC,030452,A,5442.9137,N,11318.4644,W,000.0,355.7,220819,017.7,E*62
01DDD4,0225B4,00C4B1,$GPRMC,030453,A,5442.9143,N,11318.4643,W,000.0,355.7,220819,017.7,E*67
01DDD3,0225B2,00C4B0,$GPRMC,030454,A,5442.9149,N,11318.4641,W,000.0,355.7,220819,017.7,E*68
01DDD1,0225B1,00C4AF,$GPRMC,030455,A,5442.9156,N,11318.4639,W,000.0,355.7,220819,017.7,E*68
01DDD7,0225B8,00C4B3,$GPRMC,030456,A,5442.9163,N,11318.4637,W,000.0,355.7,220819,017.7,E*63
01DDD2,0225B1,00C4B0,$GPRMC,030457,A,5442.9169,N,11318.4635,W,000.0,355.7,220819,017.7,E*6A
01DDD0,0225AF,00C4AF,$GPRMC,030458,A,5442.9164,N,11318.4638,W,000.0,355.7,220819,017.7,E*65
01DDD2,0225B2,00C4B1,$GPRMC,030459,A,5442.9151,N,11318.4645,W,000.0,355.7,220819,017.7,E*68
01DDD6,0225B7,00C4B2,$GPRMC,030500,A,5442.9151,N,11318.4648,W,000.0,355.7,220819,017.7,E*68
01DDD4,0225B5,00C4B1,$GPRMC,030501,A,5442.9150,N,11318.4651,W,000.0,355.7,220819,017.7,E*60
01DDD3,0225B5,00C4B1,$GPRMC,030502,A,5442.9150,N,11318.4654,W,000.0,355.7,220819,017.7,E*66
01DDD2,0225B1,00C4B0,$GPRMC,030503,A,5442.9155,N,11318.4651,W,000.0,355.7,220819,017.7,E*67
01DDD2,0225B3,00C4B1,$GPRMC,030504,A,5442.9159,N,11318.4648,W,000.0,355.7,220819,017.7,E*64
01DDD4,0225B6,00C4B2,$GPRMC,030505,A,5442.9161,N,11318.4649,W,000.0,355.7,220819,017.7,E*6F
01DDD5,0225B7,00C4B1,$GPRMC,030506,A,5442.9164,N,11318.4647,W,000.0,355.7,220819,017.7,E*67
01DDD0,0225B0,00C4AE,$GPRMC,030507,A,5442.9171,N,11318.4640,W,000.0,355.7,220819,017.7,E*65
01DDD3,0225B3,00C4B0,$GPRMC,030508,A,5442.9174,N,11318.4639,W,000.0,355.7,220819,017.7,E*61
01DDD4,0225B6,00C4B1,$GPRMC,030509,A,5442.9177,N,11318.4638,W,000.0,355.7,220819,017.7,E*62
01DDCF,0225AF,00C4AE,$GPRMC,030510,A,5442.9180,N,11318.4638,W,000.0,355.7,220819,017.7,E*62
01DDD2,0225B3,00C4AF,$GPRMC,030511,A,5442.9182,N,11318.4638,W,000.0,355.7,220819,017.7,E*61
01DDCF,0225AF,00C4AD,$GPRMC,030512,A,5442.9183,N,11318.4637,W,000.0,355.7,220819,017.7,E*6C
01DDCF,0225B0,00C4AE,$GPRMC,030513,A,5442.9186,N,11318.4636,W,000.0,355.7,220819,017.7,E*69
01DDCE,0225AF,00C4AE,$GPRMC,030514,A,5442.9188,N,11318.4636,W,000.0,355.7,220819,017.7,E*60
01DDD0,0225B3,00C4AF,$GPRMC,030515,A,5442.9189,N,11318.4637,W,000.0,355.7,220819,017.7,E*61
01DDCE,0225B0,00C4AD,$GPRMC,030516,A,5442.9193,N,11318.4636,W,000.0,355.7,220819,017.7,E*68
01DDD4,0225B8,00C4B2,$GPRMC,030517,A,5442.9195,N,11318.4635,W,000.0,355.7,220819,017.7,E*6C
01DDD1,0225B4,00C4AF,$GPRMC,030518,A,5442.9199,N,11318.4634,W,000.0,355.7,220819,017.7,E*6E
01DDD3,0225B7,00C4B1,$GPRMC,030519,A,5442.9201,N,11318.4633,W,000.0,355.7,220819,017.7,E*6A
01DDD4,0225B8,00C4B1,$GPRMC,030520,A,5442.9205,N,11318.4632,W,000.0,355.7,220819,017.7,E*65
01DDD2,0225B5,00C4AF,$GPRMC,030521,A,5442.9207,N,11318.4632,W,000.0,355.7,220819,017.7,E*66
01DDD5,0225BA,00C4B1,$GPRMC,030522,A,5442.9211,N,11318.4632,W,000.0,355.7,220819,017.7,E*62
01DDD5,0225B9,00C4B1,$GPRMC,030523,A,5442.9215,N,11318.4631,W,000.0,355.7,220819,017.7,E*64
01DDD5,0225BA,00C4B2,$GPRMC,030524,A,5442.9214,N,11318.4635,W,000.0,355.7,220819,017.7,E*66
01DDD1,0225B4,00C4AF,$GPRMC,030525,A,5442.9215,N,11318.4636,W,000.0,355.7,220819,017.7,E*65
01DDD0,0225B3,00C4AE,$GPRMC,030526,A,5442.9218,N,11318.4636,W,000.0,355.7,220819,017.7,E*6B
01DDD3,0225B8,00C4B0,$GPRMC,030527,A,5442.9220,N,11318.4635,W,000.0,355.7,220819,017.7,E*62
01DDCE,0225B0,00C4AD,$GPRMC,030528,A,5442.9222,N,11318.4635,W,000.0,355.7,220819,017.7,E*6F
01DDD3,0225B8,00C4B1,$GPRMC,030529,A,5442.9223,N,11318.4634,W,000.0,355.7,220819,017.7,E*6E
01DDD0,0225B3,00C4AF,$GPRMC,030530,A,5442.9223,N,11318.4633,W,000.0,355.7,220819,017.7,E*61
01DDD4,0225B8,00C4B1,$GPRMC,030531,A,5442.9221,N,11318.4634,W,000.0,355.7,220819,017.7,E*65
01DDD6,0225BC,00C4B2,$GPRMC,030532,A,5442.9219,N,11318.4635,W,000.0,355.7,220819,017.7,E*6C
01DDD0,0225B3,00C4AE,$GPRMC,030533,A,5442.9214,N,11318.4636,W,000.0,355.7,220819,017.7,E*63
01DDD2,0225B7,00C4B0,$GPRMC,030534,A,5442.9209,N,11318.4637,W,000.0,355.7,220819,017.7,E*69
01DDD3,0225B8,00C4B0,$GPRMC,030535,A,5442.9196,N,11318.4640,W,000.0,355.7,220819,017.7,E*6D
01DDD6,0225BB,00C4B2,$GPRMC,030536,A,5442.9183,N,11318.4643,W,000.0,355.7,220819,017.7,E*69
01DDD4,0225BA,00C4B1,$GPRMC,030537,A,5442.9170,N,11318.4646,W,000.0,355.7,220819,017.7,E*61
01DDCF,0225B4,00C4AF,$GPRMC,030538,A,5442.9155,N,11318.4649,W,000.0,355.7,220819,017.7,E*66
01DDD5,0225BD,00C4B2,$GPRMC,030539,A,5442.9155,N,11318.4646,W,000.0,355.7,220819,017.7,E*68
01DDD2,0225B8,00C4B0,$GPRMC,030540,A,5442.9154,N,11318.4644,W,000.0,355.7,220819,017.7,E*65
01DDD2,0225B9,00C4B0,$GPRMC,030541,A,5442.9150,N,11318.4646,W,000.0,355.7,220819,017.7,E*62
01DDD1,0225B7,00C4AF,$GPRMC,030542,A,5442.9146,N,11318.4647,W,000.0,355.7,220819,017.7,E*67
01DDD5,0225BE,00C4B2,$GPRMC,030543,A,5442.9135,N,11318.4650,W,000.0,355.7,220819,017.7,E*64
01DDD3,0225BB,00C4B1,$GPRMC,030544,A,5442.9134,N,11318.4651,W,000.0,355.7,220819,017.7,E*63
01DDD1,0225B9,00C4B0,$GPRMC,030545,A,5442.9132,N,11318.4652,W,000.0,355.7,220819,017.7,E*67
01DDD6,0225C0,00C4B2,$GPRMC,030546,A,5442.9133,N,11318.4652,W,000.0,355.7,220819,017.7,E*65
01DDD4,0225BE,00C4B1,$GPRMC,030547,A,5442.9132,N,11318.4652,W,000.0,355.7,220819,017.7,E*65
01DDCF,0225B8,00C4AF,$GPRMC,030548,A,5442.9136,N,11318.4653,W,000.0,355.7,220819,017.7,E*6F
01DDD2,0225BB,00C4B1,$GPRMC,030549,A,5442.9139,N,11318.4653,W,000.0,355.7,220819,017.7,E*61
01DDCE,0225B6,00C4AE,$GPRMC,030550,A,5442.9138,N,11318.4654,W,000.0,355.7,220819,017.7,E*6F
01DDD4,0225BF,00C4B2,$GPRMC,030551,A,5442.9143,N,11318.4654,W,000.0,355.7,220819,017.7,E*62
01DDD0,0225B8,00C4AF,$GPRMC,030552,A,5442.9148,N,11318.4653,W,000.0,355.7,220819,017.7,E*6D
01DDD3,0225BD,00C4B0,$GPRMC,030553,A,5442.9152,N,11318.4652,W,000.0,355.7,220819,017.7,E*66
01DDD5,0225C1,00C4B2,$GPRMC,030554,A,5442.9156,N,11318.4651,W,000.0,355.7,220819,017.7,E*66
01DDD3,0225BE,00C4B2,$GPRMC,030555,A,5442.9161,N,11318.4650,W,000.0,355.7,220819,017.7,E*62
01DDD2,0225BD,00C4B1,$GPRMC,030556,A,5442.9164,N,11318.4648,W,000.0,355.7,220819,017.7,E*6D
01DDD1,0225BB,00C4B0,$GPRMC,030557,A,5442.9167,N,11318.4646,W,000.0,355.7,220819,017.7,E*61
01DDD3,0225BE,00C4B1,$GPRMC,030558,A,5442.9170,N,11318.4644,W,000.0,355.7,220819,017.7,E*6A
01DDCF,0225BA,00C4AF,$GPRMC,030559,A,5442.9173,N,11318.4643,W,000.0,355.7,220819,017.7,E*6F
01DDD2,0225BC,00C4B0,$GPRMC,030600,A,5442.9176,N,11318.4642,W,000.0,355.7,220819,017.7,E*64
01DDD3,0225BF,00C4B1,$GPRMC,030601,A,5442.9176,N,11318.4642,W,000.0,355.7,220819,017.7,E*65
01DDCE,0225B7,00C4AD,$GPRMC,030602,A,5442.9176,N,11318.4641,W,000.0,355.7,220819,017.7,E*65
01DDD3,0225BE,00C4B0,$GPRMC,030603,A,5442.9176,N,11318.4642,W,000.0,355.7,220819,017.7,E*67
01DDD2,0225BE,00C4B0,$GPRMC,030604,A,5442.9176,N,11318.4642,W,000.0,355.7,220819,017.7,E*60
01DDD1,0225BD,00C4B0,$GPRMC,030605,A,5442.9177,N,11318.4643,W,000.0,355.7,220819,017.7,E*61
01DDD3,0225C1,00C4B1,$GPRMC,030606,A,5442.9178,N,11318.4642,W,000.0,355.7,220819,017.7,E*6C
01DDD0,0225BC,00C4AF,$GPRMC,030607,A,5442.9180,N,11318.4641,W,000.0,355.7,220819,017.7,E*69
01DDD4,0225C2,00C4B2,$GPRMC,030608,A,5442.9183,N,11318.4640,W,000.0,355.7,220819,017.7,E*64
01DDD6,0225C5,00C4B2,$GPRMC,030609,A,5442.9186,N,11318.4638,W,000.0,355.7,220819,017.7,E*6F
01DDD2,0225C1,00C4B1,$GPRMC,030610,A,5442.9189,N,11318.4636,W,000.0,355.7,220819,017.7,E*66
01DDD3,0225C3,00C4B2,$GPRMC,030611,A,5442.9192,N,11318.4636,W,000.0,355.7,220819,017.7,E*6D
01DDD5,0225C6,00C4B3,$GPRMC,030612,A,5442.9195,N,11318.4637,W,000.0,355.7,220819,017.7,E*68
01DDD4,0225C6,00C4B3,$GPRMC,030613,A,5442.9199,N,11318.4637,W,000.0,355.7,220819,017.7,E*65
01DDD3,0225C3,00C4B1,$GPRMC,030614,A,5442.9202,N,11318.4637,W,000.0,355.7,220819,017.7,E*63
01DDD2,0225C3,00C4B1,$GPRMC,030615,A,5442.9205,N,11318.4637,W,000.0,355.7,220819,017.7,E*65
01DDD4,0225C6,00C4B2,$GPRMC,030616,A,5442.9208,N,11318.4638,W,000.0,355.7,220819,017.7,E*64
01DDD4,0225C6,00C4B2,$GPRMC,030617,A,5442.9210,N,11318.4639,W,000.0,355.7,220819,017.7,E*6D
01DDD4,0225C6,00C4B2,$GPRMC,030618,A,5442.9210,N,11318.4640,W,000.0,355.7,220819,017.7,E*6C
01DDD2,0225C3,00C4B0,$GPRMC,030619,A,5442.9207,N,11318.4644,W,000.0,355.7,220819,017.7,E*6F
01DDD2,0225C4,00C4B1,$GPRMC,030620,A,5442.9205,N,11318.4647,W,000.0,355.7,220819,017.7,E*64
01DDD3,0225C6,00C4B1,$GPRMC,030621,A,5442.9203,N,11318.4650,W,000.0,355.7,220819,017.7,E*65
01DDD5,0225C7,00C4B1,$GPRMC,030622,A,5442.9202,N,11318.4653,W,000.0,355.7,220819,017.7,E*64
01DDD2,0225C3,00C4B0,$GPRMC,030623,A,5442.9201,N,11318.4656,W,000.0,355.7,220819,017.7,E*63
01DDD5,0225C9,00C4B2,$GPRMC,030624,A,5442.9199,N,11318.4659,W,000.0,355.7,220819,017.7,E*69
01DDD4,0225C7,00C4B1,$GPRMC,030625,A,5442.9198,N,11318.4661,W,000.0,355.7,220819,017.7,E*62
01DDD2,0225C3,00C4B0,$GPRMC,030626,A,5442.9197,N,11318.4664,W,000.0,355.7,220819,017.7,E*6B
01DDD5,0225C7,00C4B2,$GPRMC,030627,A,5442.9198,N,11318.4667,W,000.0,355.7,220819,017.7,E*66
01DDD3,0225C5,00C4B1,$GPRMC,030628,A,5442.9198,N,11318.4669,W,000.0,355.7,220819,017.7,E*67
01DDD0,0225C0,00C4AF,$GPRMC,030629,A,5442.9198,N,11318.4671,W,000.0,355.7,220819,017.7,E*6F
01DDD1,0225C1,00C4B0,$GPRMC,030630,A,5442.9198,N,11318.4672,W,000.0,355.7,220819,017.7,E*64
01DDD0,0225C0,00C4AF,$GPRMC,030631,A,5442.9198,N,11318.4675,W,000.0,355.7,220819,017.7,E*62
01DDD0,0225BF,00C4AE,$GPRMC,030632,A,5442.9197,N,11318.4677,W,000.0,355.7,220819,017.7,E*6C
01DDD2,0225C3,00C4B0,$GPRMC,030633,A,5442.9196,N,11318.4680,W,000.0,355.7,220819,017.7,E*64
01DDD5,0225C7,00C4B2,$GPRMC,030634,A,5442.9195,N,11318.4682,W,000.0,355.7,220819,017.7,E*62
01DDD5,0225C6,00C4B2,$GPRMC,030635,A,5442.9195,N,11318.4683,W,000.0,355.7,220819,017.7,E*62
01DDD1,0225C2,00C4AF,$GPRMC,030636,A,5442.9193,N,11318.4685,W,000.0,355.7,220819,017.7,E*61
01DDD3,0225C4,00C4B0,$GPRMC,030637,A,5442.9192,N,11318.4687,W,000.0,355.7,220819,017.7,E*63
01DDD4,0225C5,00C4B1,$GPRMC,030638,A,5442.9192,N,11318.4688,W,000.0,355.7,220819,017.7,E*63
01DDD3,0225C4,00C4B0,$GPRMC,030639,A,5442.9192,N,11318.4689,W,000.0,355.7,220819,017.7,E*63
01DDD1,0225C1,00C4AF,$GPRMC,030640,A,5442.9191,N,11318.4691,W,000.0,355.7,220819,017.7,E*67
01DDD0,0225C1,00C4AE,$GPRMC,030641,A,5442.9191,N,11318.4692,W,000.0,355.7,220819,017.7,E*65
01DDD1,0225C0,00C4AF,$GPRMC,030642,A,5442.9191,N,11318.4692,W,000.0,355.7,220819,017.7,E*66
01DDD3,0225C3,00C4B0,$GPRMC,030643,A,5442.9192,N,11318.4690,W,000.0,355.7,220819,017.7,E*66
01DDD0,0225BF,00C4AE,$GPRMC,030644,A,5442.9193,N,11318.4690,W,000.0,355.7,220819,017.7,E*60
01DDD1,0225C0,00C4AF,$GPRMC,030645,A,5442.9198,N,11318.4689,W,000.0,355.7,220819,017.7,E*62
01DDCF,0225BE,00C4AF,$GPRMC,030646,A,5442.9203,N,11318.4687,W,000.0,355.7,220819,017.7,E*6E
01DDD2,0225C2,00C4B0,$GPRMC,030647,A,5442.9208,N,11318.4685,W,000.0,355.7,220819,017.7,E*66
01DDD1,0225C0,00C4AF,$GPRMC,030648,A,5442.9213,N,11318.4685,W,000.0,355.7,220819,017.7,E*63
01DDD5,0225C6,00C4B2,$GPRMC,030649,A,5442.9218,N,11318.4685,W,000.0,355.7,220819,017.7,E*69
01DDD4,0225C5,00C4B2,$GPRMC,030650,A,5442.9223,N,11318.4684,W,000.0,355.7,220819,017.7,E*68
01DDD3,0225C4,00C4B1,$GPRMC,030651,A,5442.9227,N,11318.4683,W,000.0,355.7,220819,017.7,E*6A
01DDD3,0225C3,00C4B0,$GPRMC,030652,A,5442.9230,N,11318.4681,W,000.0,355.7,220819,017.7,E*6D
01DDD1,0225C1,00C4AF,$GPRMC,030653,A,5442.9235,N,11318.4681,W,000.0,355.7,220819,017.7,E*69
01DDD1,0225C2,00C4B0,$GPRMC,030654,A,5442.9238,N,11318.4678,W,000.0,355.7,220819,017.7,E*65
01DDCF,0225BF,00C4AE,$GPRMC,030655,A,5442.9241,N,11318.4676,W,000.0,355.7,220819,017.7,E*64
01DDD0,0225C0,00C4AF,$GPRMC,030656,A,5442.9244,N,11318.4673,W,000.0,355.7,220819,017.7,E*67
01DDD4,0225C7,00C4B3,$GPRMC,030657,A,5442.9247,N,11318.4671,W,000.0,355.7,220819,017.7,E*67
01DDD0,0225C0,00C4AF,$GPRMC,030658,A,5442.9251,N,11318.4672,W,000.0,355.7,220819,017.7,E*6C
01DDCD,0225BB,00C4AE,$GPRMC,030659,A,5442.9255,N,11318.4668,W,000.0,355.7,220819,017.7,E*62
01DDD0,0225C2,00C4B0,$GPRMC,030700,A,5442.9258,N,11318.4667,W,000.0,355.7,220819,017.7,E*6D
01DDD2,0225C3,00C4B1,$GPRMC,030701,A,5442.9262,N,11318.4664,W,000.0,355.7,220819,017.7,E*66
01DDCE,0225BE,00C4AE,$GPRMC,030702,A,5442.9265,N,11318.4662,W,000.0,355.7,220819,017.7,E*64
01DDD2,0225C3,00C4B1,$GPRMC,030703,A,5442.9269,N,11318.4664,W,000.0,355.7,220819,017.7,E*6F
01DDD0,0225C0,00C4B0,$GPRMC,030704,A,5442.9274,N,11318.4664,W,000.0,355.7,220819,017.7,E*64
01DDCF,0225C0,00C4B0,$GPRMC,030705,A,5442.9279,N,11318.4665,W,000.0,355.7,220819,017.7,E*69
01DDCD,0225BC,00C4AE,$GPRMC,030706,A,5442.9283,N,11318.4666,W,000.0,355.7,220819,017.7,E*6C
01DDD0,0225BF,00C4AF,$GPRMC,030707,A,5442.9288,N,11318.4666,W,000.0,355.7,220819,017.7,E*66
01DDD1,0225C1,00C4B1,$GPRMC,030708,A,5442.9293,N,11318.4669,W,000.0,355.7,220819,017.7,E*6C
01DDD1,0225C1,00C4B1,$GPRMC,030709,A,5442.9298,N,11318.4671,W,000.0,355.7,220819,017.7,E*6F
01DDCF,0225BE,00C4AF,$GPRMC,030710,A,5442.9303,N,11318.4671,W,000.0,355.7,220819,017.7,E*64
01DDD5,0225C5,00C4B2,$GPRMC,030711,A,5442.9307,N,11318.4672,W,000.0,355.7,220819,017.7,E*62
01DDD2,0225C2,00C4B0,$GPRMC,030712,A,5442.9311,N,11318.4672,W,000.0,355.7,220819,017.7,E*66
01DDCF,0225BD,00C4AF,$GPRMC,030713,A,5442.9314,N,11318.4671,W,000.0,355.7,220819,017.7,E*61
01DDD0,0225BF,00C4AF,$GPRMC,030714,A,5442.9313,N,11318.4669,W,000.0,355.7,220819,017.7,E*68
01DDCF,0225BD,00C4AF,$GPRMC,030715,A,5442.9315,N,11318.4665,W,000.0,355.7,220819,017.7,E*63
01DDD0,0225BF,00C4AF,$GPRMC,030716,A,5442.9318,N,11318.4665,W,000.0,355.7,220819,017.7,E*6D
01DDD1,0225C0,00C4B0,$GPRMC,030717,A,5442.9319,N,11318.4662,W,000.0,355.7,220819,017.7,E*6A
01DDD0,0225BF,00C4B0,$GPRMC,030718,A,5442.9320,N,11318.4660,W,000.0,355.7,220819,017.7,E*6D
01DDD3,0225C3,00C4B2,$GPRMC,030719,A,5442.9321,N,11318.4657,W,000.0,355.7,220819,017.7,E*69
01DDD4,0225C4,00C4B2,$GPRMC,030720,A,5442.9322,N,11318.4655,W,000.0,355.7,220819,017.7,E*62
01DDD2,0225C0,00C4B1,$GPRMC,030721,A,5442.9323,N,11318.4653,W,000.0,355.7,220819,017.7,E*64
01DDD4,0225C4,00C4B2,$GPRMC,030722,A,5442.9324,N,11318.4652,W,000.0,355.7,220819,017.7,E*61
01DDD3,0225C3,00C4B1,$GPRMC,030723,A,5442.9325,N,11318.4650,W,000.0,355.7,220819,017.7,E*63
01DDD3,0225C1,00C4B0,$GPRMC,030724,A,5442.9326,N,11318.4649,W,000.0,355.7,220819,017.7,E*6F
01DDD0,0225BE,00C4AF,$GPRMC,030725,A,5442.9327,N,11318.4649,W,000.0,355.7,220819,017.7,E*6F
01DDD4,0225C3,00C4B2,$GPRMC,030726,A,5442.9329,N,11318.4649,W,000.0,355.7,220819,017.7,E*62
01DDD4,0225C3,00C4B2,$GPRMC,030727,A,5442.9330,N,11318.4649,W,000.0,355.7,220819,017.7,E*6B
01DDD4,0225C3,00C4B2,$GPRMC,030728,A,5442.9332,N,11318.4649,W,000.0,355.7,220819,017.7,E*66
01DDCF,0225BB,00C4AF,$GPRMC,030729,A,5442.9333,N,11318.4648,W,000.0,355.7,220819,017.7,E*67
01DDCF,0225BC,00C4B0,$GPRMC,030730,A,5442.9334,N,11318.4649,W,000.0,355.7,220819,017.7,E*69
01DDD3,0225C2,00C4B2,$GPRMC,030731,A,5442.9335,N,11318.4650,W,000.0,355.7,220819,017.7,E*61
01DDD1,0225BF,00C4B0,$GPRMC,030732,A,5442.9336,N,11318.4650,W,000.0,355.7,220819,017.7,E*61
01DDCF,0225BC,00C4AE,$GPRMC,030733,A,5442.9337,N,11318.4650,W,000.0,355.7,220819,017.7,E*61
01DDCF,0225BC,00C4AF,$GPRMC,030734,A,5442.9338,N,11318.4648,W,000.0,355.7,220819,017.7,E*60
01DDD2,0225C2,00C4B1,$GPRMC,030735,A,5442.9339,N,11318.4647,W,000.0,355.7,220819,017.7,E*6F
01DDD0,0225BE,00C4AF,$GPRMC,030736,A,5442.9341,N,11318.4646,W,000.0,355.7,220819,017.7,E*62
01DDD1,0225C1,00C4B0,$GPRMC,030737,A,5442.9341,N,11318.4646,W,000.0,355.7,220819,017.7,E*63
01DDD2,0225C1,00C4B1,$GPRMC,030738,A,5442.9342,N,11318.4645,W,000.0,355.7,220819,017.7,E*6C
01DDD0,0225BF,00C4B0,$GPRMC,030739,A,5442.9342,N,11318.4645,W,000.0,355.7,220819,017.7,E*6D
01DDD6,0225C7,00C4B3,$GPRMC,030740,A,5442.9342,N,11318.4644,W,000.0,355.7,220819,017.7,E*62
01DDD3,0225C1,00C4B0,$GPRMC,030741,A,5442.9342,N,11318.4643,W,000.0,355.7,220819,017.7,E*64
01DDD2,0225C0,00C4B0,$GPRMC,030742,A,5442.9342,N,11318.4642,W,000.0,355.7,220819,017.7,E*66
01DDCF,0225BC,00C4AF,$GPRMC,030743,A,5442.9342,N,11318.4640,W,000.0,355.7,220819,017.7,E*65
01DDD4,0225C3,00C4B2,$GPRMC,030744,A,5442.9342,N,11318.4639,W,000.0,355.7,220819,017.7,E*6C
01DDD1,0225BF,00C4B1,$GPRMC,030745,A,5442.9342,N,11318.4637,W,000.0,355.7,220819,017.7,E*63
01DDD2,0225C0,00C4B1,$GPRMC,030746,A,5442.9341,N,11318.4636,W,000.0,355.7,220819,017.7,E*62
01DDD2,0225C1,00C4B1,$GPRMC,030747,A,5442.9341,N,11318.4634,W,000.0,355.7,220819,017.7,E*61
01DDD2,0225C2,00C4B2,$GPRMC,030748,A,5442.9341,N,11318.4633,W,000.0,355.7,220819,017.7,E*69
01DDD0,0225BC,00C4B0,$GPRMC,030749,A,5442.9341,N,11318.4631,W,000.0,355.7,220819,017.7,E*6A
01DDD1,0225BE,00C4B0,$GPRMC,030750,A,5442.9341,N,11318.4630,W,000.0,355.7,220819,017.7,E*63
01DDD4,0225C1,00C4B1,$GPRMC,030751,A,5442.9341,N,11318.4628,W,000.0,355.7,220819,017.7,E*6B
01DDD3,0225C3,00C4B2,$GPRMC,030752,A,5442.9341,N,11318.4627,W,000.0,355.7,220819,017.7,E*67
01DDD2,0225C0,00C4B1,$GPRMC,030753,A,5442.9342,N,11318.4626,W,000.0,355.7,220819,017.7,E*64
01DDD4,0225C3,00C4B3,$GPRMC,030754,A,5442.9342,N,11318.4626,W,000.0,355.7,220819,017.7,E*63
01DDD1,0225BE,00C4B0,$GPRMC,030755,A,5442.9343,N,11318.4625,W,000.0,355.7,220819,017.7,E*60
01DDD0,0225BD,00C4AF,$GPRMC,030756,A,5442.9344,N,11318.4625,W,000.0,355.7,220819,017.7,E*64
01DDCF,0225BC,00C4AF,$GPRMC,030757,A,5442.9345,N,11318.4625,W,000.0,355.7,220819,017.7,E*64
01DDD2,0225C1,00C4B2,$GPRMC,030758,A,5442.9346,N,11318.4625,W,000.0,355.7,220819,017.7,E*68
01DDCF,0225BD,00C4B0,$GPRMC,030759,A,5442.9347,N,11318.4627,W,000.0,355.7,220819,017.7,E*6A
01DDD2,0225C1,00C4B1,$GPRMC,030800,A,5442.9349,N,11318.4629,W,000.0,355.7,220819,017.7,E*69
01DDD2,0225C1,00C4B1,$GPRMC,030801,A,5442.9350,N,11318.4630,W,000.0,355.7,220819,017.7,E*68
01DDD2,0225C0,00C4B1,$GPRMC,030802,A,5442.9349,N,11318.4629,W,000.0,355.7,220819,017.7,E*6B
01DDCD,0225BA,00C4AE,$GPRMC,030803,A,5442.9350,N,11318.4628,W,000.0,355.7,220819,017.7,E*63
01DDCF,0225BD,00C4AF,$GPRMC,030804,A,5442.9351,N,11318.4628,W,000.0,355.7,220819,017.7,E*65
01DDCE,0225BC,00C4AF,$GPRMC,030805,A,5442.9349,N,11318.4627,W,000.0,355.7,220819,017.7,E*62
01DDD2,0225C1,00C4B2,$GPRMC,030806,A,5442.9347,N,11318.4625,W,000.0,355.7,220819,017.7,E*6D
01DDD1,0225C0,00C4B1,$GPRMC,030807,A,5442.9346,N,11318.4623,W,000.0,355.7,220819,017.7,E*6B
01DDD0,0225BF,00C4B0,$GPRMC,030808,A,5442.9345,N,11318.4621,W,000.0,355.7,220819,017.7,E*65
01DDD1,0225C1,00C4B1,$GPRMC,030809,A,5442.9344,N,11318.4618,W,000.0,355.7,220819,017.7,E*6F
01DDD1,0225C0,00C4B1,$GPRMC,030810,A,5442.9342,N,11318.4617,W,000.0,355.7,220819,017.7,E*6E
01DDD3,0225C2,00C4B3,$GPRMC,030811,A,5442.9341,N,11318.4616,W,000.0,355.7,220819,017.7,E*6D
01DDD0,0225BE,00C4B0,$GPRMC,030812,A,5442.9342,N,11318.4616,W,000.0,355.7,220819,017.7,E*6D
01DDCF,0225BD,00C4B0,$GPRMC,030813,A,5442.9343,N,11318.4618,W,000.0,355.7,220819,017.7,E*63
01DDCF,0225BD,00C4B0,$GPRMC,030814,A,5442.9345,N,11318.4620,W,000.0,355.7,220819,017.7,E*69
01DDD0,0225BF,00C4B0,$GPRMC,030815,A,5442.9346,N,11318.4621,W,000.0,355.7,220819,017.7,E*6A
01DDD1,0225C1,00C4B1,$GPRMC,030816,A,5442.9348,N,11318.4622,W,000.0,355.7,220819,017.7,E*64
01DDCF,0225BE,00C4B0,$GPRMC,030817,A,5442.9349,N,11318.4623,W,000.0,355.7,220819,017.7,E*65
01DDD0,0225BE,00C4B1,$GPRMC,030818,A,5442.9350,N,11318.4624,W,000.0,355.7,220819,017.7,E*65
01DDD1,0225C1,00C4B2,$GPRMC,030819,A,5442.9352,N,11318.4625,W,000.0,355.7,220819,017.7,E*67
01DDCF,0225BF,00C4B1,$GPRMC,030820,A,5442.9353,N,11318.4625,W,000.0,355.7,220819,017.7,E*6C
01DDCF,0225BD,00C4B0,$GPRMC,030821,A,5442.9355,N,11318.4626,W,000.0,355.7,220819,017.7,E*68
01DDD0,0225C0,00C4B1,$GPRMC,030822,A,5442.9356,N,11318.4626,W,000.0,355.7,220819,017.7,E*68
01DDD0,0225C0,00C4B1,$GPRMC,030823,A,5442.9357,N,11318.4626,W,000.0,355.7,220819,017.7,E*68
01DDCF,0225BE,00C4B1,$GPRMC,030824,A,5442.9358,N,11318.4626,W,000.0,355.7,220819,017.7,E*60
01DDD1,0225C1,00C4B2,$GPRMC,030825,A,5442.9360,N,11318.4625,W,000.0,355.7,220819,017.7,E*69
01DDD0,0225BE,00C4B1,$GPRMC,030826,A,5442.9361,N,11318.4625,W,000.0,355.7,220819,017.7,E*6B
01DDD0,0225BF,00C4B1,$GPRMC,030827,A,5442.9362,N,11318.4625,W,000.0,355.7,220819,017.7,E*69
01DDCF,0225C0,00C4B1,$GPRMC,030828,A,5442.9363,N,11318.4625,W,000.0,355.7,220819,017.7,E*67
01DDD0,0225C0,00C4B2,$GPRMC,030829,A,5442.9364,N,11318.4624,W,000.0,355.7,220819,017.7,E*60
01DDD0,0225C0,00C4B1,$GPRMC,030830,A,5442.9364,N,11318.4624,W,000.0,355.7,220819,017.7,E*68
01DDCF,0225C0,00C4B0,$GPRMC,030831,A,5442.9365,N,11318.4623,W,000.0,355.7,220819,017.7,E*6F
01DDCE,0225BD,00C4B0,$GPRMC,030832,A,5442.9365,N,11318.4623,W,000.0,355.7,220819,017.7,E*6C
01DDD1,0225C3,00C4B2,$GPRMC,030833,A,5442.9365,N,11318.4622,W,000.0,355.7,220819,017.7,E*6C
01DDD4,0225C5,00C4B4,$GPRMC,030834,A,5442.9364,N,11318.4622,W,000.0,355.7,220819,017.7,E*6A
01DDCE,0225BE,00C4B0,$GPRMC,030835,A,5442.9364,N,11318.4621,W,000.0,355.7,220819,017.7,E*68
01DDD2,0225C2,00C4B2,$GPRMC,030836,A,5442.9364,N,11318.4620,W,000.0,355.7,220819,017.7,E*6A
01DDD2,0225C3,00C4B3,$GPRMC,030837,A,5442.9364,N,11318.4620,W,000.0,355.7,220819,017.7,E*6B
01DDCF,0225BE,00C4B0,$GPRMC,030838,A,5442.9364,N,11318.4620,W,000.0,355.7,220819,017.7,E*64
01DDCF,0225BE,00C4B1,$GPRMC,030839,A,5442.9364,N,11318.4618,W,000.0,355.7,220819,017.7,E*6E
01DDD0,0225BF,00C4B1,$GPRMC,030840,A,5442.9363,N,11318.4617,W,000.0,355.7,220819,017.7,E*68
01DDD2,0225C2,00C4B2,$GPRMC,030841,A,5442.9364,N,11318.4617,W,000.0,355.7,220819,017.7,E*6E
01DDCD,0225BB,00C4AF,$GPRMC,030842,A,5442.9365,N,11318.4618,W,000.0,355.7,220819,017.7,E*63
01DDCF,0225BE,00C4B1,$GPRMC,030843,A,5442.9366,N,11318.4617,W,000.0,355.7,220819,017.7,E*6E
01DDCF,0225BD,00C4B0,$GPRMC,030844,A,5442.9366,N,11318.4617,W,000.0,355.7,220819,017.7,E*69
01DDCE,0225BA,00C4B0,$GPRMC,030845,A,5442.9367,N,11318.4616,W,000.0,355.7,220819,017.7,E*68
01DDD2,0225BF,00C4B2,$GPRMC,030846,A,5442.9368,N,11318.4616,W,000.0,355.7,220819,017.7,E*64
01DDCF,0225BD,00C4B1,$GPRMC,030847,A,5442.9369,N,11318.4616,W,000.0,355.7,220819,017.7,E*64
01DDD0,0225BF,00C4B0,$GPRMC,030848,A,5442.9370,N,11318.4616,W,000.0,355.7,220819,017.7,E*63
01DDCF,0225BC,00C4AF,$GPRMC,030849,A,5442.9371,N,11318.4616,W,000.0,355.7,220819,017.7,E*63
01DDCE,0225BD,00C4AF,$GPRMC,030850,A,5442.9372,N,11318.4616,W,000.0,355.7,220819,017.7,E*68
01DDCF,0225BD,00C4AF,$GPRMC,030851,A,5442.9373,N,11318.4616,W,000.0,355.7,220819,017.7,E*68
01DDCF,0225BD,00C4B0,$GPRMC,030852,A,5442.9374,N,11318.4617,W,000.0,355.7,220819,017.7,E*6D
01DDD2,0225C2,00C4B2,$GPRMC,030853,A,5442.9375,N,11318.4617,W,000.0,355.7,220819,017.7,E*6D
01DDCF,0225BD,00C4B0,$GPRMC,030854,A,5442.9376,N,11318.4618,W,000.0,355.7,220819,017.7,E*66
01DDCF,0225BD,00C4B0,$GPRMC,030855,A,5442.9377,N,11318.4618,W,000.0,355.7,220819,017.7,E*66
01DDCD,0225BA,00C4AF,$GPRMC,030856,A,5442.9378,N,11318.4618,W,000.0,355.7,220819,017.7,E*6A
01DDCD,0225BA,00C4AF,$GPRMC,030857,A,5442.9378,N,11318.4618,W,000.0,355.7,220819,017.7,E*6B
01DDCB,0225B7,00C4AD,$GPRMC,030858,A,5442.9378,N,11318.4617,W,000.0,355.7,220819,017.7,E*6B
01DDD3,0225C2,00C4B2,$GPRMC,030859,A,5442.9378,N,11318.4617,W,000.0,355.7,220819,017.7,E*6A
01DDCC,0225B8,00C4AE,$GPRMC,030900,A,5442.9378,N,11318.4617,W,000.0,355.7,220819,017.7,E*67
01DDD1,0225BF,00C4B1,$GPRMC,030901,A,5442.9379,N,11318.4617,W,000.0,355.7,220819,017.7,E*67
01DDCF,0225BD,00C4B0,$GPRMC,030902,A,5442.9380,N,11318.4617,W,000.0,355.7,220819,017.7,E*62
01DDD4,0225C3,00C4B3,$GPRMC,030903,A,5442.9381,N,11318.4618,W,000.0,355.7,220819,017.7,E*6D
01DDCF,0225BC,00C4B0,$GPRMC,030904,A,5442.9382,N,11318.4617,W,000.0,355.7,220819,017.7,E*66
01DDCF,0225BC,00C4B0,$GPRMC,030905,A,5442.9384,N,11318.4617,W,000.0,355.7,220819,017.7,E*61
01DDD0,0225BD,00C4B1,$GPRMC,030906,A,5442.9385,N,11318.4618,W,000.0,355.7,220819,017.7,E*6C
01DDD1,0225BF,00C4B2,$GPRMC,030907,A,5442.9387,N,11318.4618,W,000.0,355.7,220819,017.7,E*6F
01DDCF,0225BC,00C4B0,$GPRMC,030908,A,5442.9387,N,11318.4618,W,000.0,355.7,220819,017.7,E*60
01DDCB,0225B6,00C4AE,$GPRMC,030909,A,5442.9388,N,11318.4618,W,000.0,355.7,220819,017.7,E*6E
01DDCC,0225B7,00C4AE,$GPRMC,030910,A,5442.9389,N,11318.4618,W,000.0,355.7,220819,017.7,E*67
01DDCF,0225BB,00C4B0,$GPRMC,030911,A,5442.9390,N,11318.4619,W,000.0,355.7,220819,017.7,E*6F
01DDCE,0225BA,00C4AF,$GPRMC,030912,A,5442.9390,N,11318.4619,W,000.0,355.7,220819,017.7,E*6C
01DDD1,0225BE,00C4B1,$GPRMC,030913,A,5442.9391,N,11318.4619,W,000.0,355.7,220819,017.7,E*6C
01DDCF,0225BA,00C4B0,$GPRMC,030914,A,5442.9392,N,11318.4621,W,000.0,355.7,220819,017.7,E*63
01DDD1,0225BE,00C4B1,$GPRMC,030915,A,5442.9394,N,11318.4622,W,000.0,355.7,220819,017.7,E*67
01DDD0,0225BC,00C4B1,$GPRMC,030916,A,5442.9395,N,11318.4623,W,000.0,355.7,220819,017.7,E*64
01DDD0,0225BC,00C4B1,$GPRMC,030917,A,5442.9396,N,11318.4624,W,000.0,355.7,220819,017.7,E*61
01DDD2,0225BE,00C4B2,$GPRMC,030918,A,5442.9397,N,11318.4626,W,000.0,355.7,220819,017.7,E*6D
01DDD1,0225BD,00C4B1,$GPRMC,030919,A,5442.9399,N,11318.4627,W,000.0,355.7,220819,017.7,E*63
01DDCC,0225B7,00C4AF,$GPRMC,030920,A,5442.9399,N,11318.4628,W,000.0,355.7,220819,017.7,E*66
01DDD0,0225BB,00C4B1,$GPRMC,030921,A,5442.9399,N,11318.4628,W,000.0,355.7,220819,017.7,E*67
01DDD0,0225BA,00C4B1,$GPRMC,030922,A,5442.9400,N,11318.4629,W,000.0,355.7,220819,017.7,E*62
01DDD2,0225BE,00C4B2,$GPRMC,030923,A,5442.9400,N,11318.4630,W,000.0,355.7,220819,017.7,E*6B
01DDD2,0225BF,00C4B3,$GPRMC,030924,A,5442.9401,N,11318.4630,W,000.0,355.7,220819,017.7,E*6D
01DDD2,0225BE,00C4B3,$GPRMC,030925,A,5442.9401,N,11318.4630,W,000.0,355.7,220819,017.7,E*6C
01DDD1,0225BC,00C4B1,$GPRMC,030926,A,5442.9401,N,11318.4630,W,000.0,355.7,220819,017.7,E*6F
01DDD3,0225C0,00C4B2,$GPRMC,030927,A,5442.9402,N,11318.4630,W,000.0,355.7,220819,017.7,E*6D
01DDD1,0225BE,00C4B1,$GPRMC,030928,A,5442.9402,N,11318.4630,W,000.0,355.7,220819,017.7,E*62
01DDCE,0225BB,00C4B0,$GPRMC,030929,A,5442.9402,N,11318.4630,W,000.0,355.7,220819,017.7,E*63
01DDD2,0225C2,00C4B3,$GPRMC,030930,A,5442.9402,N,11318.4630,W,000.0,355.7,220819,017.7,E*6B
01DDCD,0225BB,00C4B1,$GPRMC,030931,A,5442.9402,N,11318.4629,W,000.0,355.7,220819,017.7,E*62
01DDCF,0225C0,00C4B2,$GPRMC,030932,A,5442.9403,N,11318.4629,W,000.0,355.7,220819,017.7,E*60
01DDCF,0225C1,00C4B2,$GPRMC,030933,A,5442.9404,N,11318.4629,W,000.0,355.7,220819,017.7,E*66
01DDCE,0225BF,00C4B1,$GPRMC,030934,A,5442.9405,N,11318.4630,W,000.0,355.7,220819,017.7,E*68
01DDCD,0225BB,00C4B0,$GPRMC,030935,A,5442.9406,N,11318.4630,W,000.0,355.7,220819,017.7,E*6A
01DDD0,0225BE,00C4B2,$GPRMC,030936,A,5442.9406,N,11318.4631,W,000.0,355.7,220819,017.7,E*68
01DDCE,0225BA,00C4B0,$GPRMC,030937,A,5442.9407,N,11318.4631,W,000.0,355.7,220819,017.7,E*68
01DDCE,0225BC,00C4B1,$GPRMC,030938,A,5442.9408,N,11318.4632,W,000.0,355.7,220819,017.7,E*6B
01DDD0,0225BD,00C4B1,$GPRMC,030939,A,5442.9409,N,11318.4632,W,000.0,355.7,220819,017.7,E*6B
01DDD0,0225BD,00C4B1,$GPRMC,030940,A,5442.9410,N,11318.4633,W,000.0,355.7,220819,017.7,E*6C
01DDCE,0225BB,00C4B1,$GPRMC,030941,A,5442.9411,N,11318.4633,W,000.0,355.7,220819,017.7,E*6C
01DDD1,0225BD,00C4B2,$GPRMC,030942,A,5442.9410,N,11318.4632,W,000.0,355.7,220819,017.7,E*6F
01DDCE,0225B9,00C4B0,$GPRMC,030943,A,5442.9410,N,11318.4632,W,000.0,355.7,220819,017.7,E*6E
01DDCF,0225B8,00C4B0,$GPRMC,030944,A,5442.9411,N,11318.4632,W,000.0,355.7,220819,017.7,E*68
01DDD3,0225BF,00C4B3,$GPRMC,030945,A,5442.9411,N,11318.4632,W,000.0,355.7,220819,017.7,E*69
01DDD0,0225BB,00C4B1,$GPRMC,030946,A,5442.9412,N,11318.4631,W,000.0,355.7,220819,017.7,E*6A
01DDCE,0225BB,00C4B0,$GPRMC,030947,A,5442.9412,N,11318.4630,W,000.0,355.7,220819,017.7,E*6A
01DDD0,0225BD,00C4B1,$GPRMC,030948,A,5442.9413,N,11318.4630,W,000.0,355.7,220819,017.7,E*64
01DDCD,0225BA,00C4B0,$GPRMC,030949,A,5442.9414,N,11318.4629,W,000.0,355.7,220819,017.7,E*6A
01DDCC,0225B8,00C4B0,$GPRMC,030950,A,5442.9414,N,11318.4628,W,000.0,355.7,220819,017.7,E*63
01DDCF,0225BD,00C4B1,$GPRMC,030951,A,5442.9415,N,11318.4627,W,000.0,355.7,220819,017.7,E*6C
01DDCD,0225BA,00C4AF,$GPRMC,030952,A,5442.9416,N,11318.4627,W,000.0,355.7,220819,017.7,E*6C
01DDCB,0225B8,00C4AF,$GPRMC,030953,A,5442.9417,N,11318.4626,W,000.0,355.7,220819,017.7,E*6D
01DDCE,0225BC,00C4B0,$GPRMC,030954,A,5442.9418,N,11318.4626,W,000.0,355.7,220819,017.7,E*65
01DDCC,0225B9,00C4AF,$GPRMC,030955,A,5442.9419,N,11318.4626,W,000.0,355.7,220819,017.7,E*65
01DDCD,0225BB,00C4B0,$GPRMC,030956,A,5442.9420,N,11318.4625,W,000.0,355.7,220819,017.7,E*6F
01DDCE,0225BE,00C4B1,$GPRMC,030957,A,5442.9420,N,11318.4625,W,000.0,355.7,220819,017.7,E*6E
01DDCD,0225BA,00C4AF,$GPRMC,030958,A,5442.9421,N,11318.4625,W,000.0,355.7,220819,017.7,E*60
01DDCB,0225B7,00C4AE,$GPRMC,030959,A,5442.9422,N,11318.4625,W,000.0,355.7,220819,017.7,E*62
01DDCE,0225BC,00C4AF,$GPRMC,031000,A,5442.9422,N,11318.4625,W,000.0,355.7,220819,017.7,E*66
01DDCB,0225B9,00C4AE,$GPRMC,031001,A,5442.9423,N,11318.4625,W,000.0,355.7,220819,017.7,E*66
01DDCC,0225BA,00C4AF,$GPRMC,031002,A,5442.9424,N,11318.4624,W,000.0,355.7,220819,017.7,E*63
01DDC9,0225B6,00C4AE,$GPRMC,031003,A,5442.9425,N,11318.4624,W,000.0,355.7,220819,017.7,E*63
01DDCC,0225BA,00C4AF,$GPRMC,031004,A,5442.9425,N,11318.4624,W,000.0,355.7,220819,017.7,E*64
01DDCD,0225BB,00C4AF,$GPRMC,031005,A,5442.9426,N,11318.4624,W,000.0,355.7,220819,017.7,E*66
01DDCE,0225BC,00C4B0,$GPRMC,031006,A,5442.9426,N,11318.4624,W,000.0,355.7,220819,017.7,E*65
01DDCD,0225BC,00C4B0,$GPRMC,031007,A,5442.9426,N,11318.4623,W,000.0,355.7,220819,017.7,E*63
01DDCD,0225BB,00C4B0,$GPRMC,031008,A,5442.9426,N,11318.4623,W,000.0,355.7,220819,017.7,E*6C
01DDCC,0225BB,00C4AF,$GPRMC,031009,A,5442.9425,N,11318.4623,W,000.0,355.7,220819,017.7,E*6E
01DDCD,0225BB,00C4AF,$GPRMC,031010,A,5442.9425,N,11318.4622,W,000.0,355.7,220819,017.7,E*67
01DDCE,0225BC,00C4B0,$GPRMC,031011,A,5442.9424,N,11318.4622,W,000.0,355.7,220819,017.7,E*67
01DDCD,0225BB,00C4B0,$GPRMC,031012,A,5442.9424,N,11318.4621,W,000.0,355.7,220819,017.7,E*67
01DDCC,0225BB,00C4B0,$GPRMC,031013,A,5442.9423,N,11318.4621,W,000.0,355.7,220819,017.7,E*61
01DDCB,0225B8,00C4AF,$GPRMC,031014,A,5442.9422,N,11318.4620,W,000.0,355.7,220819,017.7,E*66
01DDCC,0225BA,00C4AF,$GPRMC,031015,A,5442.9421,N,11318.4619,W,000.0,355.7,220819,017.7,E*6E
01DDD0,0225BF,00C4B1,$GPRMC,031016,A,5442.9420,N,11318.4618,W,000.0,355.7,220819,017.7,E*6D
01DDCD,0225BC,00C4AF,$GPRMC,031017,A,5442.9418,N,11318.4618,W,000.0,355.7,220819,017.7,E*67
01DDCC,0225B9,00C4AF,$GPRMC,031018,A,5442.9417,N,11318.4618,W,000.0,355.7,220819,017.7,E*67
01DDCC,0225BB,00C4B0,$GPRMC,031019,A,5442.9416,N,11318.4616,W,000.0,355.7,220819,017.7,E*69
01DDD2,0225C1,00C4B3,$GPRMC,031020,A,5442.9414,N,11318.4614,W,000.0,355.7,220819,017.7,E*63
01DDD0,0225C0,00C4B2,$GPRMC,031021,A,5442.9413,N,11318.4612,W,000.0,355.7,220819,017.7,E*63
01DDD0,0225BF,00C4B2,$GPRMC,031022,A,5442.9411,N,11318.4611,W,000.0,355.7,220819,017.7,E*61
01DDCD,0225BC,00C4B0,$GPRMC,031023,A,5442.9410,N,11318.4610,W,000.0,355.7,220819,017.7,E*60
01DDCE,0225BE,00C4B1,$GPRMC,031024,A,5442.9409,N,11318.4609,W,000.0,355.7,220819,017.7,E*67
01DDD1,0225C1,00C4B2,$GPRMC,031025,A,5442.9408,N,11318.4608,W,000.0,355.7,220819,017.7,E*66
01DDCF,0225BE,00C4B1,$GPRMC,031026,A,5442.9408,N,11318.4607,W,000.0,355.7,220819,017.7,E*6A
01DDCF,0225BD,00C4B1,$GPRMC,031027,A,5442.9408,N,11318.4607,W,000.0,355.7,220819,017.7,E*6B
01DDD0,0225BF,00C4B2,$GPRMC,031028,A,5442.9407,N,11318.4606,W,000.0,355.7,220819,017.7,E*6A
01DDD0,0225BE,00C4B2,$GPRMC,031029,A,5442.9407,N,11318.4606,W,000.0,355.7,220819,017.7,E*6B
01DDCE,0225BD,00C4B1,$GPRMC,031030,A,5442.9407,N,11318.4605,W,000.0,355.7,220819,017.7,E*60
01DDCB,0225B8,00C4AF,$GPRMC,031031,A,5442.9406,N,11318.4606,W,000.0,355.7,220819,017.7,E*63
01DDCB,0225B7,00C4AF,$GPRMC,031032,A,5442.9405,N,11318.4606,W,000.0,355.7,220819,017.7,E*63
01DDCA,0225B6,00C4AE,$GPRMC,031033,A,5442.9404,N,11318.4605,W,000.0,355.7,220819,017.7,E*60
01DDCD,0225BA,00C4B0,$GPRMC,031034,A,5442.9404,N,11318.4604,W,000.0,355.7,220819,017.7,E*66
01DDD1,0225C1,00C4B3,$GPRMC,031035,A,5442.9403,N,11318.4603,W,000.0,355.7,220819,017.7,E*67
01DDCD,0225BB,00C4B0,$GPRMC,031036,A,5442.9403,N,11318.4603,W,000.0,355.7,220819,017.7,E*64
01DDCC,0225BA,00C4B0,$GPRMC,031037,A,5442.9403,N,11318.4602,W,000.0,355.7,220819,017.7,E*64
01DDCE,0225BD,00C4B1,$GPRMC,031038,A,5442.9403,N,11318.4602,W,000.0,355.7,220819,017.7,E*6B
01DDCB,0225B9,00C4AE,$GPRMC,031039,A,5442.9403,N,11318.4603,W,000.0,355.7,220819,017.7,E*6B
01DDCB,0225B9,00C4AE,$GPRMC,031040,A,5442.9403,N,11318.4603,W,000.0,355.7,220819,017.7,E*65
01DDCB,0225B8,00C4AE,$GPRMC,031041,A,5442.9403,N,11318.4604,W,000.0,355.7,220819,017.7,E*63
01DDC8,0225B6,00C4AD,$GPRMC,031042,A,5442.9403,N,11318.4605,W,000.0,355.7,220819,017.7,E*61
01DDCE,0225BE,00C4B1,$GPRMC,031043,A,5442.9403,N,11318.4606,W,000.0,355.7,220819,017.7,E*63
01DDCF,0225C0,00C4B1,$GPRMC,031044,A,5442.9403,N,11318.4607,W,000.0,355.7,220819,017.7,E*65
01DDCD,0225BC,00C4AF,$GPRMC,031045,A,5442.9404,N,11318.4609,W,000.0,355.7,220819,017.7,E*6D
01DDCC,0225BC,00C4AF,$GPRMC,031046,A,5442.9404,N,11318.4610,W,000.0,355.7,220819,017.7,E*66
01DDCB,0225BB,00C4AF,$GPRMC,031047,A,5442.9404,N,11318.4611,W,000.0,355.7,220819,017.7,E*66
01DDC9,0225B8,00C4AD,$GPRMC,031048,A,5442.9403,N,11318.4613,W,000.0,355.7,220819,017.7,E*6C
01DDC9,0225B6,00C4AD,$GPRMC,031049,A,5442.9403,N,11318.4615,W,000.0,355.7,220819,017.7,E*6B
01DDCB,0225BA,00C4AF,$GPRMC,031050,A,5442.9403,N,11318.4616,W,000.0,355.7,220819,017.7,E*60
01DDCD,0225BE,00C4B0,$GPRMC,031051,A,5442.9403,N,11318.4617,W,000.0,355.7,220819,017.7,E*60
01DDCD,0225BC,00C4B0,$GPRMC,031052,A,5442.9403,N,11318.4619,W,000.0,355.7,220819,017.7,E*6D
01DDCD,0225BD,00C4B0,$GPRMC,031053,A,5442.9403,N,11318.4620,W,000.0,355.7,220819,017.7,E*66
01DDCB,0225BA,00C4AF,$GPRMC,031054,A,5442.9403,N,11318.4621,W,000.0,355.7,220819,017.7,E*60
