01DE3B,022634,00C4AA,$GPRMC,125941,A,5442.9366,N,11318.4633,W,000.0,177.4,220819,017.7,E*6F
01DE3A,022633,00C4A9,$GPRMC,125942,A,5442.9368,N,11318.4637,W,000.0,177.4,220819,017.7,E*66
01DE3B,022633,00C4AA,$GPRMC,125943,A,5442.9370,N,11318.4639,W,000.0,177.4,220819,017.7,E*60
01DE39,022632,00C4AA,$GPRMC,125944,A,5442.9371,N,11318.4642,W,000.0,177.4,220819,017.7,E*6A
01DE3C,022635,00C4AA,$GPRMC,125945,A,5442.9373,N,11318.4644,W,000.0,177.4,220819,017.7,E*6F
01DE3B,022635,00C4AA,$GPRMC,125946,A,5442.9373,N,11318.4646,W,000.0,177.4,220819,017.7,E*6E
01DE3D,022637,00C4AB,$GPRMC,125947,A,5442.9373,N,11318.4648,W,000.0,177.4,220819,017.7,E*61
01DE3A,022633,00C4AA,$GPRMC,125948,A,5442.9372,N,11318.4648,W,000.0,177.4,220819,017.7,E*6F
01DE3A,022633,00C4AA,$GPRMC,125949,A,5442.9372,N,11318.4651,W,000.0,177.4,220819,017.7,E*66
01DE38,022630,00C4A8,$GPRMC,125950,A,5442.9371,N,11318.4652,W,000.0,177.4,220819,017.7,E*6E
01DE38,022632,00C4A9,$GPRMC,125951,A,5442.9369,N,11318.4653,W,000.0,177.4,220819,017.7,E*67
01DE38,022633,00C4A9,$GPRMC,125952,A,5442.9368,N,11318.4653,W,000.0,177.4,220819,017.7,E*65
01DE35,022631,00C4A8,$GPRMC,125953,A,5442.9367,N,11318.4654,W,000.0,177.4,220819,017.7,E*6C
01DE38,022631,00C4A9,$GPRMC,125954,A,5442.9366,N,11318.4655,W,000.0,177.4,220819,017.7,E*6B
01DE37,022633,00C4A9,$GPRMC,125955,A,5442.9366,N,11318.4655,W,000.0,177.4,220819,017.7,E*6A
01DE3A,022636,00C4A9,$GPRMC,125956,A,5442.9365,N,11318.4655,W,000.0,177.4,220819,017.7,E*6A
01DE3A,022637,00C4AA,$GPRMC,125957,A,5442.9364,N,11318.4656,W,000.0,177.4,220819,017.7,E*69
01DE3A,022639,00C4AB,$GPRMC,125958,A,5442.9364,N,11318.4656,W,000.0,177.4,220819,017.7,E*66
01DE37,022633,00C4A9,$GPRMC,125959,A,5442.9364,N,11318.4657,W,000.0,177.4,220819,017.7,E*66
01DE37,022634,00C4A9,$GPRMC,130000,A,5442.9364,N,11318.4658,W,000.0,177.4,220819,017.7,E*68
01DE39,022638,00C4AA,$GPRMC,130001,A,5442.9364,N,11318.4658,W,000.0,177.4,220819,017.7,E*69
01DE37,022634,00C4A8,$GPRMC,130002,A,5442.9362,N,11318.4657,W,000.0,177.4,220819,017.7,E*63
01DE3B,022639,00C4AA,$GPRMC,130003,A,5442.9364,N,11318.4658,W,000.0,177.4,220819,017.7,E*6B
01DE39,022637,00C4A8,$GPRMC,130004,A,5442.9366,N,11318.4659,W,000.0,177.4,220819,017.7,E*6F
01DE39,022638,00C4A8,$GPRMC,130005,A,5442.9366,N,11318.4660,W,000.0,177.4,220819,017.7,E*64
01DE38,022636,00C4A8,$GPRMC,130006,A,5442.9366,N,11318.4660,W,000.0,177.4,220819,017.7,E*67
01DE39,02263B,00C4A9,$GPRMC,130007,A,5442.9367,N,11318.4661,W,000.0,177.4,220819,017.7,E*66
01DE37,02263B,00C4A9,$GPRMC,130008,A,5442.9367,N,11318.4661,W,000.0,177.4,220819,017.7,E*69
01DE34,02263A,00C4AA,$GPRMC,130009,A,5442.9367,N,11318.4661,W,000.0,177.4,220819,017.7,E*68
01DE31,022639,00C4A8,$GPRMC,130010,A,5442.9366,N,11318.4661,W,000.0,177.4,220819,017.7,E*61
01DE31,022639,00C4A8,$GPRMC,130011,A,5442.9366,N,11318.4661,W,000.0,177.4,220819,017.7,E*60
01DE32,02263B,00C4A9,$GPRMC,130012,A,5442.9366,N,11318.4660,W,000.0,177.4,220819,017.7,E*62
01DE33,02263D,00C4AA,$GPRMC,130013,A,5442.9365,N,11318.4660,W,000.0,177.4,220819,017.7,E*60
01DE33,02263C,00C4AA,$GPRMC,130014,A,5442.9365,N,11318.4659,W,000.0,177.4,220819,017.7,E*6D
01DE33,02263A,00C4A9,$GPRMC,130015,A,5442.9365,N,11318.4659,W,000.0,177.4,220819,017.7,E*6C
01DE31,022638,00C4A8,$GPRMC,130016,A,5442.9365,N,11318.4658,W,000.0,177.4,220819,017.7,E*6E
01DE32,02263D,00C4AA,$GPRMC,130017,A,5442.9364,N,11318.4658,W,000.0,177.4,220819,017.7,E*6E
01DE31,02263F,00C4AA,$GPRMC,130018,A,5442.9363,N,11318.4658,W,000.0,177.4,220819,017.7,E*66
01DE2F,02263C,00C4AA,$GPRMC,130019,A,5442.9364,N,11318.4658,W,000.0,177.4,220819,017.7,E*60
01DE2E,02263C,00C4A9,$GPRMC,130020,A,5442.9364,N,11318.4658,W,000.0,177.4,220819,017.7,E*6A
01DE2F,02263E,00C4A9,$GPRMC,130021,A,5442.9365,N,11318.4658,W,000.0,177.4,220819,017.7,E*6A
01DE31,022640,00C4AA,$GPRMC,130022,A,5442.9366,N,11318.4658,W,000.0,177.4,220819,017.7,E*6A
01DE2F,02263E,00C4A9,$GPRMC,130023,A,5442.9368,N,11318.4658,W,000.0,177.4,220819,017.7,E*65
01DE32,022641,00C4AB,$GPRMC,130024,A,5442.9369,N,11318.4658,W,000.0,177.4,220819,017.7,E*63
01DE33,022641,00C4AB,$GPRMC,130025,A,5442.9370,N,11318.4658,W,000.0,177.4,220819,017.7,E*6A
01DE34,022640,00C4AA,$GPRMC,130026,A,5442.9371,N,11318.4658,W,000.0,177.4,220819,017.7,E*68
01DE34,022640,00C4AA,$GPRMC,130027,A,5442.9371,N,11318.4658,W,000.0,177.4,220819,017.7,E*69
01DE35,022641,00C4AB,$GPRMC,130028,A,5442.9372,N,11318.4658,W,000.0,177.4,220819,017.7,E*65
01DE39,022645,00C4AD,$GPRMC,130029,A,5442.9373,N,11318.4659,W,000.0,177.4,220819,017.7,E*64
01DE37,022641,00C4AB,$GPRMC,130030,A,5442.9374,N,11318.4659,W,000.0,177.4,220819,017.7,E*6B
01DE37,022641,00C4AB,$GPRMC,130031,A,5442.9376,N,11318.4659,W,000.0,177.4,220819,017.7,E*68
01DE36,022640,00C4AB,$GPRMC,130032,A,5442.9377,N,11318.4660,W,000.0,177.4,220819,017.7,E*60
01DE38,022642,00C4AB,$GPRMC,130033,A,5442.9378,N,11318.4660,W,000.0,177.4,220819,017.7,E*6E
01DE37,02263F,00C4AB,$GPRMC,130034,A,5442.9380,N,11318.4661,W,000.0,177.4,220819,017.7,E*6F
01DE37,02263D,00C4AA,$GPRMC,130035,A,5442.9381,N,11318.4661,W,000.0,177.4,220819,017.7,E*6F
01DE39,022640,00C4AB,$GPRMC,130036,A,5442.9382,N,11318.4661,W,000.0,177.4,220819,017.7,E*6F
01DE39,022640,00C4AB,$GPRMC,130037,A,5442.9382,N,11318.4661,W,000.0,177.4,220819,017.7,E*6E
01DE38,02263E,00C4AA,$GPRMC,130038,A,5442.9383,N,11318.4661,W,000.0,177.4,220819,017.7,E*60
01DE38,02263D,00C4AA,$GPRMC,130039,A,5442.9383,N,11318.4661,W,000.0,177.4,220819,017.7,E*61
01DE39,02263F,00C4AA,$GPRMC,130040,A,5442.9383,N,11318.4662,W,000.0,177.4,220819,017.7,E*6C
01DE3A,02263E,00C4AA,$GPRMC,130041,A,5442.9383,N,11318.4662,W,000.0,177.4,220819,017.7,E*6D
01DE3B,022640,00C4AA,$GPRMC,130042,A,5442.9381,N,11318.4663,W,000.0,177.4,220819,017.7,E*6D
01DE39,02263E,00C4AA,$GPRMC,130043,A,5442.9381,N,11318.4663,W,000.0,177.4,220819,017.7,E*6C
01DE3B,022643,00C4AB,$GPRMC,130044,A,5442.9379,N,11318.4664,W,000.0,177.4,220819,017.7,E*6B
01DE3B,022644,00C4AB,$GPRMC,130045,A,5442.9376,N,11318.4665,W,000.0,177.4,220819,017.7,E*64
01DE37,02263C,00C4A8,$GPRMC,130046,A,5442.9373,N,11318.4666,W,000.0,177.4,220819,017.7,E*61
01DE37,02263D,00C4A8,$GPRMC,130047,A,5442.9371,N,11318.4667,W,000.0,177.4,220819,017.7,E*63
01DE3B,022643,00C4AB,$GPRMC,130048,A,5442.9369,N,11318.4668,W,000.0,177.4,220819,017.7,E*6A
01DE3C,022643,00C4AC,$GPRMC,130049,A,5442.9367,N,11318.4669,W,000.0,177.4,220819,017.7,E*64
01DE3A,02263F,00C4A9,$GPRMC,130050,A,5442.9366,N,11318.4670,W,000.0,177.4,220819,017.7,E*65
01DE3A,02263F,00C4A9,$GPRMC,130051,A,5442.9365,N,11318.4671,W,000.0,177.4,220819,017.7,E*66
01DE3A,02263F,00C4AA,$GPRMC,130052,A,5442.9363,N,11318.4672,W,000.0,177.4,220819,017.7,E*60
01DE3C,022642,00C4AB,$GPRMC,130053,A,5442.9362,N,11318.4673,W,000.0,177.4,220819,017.7,E*61
01DE3E,022644,00C4AC,$GPRMC,130054,A,5442.9361,N,11318.4674,W,000.0,177.4,220819,017.7,E*62
01DE39,02263D,00C4A9,$GPRMC,130055,A,5442.9361,N,11318.4675,W,000.0,177.4,220819,017.7,E*62
01DE3C,022640,00C4AA,$GPRMC,130056,A,5442.9360,N,11318.4676,W,000.0,177.4,220819,017.7,E*63
01DE3D,022642,00C4AA,$GPRMC,130057,A,5442.9360,N,11318.4677,W,000.0,177.4,220819,017.7,E*63
01DE3D,022642,00C4AA,$GPRMC,130058,A,5442.9360,N,11318.4677,W,000.0,177.4,220819,017.7,E*6C
01DE3E,022641,00C4AA,$GPRMC,130059,A,5442.9360,N,11318.4678,W,000.0,177.4,220819,017.7,E*62
01DE3F,022645,00C4AC,$GPRMC,130100,A,5442.9360,N,11318.4679,W,000.0,177.4,220819,017.7,E*6E
01DE3C,022641,00C4AA,$GPRMC,130101,A,5442.9359,N,11318.4679,W,000.0,177.4,220819,017.7,E*65
01DE3B,02263E,00C4A8,$GPRMC,130102,A,5442.9358,N,11318.4679,W,000.0,177.4,220819,017.7,E*67
01DE3B,02263F,00C4A9,$GPRMC,130103,A,5442.9357,N,11318.4679,W,000.0,177.4,220819,017.7,E*69
01DE3C,02263F,00C4A9,$GPRMC,130104,A,5442.9356,N,11318.4678,W,000.0,177.4,220819,017.7,E*6E
01DE3B,022640,00C4A9,$GPRMC,130105,A,5442.9355,N,11318.4677,W,000.0,177.4,220819,017.7,E*63
01DE3C,022642,00C4A9,$GPRMC,130106,A,5442.9354,N,11318.4677,W,000.0,177.4,220819,017.7,E*61
01DE3D,022643,00C4A9,$GPRMC,130107,A,5442.9352,N,11318.4677,W,000.0,177.4,220819,017.7,E*66
01DE3C,022640,00C4A8,$GPRMC,130108,A,5442.9350,N,11318.4677,W,000.0,177.4,220819,017.7,E*6B
01DE3E,022645,00C4A9,$GPRMC,130109,A,5442.9349,N,11318.4676,W,000.0,177.4,220819,017.7,E*63
01DE3D,022644,00C4A9,$GPRMC,130110,A,5442.9348,N,11318.4676,W,000.0,177.4,220819,017.7,E*6A
01DE3B,022643,00C4A9,$GPRMC,130111,A,5442.9346,N,11318.4677,W,000.0,177.4,220819,017.7,E*64
01DE3C,022647,00C4A9,$GPRMC,130112,A,5442.9345,N,11318.4677,W,000.0,177.4,220819,017.7,E*64
01DE38,022643,00C4A7,$GPRMC,130113,A,5442.9344,N,11318.4677,W,000.0,177.4,220819,017.7,E*64
01DE3A,022646,00C4A9,$GPRMC,130114,A,5442.9343,N,11318.4677,W,000.0,177.4,220819,017.7,E*64
01DE38,022645,00C4A9,$GPRMC,130115,A,5442.9343,N,11318.4677,W,000.0,177.4,220819,017.7,E*65
01DE39,022646,00C4A9,$GPRMC,130116,A,5442.9343,N,11318.4676,W,000.0,177.4,220819,017.7,E*67
01DE36,022641,00C4A6,$GPRMC,130117,A,5442.9342,N,11318.4677,W,000.0,177.4,220819,017.7,E*66
01DE38,022642,00C4A7,$GPRMC,130118,A,5442.9342,N,11318.4676,W,000.0,177.4,220819,017.7,E*68
01DE39,022645,00C4A8,$GPRMC,130119,A,5442.9338,N,11318.4679,W,000.0,177.4,220819,017.7,E*6B
01DE37,022643,00C4A7,$GPRMC,130120,A,5442.9337,N,11318.4679,W,000.0,177.4,220819,017.7,E*6E
01DE38,022645,00C4A7,$GPRMC,130121,A,5442.9335,N,11318.4678,W,000.0,177.4,220819,017.7,E*6C
01DE36,022641,00C4A6,$GPRMC,130122,A,5442.9334,N,11318.4678,W,000.0,177.4,220819,017.7,E*6E
01DE39,022645,00C4A7,$GPRMC,130123,A,5442.9332,N,11318.4678,W,000.0,177.4,220819,017.7,E*69
01DE38,022644,00C4A6,$GPRMC,130124,A,5442.9333,N,11318.4677,W,000.0,177.4,220819,017.7,E*60
01DE3B,022646,00C4A7,$GPRMC,130125,A,5442.9334,N,11318.4676,W,000.0,177.4,220819,017.7,E*67
01DE37,022642,00C4A5,$GPRMC,130126,A,5442.9335,N,11318.4675,W,000.0,177.4,220819,017.7,E*66
01DE38,022642,00C4A5,$GPRMC,130127,A,5442.9334,N,11318.4674,W,000.0,177.4,220819,017.7,E*67
01DE3B,022648,00C4A7,$GPRMC,130128,A,5442.9333,N,11318.4673,W,000.0,177.4,220819,017.7,E*68
01DE3A,022644,00C4A7,$GPRMC,130129,A,5442.9333,N,11318.4673,W,000.0,177.4,220819,017.7,E*69
01DE3F,02264B,00C4A9,$GPRMC,130130,A,5442.9334,N,11318.4671,W,000.0,177.4,220819,017.7,E*64
01DE3C,022647,00C4A7,$GPRMC,130131,A,5442.9335,N,11318.4671,W,000.0,177.4,220819,017.7,E*64
01DE38,022641,00C4A4,$GPRMC,130132,A,5442.9337,N,11318.4670,W,000.0,177.4,220819,017.7,E*64
01DE3B,022643,00C4A5,$GPRMC,130133,A,5442.9338,N,11318.4669,W,000.0,177.4,220819,017.7,E*62
01DE3F,022649,00C4A8,$GPRMC,130134,A,5442.9339,N,11318.4669,W,000.0,177.4,220819,017.7,E*64
01DE3E,022648,00C4A7,$GPRMC,130135,A,5442.9341,N,11318.4668,W,000.0,177.4,220819,017.7,E*6B
01DE3E,022649,00C4A8,$GPRMC,130136,A,5442.9342,N,11318.4668,W,000.0,177.4,220819,017.7,E*6B
01DE3E,022648,00C4A7,$GPRMC,130137,A,5442.9343,N,11318.4667,W,000.0,177.4,220819,017.7,E*64
01DE3E,022647,00C4A7,$GPRMC,130138,A,5442.9344,N,11318.4667,W,000.0,177.4,220819,017.7,E*6C
01DE3F,022648,00C4A7,$GPRMC,130139,A,5442.9346,N,11318.4666,W,000.0,177.4,220819,017.7,E*6E
01DE40,022648,00C4A7,$GPRMC,130140,A,5442.9348,N,11318.4666,W,000.0,177.4,220819,017.7,E*6E
01DE3F,022649,00C4A7,$GPRMC,130141,A,5442.9351,N,11318.4665,W,000.0,177.4,220819,017.7,E*64
01DE3C,022642,00C4A4,$GPRMC,130142,A,5442.9353,N,11318.4664,W,000.0,177.4,220819,017.7,E*64
01DE3A,022642,00C4A4,$GPRMC,130143,A,5442.9353,N,11318.4664,W,000.0,177.4,220819,017.7,E*65
01DE3C,022645,00C4A5,$GPRMC,130144,A,5442.9356,N,11318.4664,W,000.0,177.4,220819,017.7,E*67
01DE3B,022644,00C4A4,$GPRMC,130145,A,5442.9358,N,11318.4664,W,000.0,177.4,220819,017.7,E*68
01DE3D,022646,00C4A6,$GPRMC,130146,A,5442.9361,N,11318.4664,W,000.0,177.4,220819,017.7,E*61
01DE3B,022645,00C4A4,$GPRMC,130147,A,5442.9360,N,11318.4664,W,000.0,177.4,220819,017.7,E*61
01DE3D,022648,00C4A5,$GPRMC,130148,A,5442.9361,N,11318.4663,W,000.0,177.4,220819,017.7,E*68
01DE40,02264B,00C4A7,$GPRMC,130149,A,5442.9362,N,11318.4663,W,000.0,177.4,220819,017.7,E*6A
01DE3C,022647,00C4A6,$GPRMC,130150,A,5442.9362,N,11318.4664,W,000.0,177.4,220819,017.7,E*65
01DE3E,02264B,00C4A7,$GPRMC,130151,A,5442.9362,N,11318.4663,W,000.0,177.4,220819,017.7,E*63
01DE3F,02264B,00C4A7,$GPRMC,130152,A,5442.9360,N,11318.4664,W,000.0,177.4,220819,017.7,E*65
01DE3E,02264A,00C4A6,$GPRMC,130153,A,5442.9359,N,11318.4664,W,000.0,177.4,220819,017.7,E*6E
01DE3B,022646,00C4A5,$GPRMC,130154,A,5442.9358,N,11318.4664,W,000.0,177.4,220819,017.7,E*68
01DE3F,02264B,00C4A7,$GPRMC,130155,A,5442.9359,N,11318.4663,W,000.0,177.4,220819,017.7,E*6F
01DE3E,02264B,00C4A7,$GPRMC,130156,A,5442.9359,N,11318.4662,W,000.0,177.4,220819,017.7,E*6D
01DE42,02264E,00C4A8,$GPRMC,130157,A,5442.9358,N,11318.4661,W,000.0,177.4,220819,017.7,E*6E
01DE3F,02264C,00C4A7,$GPRMC,130158,A,5442.9356,N,11318.4661,W,000.0,177.4,220819,017.7,E*6F
01DE40,02264C,00C4A8,$GPRMC,130159,A,5442.9356,N,11318.4660,W,000.0,177.4,220819,017.7,E*6F
01DE3D,022647,00C4A6,$GPRMC,130200,A,5442.9355,N,11318.4659,W,000.0,177.4,220819,017.7,E*69
01DE40,02264C,00C4A7,$GPRMC,130201,A,5442.9355,N,11318.4658,W,000.0,177.4,220819,017.7,E*69
01DE41,02264D,00C4A8,$GPRMC,130202,A,5442.9355,N,11318.4656,W,000.0,177.4,220819,017.7,E*64
01DE41,02264C,00C4A8,$GPRMC,130203,A,5442.9356,N,11318.4655,W,000.0,177.4,220819,017.7,E*65
01DE40,02264A,00C4A7,$GPRMC,130204,A,5442.9356,N,11318.4654,W,000.0,177.4,220819,017.7,E*63
01DE40,02264A,00C4A7,$GPRMC,130205,A,5442.9357,N,11318.4653,W,000.0,177.4,220819,017.7,E*64
01DE3F,022648,00C4A7,$GPRMC,130206,A,5442.9357,N,11318.4653,W,000.0,177.4,220819,017.7,E*67
01DE43,02264F,00C4A9,$GPRMC,130207,A,5442.9357,N,11318.4653,W,000.0,177.4,220819,017.7,E*66
01DE3D,022645,00C4A5,$GPRMC,130208,A,5442.9358,N,11318.4652,W,000.0,177.4,220819,017.7,E*67
01DE3F,02264A,00C4A6,$GPRMC,130209,A,5442.9358,N,11318.4652,W,000.0,177.4,220819,017.7,E*66
01DE3F,022649,00C4A7,$GPRMC,130210,A,5442.9359,N,11318.4651,W,000.0,177.4,220819,017.7,E*6C
01DE3D,022646,00C4A6,$GPRMC,130211,A,5442.9360,N,11318.4651,W,000.0,177.4,220819,017.7,E*67
01DE3E,022647,00C4A7,$GPRMC,130212,A,5442.9360,N,11318.4651,W,000.0,177.4,220819,017.7,E*64
01DE40,02264B,00C4A8,$GPRMC,130213,A,5442.9361,N,11318.4650,W,000.0,177.4,220819,017.7,E*65
01DE3C,022644,00C4A6,$GPRMC,130214,A,5442.9361,N,11318.4650,W,000.0,177.4,220819,017.7,E*62
01DE3C,022645,00C4A5,$GPRMC,130215,A,5442.9361,N,11318.4651,W,000.0,177.4,220819,017.7,E*62
01DE3C,022644,00C4A5,$GPRMC,130216,A,5442.9359,N,11318.4652,W,000.0,177.4,220819,017.7,E*69
01DE3B,022644,00C4A6,$GPRMC,130217,A,5442.9358,N,11318.4652,W,000.0,177.4,220819,017.7,E*69
01DE43,022650,00C4AA,$GPRMC,130218,A,5442.9356,N,11318.4654,W,000.0,177.4,220819,017.7,E*6E
01DE3F,02264A,00C4A8,$GPRMC,130219,A,5442.9358,N,11318.4654,W,000.0,177.4,220819,017.7,E*61
01DE3D,022648,00C4A7,$GPRMC,130220,A,5442.9353,N,11318.4658,W,000.0,177.4,220819,017.7,E*6C
01DE40,02264B,00C4A8,$GPRMC,130221,A,5442.9354,N,11318.4658,W,000.0,177.4,220819,017.7,E*6A
01DE42,02264F,00C4A9,$GPRMC,130222,A,5442.9355,N,11318.4659,W,000.0,177.4,220819,017.7,E*69
01DE41,02264D,00C4A8,$GPRMC,130223,A,5442.9355,N,11318.4659,W,000.0,177.4,220819,017.7,E*68
01DE40,02264B,00C4A8,$GPRMC,130224,A,5442.9351,N,11318.4662,W,000.0,177.4,220819,017.7,E*63
01DE3F,02264B,00C4A8,$GPRMC,130225,A,5442.9348,N,11318.4664,W,000.0,177.4,220819,017.7,E*6C
01DE3F,02264A,00C4A7,$GPRMC,130226,A,5442.9344,N,11318.4666,W,000.0,177.4,220819,017.7,E*61
01DE3E,02264A,00C4A7,$GPRMC,130227,A,5442.9341,N,11318.4668,W,000.0,177.4,220819,017.7,E*6B
01DE40,02264C,00C4A9,$GPRMC,130228,A,5442.9345,N,11318.4669,W,000.0,177.4,220819,017.7,E*61
01DE41,02264E,00C4AA,$GPRMC,130229,A,5442.9347,N,11318.4669,W,000.0,177.4,220819,017.7,E*62
01DE3F,02264C,00C4A9,$GPRMC,130230,A,5442.9346,N,11318.4670,W,000.0,177.4,220819,017.7,E*63
01DE3B,022644,00C4A6,$GPRMC,130231,A,5442.9346,N,11318.4671,W,000.0,177.4,220819,017.7,E*63
01DE3D,022649,00C4A8,$GPRMC,130232,A,5442.9350,N,11318.4669,W,000.0,177.4,220819,017.7,E*6E
01DE3B,022645,00C4A6,$GPRMC,130233,A,5442.9351,N,11318.4668,W,000.0,177.4,220819,017.7,E*6F
01DE3E,02264B,00C4A9,$GPRMC,130234,A,5442.9352,N,11318.4667,W,000.0,177.4,220819,017.7,E*64
01DE3E,02264B,00C4A9,$GPRMC,130235,A,5442.9352,N,11318.4666,W,000.0,177.4,220819,017.7,E*64
01DE3D,022649,00C4A9,$GPRMC,130236,A,5442.9354,N,11318.4662,W,000.0,177.4,220819,017.7,E*65
01DE3B,022646,00C4A7,$GPRMC,130237,A,5442.9356,N,11318.4660,W,000.0,177.4,220819,017.7,E*64
01DE3C,022649,00C4A8,$GPRMC,130238,A,5442.9357,N,11318.4657,W,000.0,177.4,220819,017.7,E*6E
01DE3D,02264A,00C4A9,$GPRMC,130239,A,5442.9357,N,11318.4655,W,000.0,177.4,220819,017.7,E*6D
01DE3C,022649,00C4A8,$GPRMC,130240,A,5442.9358,N,11318.4652,W,000.0,177.4,220819,017.7,E*6B
01DE39,022646,00C4A7,$GPRMC,130241,A,5442.9358,N,11318.4652,W,000.0,177.4,220819,017.7,E*6A
01DE3C,02264B,00C4A9,$GPRMC,130242,A,5442.9358,N,11318.4651,W,000.0,177.4,220819,017.7,E*6A
01DE3D,02264C,00C4AA,$GPRMC,130243,A,5442.9358,N,11318.4650,W,000.0,177.4,220819,017.7,E*6A
01DE3B,02264B,00C4A9,$GPRMC,130244,A,5442.9358,N,11318.4649,W,000.0,177.4,220819,017.7,E*65
01DE3A,022648,00C4A8,$GPRMC,130245,A,5442.9358,N,11318.4648,W,000.0,177.4,220819,017.7,E*65
01DE3D,02264D,00C4A9,$GPRMC,130246,A,5442.9358,N,11318.4647,W,000.0,177.4,220819,017.7,E*69
01DE3B,02264A,00C4A9,$GPRMC,130247,A,5442.9357,N,11318.4646,W,000.0,177.4,220819,017.7,E*66
01DE38,022648,00C4A7,$GPRMC,130248,A,5442.9358,N,11318.4645,W,000.0,177.4,220819,017.7,E*65
01DE3C,02264C,00C4A9,$GPRMC,130249,A,5442.9361,N,11318.4644,W,000.0,177.4,220819,017.7,E*6F
01DE3B,02264D,00C4A9,$GPRMC,130250,A,5442.9362,N,11318.4644,W,000.0,177.4,220819,017.7,E*64
01DE36,022648,00C4A7,$GPRMC,130251,A,5442.9362,N,11318.4643,W,000.0,177.4,220819,017.7,E*62
01DE37,022649,00C4A8,$GPRMC,130252,A,5442.9363,N,11318.4643,W,000.0,177.4,220819,017.7,E*60
01DE3A,02264D,00C4AA,$GPRMC,130253,A,5442.9364,N,11318.4643,W,000.0,177.4,220819,017.7,E*66
01DE38,02264C,00C4A9,$GPRMC,130254,A,5442.9364,N,11318.4643,W,000.0,177.4,220819,017.7,E*61
01DE37,02264A,00C4A8,$GPRMC,130255,A,5442.9366,N,11318.4643,W,000.0,177.4,220819,017.7,E*62
01DE3C,022651,00C4AA,$GPRMC,130256,A,5442.9367,N,11318.4642,W,000.0,177.4,220819,017.7,E*61
01DE36,022648,00C4A7,$GPRMC,130257,A,5442.9368,N,11318.4641,W,000.0,177.4,220819,017.7,E*6C
01DE34,022645,00C4A6,$GPRMC,130258,A,5442.9372,N,11318.4639,W,000.0,177.4,220819,017.7,E*67
01DE39,02264C,00C4A9,$GPRMC,130259,A,5442.9373,N,11318.4639,W,000.0,177.4,220819,017.7,E*67
01DE36,022649,00C4A8,$GPRMC,130300,A,5442.9374,N,11318.4639,W,000.0,177.4,220819,017.7,E*6D
01DE38,02264C,00C4A8,$GPRMC,130301,A,5442.9377,N,11318.4638,W,000.0,177.4,220819,017.7,E*6E
01DE38,02264D,00C4A9,$GPRMC,130302,A,5442.9378,N,11318.4638,W,000.0,177.4,220819,017.7,E*62
01DE39,02264E,00C4A9,$GPRMC,130303,A,5442.9379,N,11318.4637,W,000.0,177.4,220819,017.7,E*6D
01DE39,02264F,00C4A9,$GPRMC,130304,A,5442.9381,N,11318.4637,W,000.0,177.4,220819,017.7,E*6D
01DE3A,022650,00C4AA,$GPRMC,130305,A,5442.9382,N,11318.4636,W,000.0,177.4,220819,017.7,E*6E
01DE38,02264D,00C4A9,$GPRMC,130306,A,5442.9383,N,11318.4636,W,000.0,177.4,220819,017.7,E*6C
01DE37,02264E,00C4A9,$GPRMC,130307,A,5442.9384,N,11318.4636,W,000.0,177.4,220819,017.7,E*6A
01DE36,02264B,00C4A8,$GPRMC,130308,A,5442.9384,N,11318.4637,W,000.0,177.4,220819,017.7,E*64
01DE36,02264B,00C4A8,$GPRMC,130309,A,5442.9385,N,11318.4637,W,000.0,177.4,220819,017.7,E*64
01DE38,02264F,00C4AA,$GPRMC,130310,A,5442.9386,N,11318.4637,W,000.0,177.4,220819,017.7,E*6F
01DE36,02264B,00C4A8,$GPRMC,130311,A,5442.9387,N,11318.4637,W,000.0,177.4,220819,017.7,E*6F
01DE35,022649,00C4A7,$GPRMC,130312,A,5442.9388,N,11318.4637,W,000.0,177.4,220819,017.7,E*63
01DE34,022649,00C4A7,$GPRMC,130313,A,5442.9389,N,11318.4635,W,000.0,177.4,220819,017.7,E*61
01DE38,02264D,00C4A9,$GPRMC,130314,A,5442.9390,N,11318.4634,W,000.0,177.4,220819,017.7,E*6F
01DE37,02264D,00C4A8,$GPRMC,130315,A,5442.9387,N,11318.4634,W,000.0,177.4,220819,017.7,E*68
01DE34,022646,00C4A6,$GPRMC,130316,A,5442.9390,N,11318.4633,W,000.0,177.4,220819,017.7,E*6A
01DE3A,022650,00C4AB,$GPRMC,130317,A,5442.9392,N,11318.4632,W,000.0,177.4,220819,017.7,E*68
01DE39,02264D,00C4A9,$GPRMC,130318,A,5442.9393,N,11318.4632,W,000.0,177.4,220819,017.7,E*66
01DE33,022645,00C4A5,$GPRMC,130319,A,5442.9393,N,11318.4633,W,000.0,177.4,220819,017.7,E*66
01DE35,022647,00C4A7,$GPRMC,130320,A,5442.9392,N,11318.4634,W,000.0,177.4,220819,017.7,E*6A
01DE3A,02264F,00C4AA,$GPRMC,130321,A,5442.9393,N,11318.4634,W,000.0,177.4,220819,017.7,E*6A
01DE31,022644,00C4A5,$GPRMC,130322,A,5442.9395,N,11318.4634,W,000.0,177.4,220819,017.7,E*6F
01DE35,022649,00C4A8,$GPRMC,130323,A,5442.9396,N,11318.4634,W,000.0,177.4,220819,017.7,E*6D
01DE39,02264F,00C4AB,$GPRMC,130324,A,5442.9398,N,11318.4633,W,000.0,177.4,220819,017.7,E*63
01DE35,022649,00C4A8,$GPRMC,130325,A,5442.9399,N,11318.4633,W,000.0,177.4,220819,017.7,E*63
01DE34,022649,00C4A8,$GPRMC,130326,A,5442.9400,N,11318.4633,W,000.0,177.4,220819,017.7,E*67
01DE36,02264D,00C4A9,$GPRMC,130327,A,5442.9401,N,11318.4632,W,000.0,177.4,220819,017.7,E*66
01DE38,02264F,00C4AA,$GPRMC,130328,A,5442.9402,N,11318.4632,W,000.0,177.4,220819,017.7,E*6A
01DE35,022649,00C4A8,$GPRMC,130329,A,5442.9403,N,11318.4631,W,000.0,177.4,220819,017.7,E*69
01DE37,02264D,00C4AA,$GPRMC,130330,A,5442.9404,N,11318.4630,W,000.0,177.4,220819,017.7,E*67
01DE36,02264D,00C4A9,$GPRMC,130331,A,5442.9403,N,11318.4630,W,000.0,177.4,220819,017.7,E*61
01DE35,02264A,00C4A8,$GPRMC,130332,A,5442.9401,N,11318.4630,W,000.0,177.4,220819,017.7,E*60
01DE31,022645,00C4A5,$GPRMC,130333,A,5442.9401,N,11318.4629,W,000.0,177.4,220819,017.7,E*69
01DE35,02264B,00C4A8,$GPRMC,130334,A,5442.9403,N,11318.4627,W,000.0,177.4,220819,017.7,E*62
01DE32,022647,00C4A6,$GPRMC,130335,A,5442.9404,N,11318.4624,W,000.0,177.4,220819,017.7,E*67
01DE32,022646,00C4A6,$GPRMC,130336,A,5442.9406,N,11318.4622,W,000.0,177.4,220819,017.7,E*60
01DE34,02264A,00C4A8,$GPRMC,130337,A,5442.9407,N,11318.4621,W,000.0,177.4,220819,017.7,E*63
01DE35,02264A,00C4A8,$GPRMC,130338,A,5442.9407,N,11318.4619,W,000.0,177.4,220819,017.7,E*67
01DE34,02264A,00C4A8,$GPRMC,130339,A,5442.9406,N,11318.4619,W,000.0,177.4,220819,017.7,E*67
01DE31,022645,00C4A7,$GPRMC,130340,A,5442.9405,N,11318.4618,W,000.0,177.4,220819,017.7,E*6B
01DE36,02264C,00C4A9,$GPRMC,130341,A,5442.9404,N,11318.4618,W,000.0,177.4,220819,017.7,E*6B
01DE32,022646,00C4A7,$GPRMC,130342,A,5442.9402,N,11318.4618,W,000.0,177.4,220819,017.7,E*6E
01DE31,022644,00C4A6,$GPRMC,130343,A,5442.9400,N,11318.4619,W,000.0,177.4,220819,017.7,E*6C
01DE38,02264F,00C4AA,$GPRMC,130344,A,5442.9401,N,11318.4619,W,000.0,177.4,220819,017.7,E*6A
01DE34,022649,00C4A8,$GPRMC,130345,A,5442.9401,N,11318.4619,W,000.0,177.4,220819,017.7,E*6B
01DE38,02264F,00C4AA,$GPRMC,130346,A,5442.9401,N,11318.4619,W,000.0,177.4,220819,017.7,E*68
01DE36,02264D,00C4A9,$GPRMC,130347,A,5442.9402,N,11318.4620,W,000.0,177.4,220819,017.7,E*60
01DE34,022649,00C4A7,$GPRMC,130348,A,5442.9403,N,11318.4620,W,000.0,177.4,220819,017.7,E*6E
01DE38,02264F,00C4AA,$GPRMC,130349,A,5442.9403,N,11318.4620,W,000.0,177.4,220819,017.7,E*6F
01DE37,02264D,00C4A9,$GPRMC,130350,A,5442.9404,N,11318.4620,W,000.0,177.4,220819,017.7,E*60
01DE35,022649,00C4A8,$GPRMC,130351,A,5442.9405,N,11318.4619,W,000.0,177.4,220819,017.7,E*6A
01DE36,02264D,00C4A9,$GPRMC,130352,A,5442.9406,N,11318.4619,W,000.0,177.4,220819,017.7,E*6A
01DE36,02264D,00C4A9,$GPRMC,130353,A,5442.9408,N,11318.4618,W,000.0,177.4,220819,017.7,E*64
01DE34,02264B,00C4A8,$GPRMC,130354,A,5442.9409,N,11318.4618,W,000.0,177.4,220819,017.7,E*62
01DE35,02264D,00C4A9,$GPRMC,130355,A,5442.9410,N,11318.4619,W,000.0,177.4,220819,017.7,E*6A
01DE37,02264F,00C4AA,$GPRMC,130356,A,5442.9410,N,11318.4619,W,000.0,177.4,220819,017.7,E*69
01DE34,02264A,00C4A8,$GPRMC,130357,A,5442.9411,N,11318.4620,W,000.0,177.4,220819,017.7,E*63
01DE34,02264C,00C4A8,$GPRMC,130358,A,5442.9413,N,11318.4622,W,000.0,177.4,220819,017.7,E*6C
01DE35,02264D,00C4A9,$GPRMC,130359,A,5442.9416,N,11318.4622,W,000.0,177.4,220819,017.7,E*68
01DE37,02264E,00C4A9,$GPRMC,130400,A,5442.9419,N,11318.4623,W,000.0,177.4,220819,017.7,E*6D
01DE37,02264F,00C4A9,$GPRMC,130401,A,5442.9421,N,11318.4623,W,000.0,177.4,220819,017.7,E*67
01DE36,02264E,00C4A9,$GPRMC,130402,A,5442.9423,N,11318.4623,W,000.0,177.4,220819,017.7,E*66
01DE36,02264F,00C4A9,$GPRMC,130403,A,5442.9424,N,11318.4623,W,000.0,177.4,220819,017.7,E*60
01DE32,022649,00C4A7,$GPRMC,130404,A,5442.9425,N,11318.4623,W,000.0,177.4,220819,017.7,E*66
01DE34,02264C,00C4A8,$GPRMC,130405,A,5442.9425,N,11318.4622,W,000.0,177.4,220819,017.7,E*66
01DE33,02264D,00C4A8,$GPRMC,130406,A,5442.9425,N,11318.4622,W,000.0,177.4,220819,017.7,E*65
01DE38,022652,00C4AB,$GPRMC,130407,A,5442.9426,N,11318.4622,W,000.0,177.4,220819,017.7,E*67
01DE32,02264B,00C4A8,$GPRMC,130408,A,5442.9428,N,11318.4621,W,000.0,177.4,220819,017.7,E*65
01DE35,02264F,00C4A9,$GPRMC,130409,A,5442.9428,N,11318.4621,W,000.0,177.4,220819,017.7,E*64
01DE36,022650,00C4AA,$GPRMC,130410,A,5442.9427,N,11318.4622,W,000.0,177.4,220819,017.7,E*60
01DE37,022652,00C4AB,$GPRMC,130411,A,5442.9426,N,11318.4623,W,000.0,177.4,220819,017.7,E*61
01DE36,02264F,00C4AA,$GPRMC,130412,A,5442.9424,N,11318.4626,W,000.0,177.4,220819,017.7,E*65
01DE35,022650,00C4AA,$GPRMC,130413,A,5442.9422,N,11318.4628,W,000.0,177.4,220819,017.7,E*6C
01DE37,022651,00C4AB,$GPRMC,130414,A,5442.9420,N,11318.4631,W,000.0,177.4,220819,017.7,E*61
01DE39,022656,00C4AC,$GPRMC,130415,A,5442.9418,N,11318.4633,W,000.0,177.4,220819,017.7,E*69
01DE39,022656,00C4AC,$GPRMC,130416,A,5442.9416,N,11318.4635,W,000.0,177.4,220819,017.7,E*62
01DE3A,022656,00C4AC,$GPRMC,130417,A,5442.9414,N,11318.4637,W,000.0,177.4,220819,017.7,E*63
01DE3A,022657,00C4AD,$GPRMC,130418,A,5442.9412,N,11318.4639,W,000.0,177.4,220819,017.7,E*64
01DE38,022654,00C4AC,$GPRMC,130419,A,5442.9411,N,11318.4639,W,000.0,177.4,220819,017.7,E*66
01DE3A,022656,00C4AC,$GPRMC,130420,A,5442.9410,N,11318.4639,W,000.0,177.4,220819,017.7,E*6D
01DE3A,022658,00C4AD,$GPRMC,130421,A,5442.9407,N,11318.4640,W,000.0,177.4,220819,017.7,E*64
01DE39,022655,00C4AC,$GPRMC,130422,A,5442.9405,N,11318.4642,W,000.0,177.4,220819,017.7,E*67
01DE38,022655,00C4AD,$GPRMC,130423,A,5442.9402,N,11318.4643,W,000.0,177.4,220819,017.7,E*60
01DE36,022653,00C4AC,$GPRMC,130424,A,5442.9400,N,11318.4644,W,000.0,177.4,220819,017.7,E*62
01DE35,022653,00C4AB,$GPRMC,130425,A,5442.9397,N,11318.4645,W,000.0,177.4,220819,017.7,E*6B
01DE37,022654,00C4AB,$GPRMC,130426,A,5442.9395,N,11318.4646,W,000.0,177.4,220819,017.7,E*69
01DE38,022657,00C4AD,$GPRMC,130427,A,5442.9393,N,11318.4647,W,000.0,177.4,220819,017.7,E*6F
01DE37,022656,00C4AC,$GPRMC,130428,A,5442.9391,N,11318.4648,W,000.0,177.4,220819,017.7,E*6D
01DE38,022657,00C4AC,$GPRMC,130429,A,5442.9389,N,11318.4650,W,000.0,177.4,220819,017.7,E*6C
01DE37,022655,00C4AB,$GPRMC,130430,A,5442.9387,N,11318.4651,W,000.0,177.4,220819,017.7,E*6B
01DE37,022656,00C4AB,$GPRMC,130431,A,5442.9386,N,11318.4652,W,000.0,177.4,220819,017.7,E*68
01DE39,022658,00C4AC,$GPRMC,130432,A,5442.9385,N,11318.4653,W,000.0,177.4,220819,017.7,E*69
01DE36,022654,00C4A9,$GPRMC,130433,A,5442.9385,N,11318.4654,W,000.0,177.4,220819,017.7,E*6F
01DE39,02265A,00C4AB,$GPRMC,130434,A,5442.9385,N,11318.4655,W,000.0,177.4,220819,017.7,E*69
01DE34,022651,00C4A8,$GPRMC,130435,A,5442.9386,N,11318.4655,W,000.0,177.4,220819,017.7,E*6B
01DE34,022652,00C4A8,$GPRMC,130436,A,5442.9386,N,11318.4655,W,000.0,177.4,220819,017.7,E*68
01DE32,022654,00C4A8,$GPRMC,130437,A,5442.9388,N,11318.4656,W,000.0,177.4,220819,017.7,E*64
01DE2F,022653,00C4A8,$GPRMC,130438,A,5442.9388,N,11318.4656,W,000.0,177.4,220819,017.7,E*6B
01DE31,022659,00C4AA,$GPRMC,130439,A,5442.9388,N,11318.4656,W,000.0,177.4,220819,017.7,E*6A
01DE2E,022653,00C4A8,$GPRMC,130440,A,5442.9387,N,11318.4657,W,000.0,177.4,220819,017.7,E*6A
01DE2D,022654,00C4A8,$GPRMC,130441,A,5442.9385,N,11318.4657,W,000.0,177.4,220819,017.7,E*69
01DE33,02265B,00C4AB,$GPRMC,130442,A,5442.9382,N,11318.4657,W,000.0,177.4,220819,017.7,E*6D
01DE2F,022656,00C4A9,$GPRMC,130443,A,5442.9380,N,11318.4658,W,000.0,177.4,220819,017.7,E*61
01DE30,022656,00C4A9,$GPRMC,130444,A,5442.9377,N,11318.4659,W,000.0,177.4,220819,017.7,E*6F
01DE30,022656,00C4A8,$GPRMC,130445,A,5442.9374,N,11318.4660,W,000.0,177.4,220819,017.7,E*67
01DE33,022657,00C4A9,$GPRMC,130446,A,5442.9370,N,11318.4661,W,000.0,177.4,220819,017.7,E*61
01DE2F,022650,00C4A7,$GPRMC,130447,A,5442.9367,N,11318.4662,W,000.0,177.4,220819,017.7,E*65
01DE35,022659,00C4AB,$GPRMC,130448,A,5442.9366,N,11318.4661,W,000.0,177.4,220819,017.7,E*68
01DE36,022658,00C4AB,$GPRMC,130449,A,5442.9364,N,11318.4661,W,000.0,177.4,220819,017.7,E*6B
01DE34,022655,00C4AA,$GPRMC,130450,A,5442.9363,N,11318.4661,W,000.0,177.4,220819,017.7,E*64
01DE34,022654,00C4AA,$GPRMC,130451,A,5442.9362,N,11318.4660,W,000.0,177.4,220819,017.7,E*65
01DE37,022656,00C4AB,$GPRMC,130452,A,5442.9362,N,11318.4660,W,000.0,177.4,220819,017.7,E*66
01DE37,022655,00C4AA,$GPRMC,130453,A,5442.9362,N,11318.4659,W,000.0,177.4,220819,017.7,E*6D
01DE36,022654,00C4AA,$GPRMC,130454,A,5442.9363,N,11318.4659,W,000.0,177.4,220819,017.7,E*6B
01DE37,022655,00C4AA,$GPRMC,130455,A,5442.9361,N,11318.4659,W,000.0,177.4,220819,017.7,E*68
01DE37,022655,00C4AA,$GPRMC,130456,A,5442.9364,N,11318.4658,W,000.0,177.4,220819,017.7,E*6F
01DE36,022654,00C4A9,$GPRMC,130457,A,5442.9367,N,11318.4658,W,000.0,177.4,220819,017.7,E*6D
01DE38,022656,00C4AA,$GPRMC,130458,A,5442.9370,N,11318.4657,W,000.0,177.4,220819,017.7,E*6B
01DE3A,02265A,00C4AD,$GPRMC,130459,A,5442.9372,N,11318.4657,W,000.0,177.4,220819,017.7,E*68
01DE36,022654,00C4AA,$GPRMC,130500,A,5442.9373,N,11318.4655,W,000.0,177.4,220819,017.7,E*66
01DE3A,022659,00C4AC,$GPRMC,130501,A,5442.9374,N,11318.4654,W,000.0,177.4,220819,017.7,E*61
01DE37,022656,00C4AB,$GPRMC,130502,A,5442.9376,N,11318.4653,W,000.0,177.4,220819,017.7,E*67
01DE37,022657,00C4AC,$GPRMC,130503,A,5442.9377,N,11318.4653,W,000.0,177.4,220819,017.7,E*67
01DE37,022658,00C4AC,$GPRMC,130504,A,5442.9378,N,11318.4653,W,000.0,177.4,220819,017.7,E*6F
01DE36,022658,00C4AC,$GPRMC,130505,A,5442.9378,N,11318.4654,W,000.0,177.4,220819,017.7,E*69
01DE36,022656,00C4AD,$GPRMC,130506,A,5442.9379,N,11318.4654,W,000.0,177.4,220819,017.7,E*6B
01DE33,022652,00C4AA,$GPRMC,130507,A,5442.9380,N,11318.4655,W,000.0,177.4,220819,017.7,E*6D
01DE34,022654,00C4AA,$GPRMC,130508,A,5442.9383,N,11318.4655,W,000.0,177.4,220819,017.7,E*61
01DE36,022657,00C4AC,$GPRMC,130509,A,5442.9388,N,11318.4659,W,000.0,177.4,220819,017.7,E*67
01DE32,022651,00C4A9,$GPRMC,130510,A,5442.9388,N,11318.4659,W,000.0,177.4,220819,017.7,E*6F
01DE33,022651,00C4AA,$GPRMC,130511,A,5442.9390,N,11318.4659,W,000.0,177.4,220819,017.7,E*67
01DE34,022653,00C4AB,$GPRMC,130512,A,5442.9390,N,11318.4660,W,000.0,177.4,220819,017.7,E*6E
01DE38,022659,00C4AD,$GPRMC,130513,A,5442.9390,N,11318.4660,W,000.0,177.4,220819,017.7,E*6F
01DE34,022652,00C4AA,$GPRMC,130514,A,5442.9392,N,11318.4659,W,000.0,177.4,220819,017.7,E*60
01DE36,022657,00C4AC,$GPRMC,130515,A,5442.9393,N,11318.4659,W,000.0,177.4,220819,017.7,E*60
01DE35,022655,00C4AB,$GPRMC,130516,A,5442.9394,N,11318.4658,W,000.0,177.4,220819,017.7,E*65
01DE36,022656,00C4AC,$GPRMC,130517,A,5442.9395,N,11318.4659,W,000.0,177.4,220819,017.7,E*64
01DE35,022654,00C4AB,$GPRMC,130518,A,5442.9396,N,11318.4658,W,000.0,177.4,220819,017.7,E*69
01DE32,02264F,00C4A9,$GPRMC,130519,A,5442.9396,N,11318.4658,W,000.0,177.4,220819,017.7,E*68
01DE36,022654,00C4AC,$GPRMC,130520,A,5442.9397,N,11318.4658,W,000.0,177.4,220819,017.7,E*63
01DE34,022651,00C4AA,$GPRMC,130521,A,5442.9400,N,11318.4658,W,000.0,177.4,220819,017.7,E*6B
01DE34,022652,00C4AA,$GPRMC,130522,A,5442.9397,N,11318.4659,W,000.0,177.4,220819,017.7,E*60
01DE39,022657,00C4AC,$GPRMC,130523,A,5442.9399,N,11318.4659,W,000.0,177.4,220819,017.7,E*6F
01DE36,022655,00C4AB,$GPRMC,130524,A,5442.9401,N,11318.4659,W,000.0,177.4,220819,017.7,E*6E
01DE35,022652,00C4AB,$GPRMC,130525,A,5442.9401,N,11318.4660,W,000.0,177.4,220819,017.7,E*65
01DE33,02264E,00C4A9,$GPRMC,130526,A,5442.9401,N,11318.4661,W,000.0,177.4,220819,017.7,E*67
01DE38,022656,00C4AC,$GPRMC,130527,A,5442.9401,N,11318.4663,W,000.0,177.4,220819,017.7,E*64
01DE34,022651,00C4AB,$GPRMC,130528,A,5442.9402,N,11318.4663,W,000.0,177.4,220819,017.7,E*68
01DE36,022654,00C4AB,$GPRMC,130529,A,5442.9403,N,11318.4664,W,000.0,177.4,220819,017.7,E*6F
01DE35,022651,00C4AA,$GPRMC,130530,A,5442.9413,N,11318.4662,W,000.0,177.4,220819,017.7,E*60
01DE34,022651,00C4AA,$GPRMC,130531,A,5442.9412,N,11318.4663,W,000.0,177.4,220819,017.7,E*61
01DE38,022656,00C4AC,$GPRMC,130532,A,5442.9410,N,11318.4665,W,000.0,177.4,220819,017.7,E*66
01DE34,022651,00C4AA,$GPRMC,130533,A,5442.9408,N,11318.4666,W,000.0,177.4,220819,017.7,E*6D
01DE38,022658,00C4AD,$GPRMC,130534,A,5442.9406,N,11318.4667,W,000.0,177.4,220819,017.7,E*65
01DE37,022657,00C4AB,$GPRMC,130535,A,5442.9405,N,11318.4667,W,000.0,177.4,220819,017.7,E*67
01DE38,02265A,00C4AC,$GPRMC,130536,A,5442.9404,N,11318.4667,W,000.0,177.4,220819,017.7,E*65
01DE37,022655,00C4AB,$GPRMC,130537,A,5442.9403,N,11318.4667,W,000.0,177.4,220819,017.7,E*63
01DE36,022655,00C4AB,$GPRMC,130538,A,5442.9402,N,11318.4667,W,000.0,177.4,220819,017.7,E*6D
01DE35,022654,00C4AB,$GPRMC,130539,A,5442.9402,N,11318.4667,W,000.0,177.4,220819,017.7,E*6C
01DE38,022658,00C4AC,$GPRMC,130540,A,5442.9402,N,11318.4666,W,000.0,177.4,220819,017.7,E*63
01DE37,022656,00C4AB,$GPRMC,130541,A,5442.9402,N,11318.4666,W,000.0,177.4,220819,017.7,E*62
01DE35,022654,00C4AB,$GPRMC,130542,A,5442.9402,N,11318.4666,W,000.0,177.4,220819,017.7,E*61
01DE37,022656,00C4AC,$GPRMC,130543,A,5442.9402,N,11318.4665,W,000.0,177.4,220819,017.7,E*63
01DE35,022654,00C4AB,$GPRMC,130544,A,5442.9404,N,11318.4668,W,000.0,177.4,220819,017.7,E*6F
01DE34,022652,00C4AA,$GPRMC,130545,A,5442.9405,N,11318.4671,W,000.0,177.4,220819,017.7,E*67
01DE31,02264F,00C4A8,$GPRMC,130546,A,5442.9405,N,11318.4669,W,000.0,177.4,220819,017.7,E*6D
01DE33,022651,00C4AA,$GPRMC,130547,A,5442.9405,N,11318.4667,W,000.0,177.4,220819,017.7,E*62
01DE32,022650,00C4A9,$GPRMC,130548,A,5442.9402,N,11318.4668,W,000.0,177.4,220819,017.7,E*65
01DE34,022654,00C4AA,$GPRMC,130549,A,5442.9402,N,11318.4667,W,000.0,177.4,220819,017.7,E*6B
01DE33,022651,00C4A9,$GPRMC,130550,A,5442.9405,N,11318.4663,W,000.0,177.4,220819,017.7,E*60
01DE30,02264E,00C4A8,$GPRMC,130551,A,5442.9410,N,11318.4671,W,000.0,177.4,220819,017.7,E*66
01DE36,022656,00C4AB,$GPRMC,130552,A,5442.9412,N,11318.4679,W,000.0,177.4,220819,017.7,E*6F
01DE33,022650,00C4A9,$GPRMC,130553,A,5442.9413,N,11318.4686,W,000.0,177.4,220819,017.7,E*6F
01DE35,022656,00C4AA,$GPRMC,130554,A,5442.9415,N,11318.4693,W,000.0,177.4,220819,017.7,E*6A
01DE35,022656,00C4AA,$GPRMC,130555,A,5442.9413,N,11318.4692,W,000.0,177.4,220819,017.7,E*6C
01DE31,02264E,00C4A7,$GPRMC,130556,A,5442.9415,N,11318.4700,W,000.0,177.4,220819,017.7,E*63
01DE33,022650,00C4A9,$GPRMC,130557,A,5442.9418,N,11318.4695,W,000.0,177.4,220819,017.7,E*62
01DE34,022652,00C4A9,$GPRMC,130558,A,5442.9421,N,11318.4688,W,000.0,177.4,220819,017.7,E*6B
01DE32,02264F,00C4A7,$GPRMC,130559,A,5442.9424,N,11318.4682,W,000.0,177.4,220819,017.7,E*65
01DE35,022652,00C4A9,$GPRMC,130600,A,5442.9426,N,11318.4676,W,000.0,177.4,220819,017.7,E*63
01DE37,022657,00C4AA,$GPRMC,130601,A,5442.9429,N,11318.4670,W,000.0,177.4,220819,017.7,E*6B
01DE3A,02265F,00C4AD,$GPRMC,130602,A,5442.9423,N,11318.4671,W,000.0,177.4,220819,017.7,E*63
01DE33,022657,00C4A9,$GPRMC,130603,A,5442.9423,N,11318.4671,W,000.0,177.4,220819,017.7,E*62
01DE33,022657,00C4A9,$GPRMC,130604,A,5442.9418,N,11318.4669,W,000.0,177.4,220819,017.7,E*64
01DE31,022655,00C4A9,$GPRMC,130605,A,5442.9420,N,11318.4664,W,000.0,177.4,220819,017.7,E*63
01DE37,02265E,00C4AC,$GPRMC,130606,A,5442.9418,N,11318.4663,W,000.0,177.4,220819,017.7,E*6C
01DE34,02265A,00C4AA,$GPRMC,130607,A,5442.9417,N,11318.4658,W,000.0,177.4,220819,017.7,E*6A
01DE34,022659,00C4AA,$GPRMC,130608,A,5442.9414,N,11318.4657,W,000.0,177.4,220819,017.7,E*69
01DE33,022658,00C4A9,$GPRMC,130609,A,5442.9411,N,11318.4656,W,000.0,177.4,220819,017.7,E*6C
01DE39,022660,00C4AD,$GPRMC,130610,A,5442.9411,N,11318.4654,W,000.0,177.4,220819,017.7,E*66
01DE34,02265A,00C4AA,$GPRMC,130611,A,5442.9411,N,11318.4652,W,000.0,177.4,220819,017.7,E*61
01DE35,02265B,00C4AA,$GPRMC,130612,A,5442.9411,N,11318.4650,W,000.0,177.4,220819,017.7,E*60
01DE33,022657,00C4A9,$GPRMC,130613,A,5442.9414,N,11318.4646,W,000.0,177.4,220819,017.7,E*63
01DE36,02265A,00C4AA,$GPRMC,130614,A,5442.9415,N,11318.4644,W,000.0,177.4,220819,017.7,E*67
01DE35,022659,00C4AA,$GPRMC,130615,A,5442.9415,N,11318.4642,W,000.0,177.4,220819,017.7,E*60
01DE36,02265A,00C4AB,$GPRMC,130616,A,5442.9416,N,11318.4640,W,000.0,177.4,220819,017.7,E*62
01DE39,02265D,00C4AC,$GPRMC,130617,A,5442.9418,N,11318.4642,W,000.0,177.4,220819,017.7,E*6F
01DE36,022658,00C4AA,$GPRMC,130618,A,5442.9420,N,11318.4644,W,000.0,177.4,220819,017.7,E*6D
01DE34,022657,00C4A9,$GPRMC,130619,A,5442.9423,N,11318.4645,W,000.0,177.4,220819,017.7,E*6E
01DE37,022659,00C4AB,$GPRMC,130620,A,5442.9426,N,11318.4644,W,000.0,177.4,220819,017.7,E*60
01DE37,02265A,00C4AB,$GPRMC,130621,A,5442.9427,N,11318.4644,W,000.0,177.4,220819,017.7,E*60
01DE34,022653,00C4A8,$GPRMC,130622,A,5442.9428,N,11318.4640,W,000.0,177.4,220819,017.7,E*68
01DE35,022655,00C4AA,$GPRMC,130623,A,5442.9429,N,11318.4637,W,000.0,177.4,220819,017.7,E*68
01DE37,022658,00C4AB,$GPRMC,130624,A,5442.9429,N,11318.4634,W,000.0,177.4,220819,017.7,E*6C
01DE37,022657,00C4AA,$GPRMC,130625,A,5442.9429,N,11318.4631,W,000.0,177.4,220819,017.7,E*68
01DE39,022659,00C4AC,$GPRMC,130626,A,5442.9429,N,11318.4628,W,000.0,177.4,220819,017.7,E*63
01DE36,022655,00C4AA,$GPRMC,130627,A,5442.9431,N,11318.4630,W,000.0,177.4,220819,017.7,E*62
01DE3C,02265E,00C4AE,$GPRMC,130628,A,5442.9433,N,11318.4633,W,000.0,177.4,220819,017.7,E*6C
01DE38,022657,00C4AB,$GPRMC,130629,A,5442.9434,N,11318.4638,W,000.0,177.4,220819,017.7,E*61
01DE39,02265A,00C4AB,$GPRMC,130630,A,5442.9436,N,11318.4643,W,000.0,177.4,220819,017.7,E*67
01DE39,022658,00C4AB,$GPRMC,130631,A,5442.9438,N,11318.4648,W,000.0,177.4,220819,017.7,E*63
01DE39,022658,00C4AB,$GPRMC,130632,A,5442.9440,N,11318.4654,W,000.0,177.4,220819,017.7,E*62
01DE38,022657,00C4AA,$GPRMC,130633,A,5442.9440,N,11318.4654,W,000.0,177.4,220819,017.7,E*63
01DE38,022658,00C4AB,$GPRMC,130634,A,5442.9440,N,11318.4654,W,000.0,177.4,220819,017.7,E*64
01DE39,02265A,00C4AC,$GPRMC,130635,A,5442.9440,N,11318.4653,W,000.0,177.4,220819,017.7,E*62
01DE39,02265A,00C4AC,$GPRMC,130636,A,5442.9440,N,11318.4653,W,000.0,177.4,220819,017.7,E*61
01DE39,02265A,00C4AB,$GPRMC,130637,A,5442.9442,N,11318.4662,W,000.0,177.4,220819,017.7,E*60
01DE38,022659,00C4AB,$GPRMC,130638,A,5442.9443,N,11318.4671,W,000.0,177.4,220819,017.7,E*6C
01DE3B,02265C,00C4AC,$GPRMC,130639,A,5442.9445,N,11318.4679,W,000.0,177.4,220819,017.7,E*63
01DE37,022657,00C4A9,$GPRMC,130640,A,5442.9446,N,11318.4687,W,000.0,177.4,220819,017.7,E*6F
01DE38,022659,00C4AA,$GPRMC,130641,A,5442.9447,N,11318.4693,W,000.0,177.4,220819,017.7,E*6A
01DE3A,02265C,00C4AB,$GPRMC,130642,A,5442.9448,N,11318.4698,W,000.0,177.4,220819,017.7,E*6D
01DE3A,02265C,00C4AB,$GPRMC,130643,A,5442.9448,N,11318.4701,W,000.0,177.4,220819,017.7,E*6D
01DE3A,02265B,00C4AB,$GPRMC,130644,A,5442.9449,N,11318.4705,W,000.0,177.4,220819,017.7,E*6F
01DE3D,02265F,00C4AC,$GPRMC,130645,A,5442.9449,N,11318.4706,W,000.0,177.4,220819,017.7,E*6D
01DE3C,02265F,00C4AC,$GPRMC,130646,A,5442.9449,N,11318.4707,W,000.0,177.4,220819,017.7,E*6F
01DE3A,02265B,00C4A9,$GPRMC,130647,A,5442.9449,N,11318.4707,W,000.0,177.4,220819,017.7,E*6E
01DE39,02265A,00C4A9,$GPRMC,130648,A,5442.9449,N,11318.4707,W,000.0,177.4,220819,017.7,E*61
01DE3D,02265E,00C4AA,$GPRMC,130649,A,5442.9449,N,11318.4707,W,000.0,177.4,220819,017.7,E*60
01DE3C,02265D,00C4AA,$GPRMC,130650,A,5442.9449,N,11318.4707,W,000.0,177.4,220819,017.7,E*68
01DE3B,02265C,00C4A9,$GPRMC,130651,A,5442.9449,N,11318.4707,W,000.0,177.4,220819,017.7,E*69
01DE38,02265D,00C4A9,$GPRMC,130652,A,5442.9449,N,11318.4707,W,000.0,177.4,220819,017.7,E*6A
01DE3C,022661,00C4AC,$GPRMC,130653,A,5442.9449,N,11318.4706,W,000.0,177.4,220819,017.7,E*6A
01DE39,022660,00C4AA,$GPRMC,130654,A,5442.9449,N,11318.4706,W,000.0,177.4,220819,017.7,E*6D
01DE3A,02265F,00C4AB,$GPRMC,130655,A,5442.9449,N,11318.4706,W,000.0,177.4,220819,017.7,E*6C
01DE3B,022662,00C4AC,$GPRMC,130656,A,5442.9449,N,11318.4706,W,000.0,177.4,220819,017.7,E*6F
01DE39,02265F,00C4AA,$GPRMC,130657,A,5442.9449,N,11318.4706,W,000.0,177.4,220819,017.7,E*6E
01DE39,02265E,00C4AA,$GPRMC,130658,A,5442.9449,N,11318.4706,W,000.0,177.4,220819,017.7,E*61
01DE3A,022661,00C4AA,$GPRMC,130659,A,5442.9449,N,11318.4706,W,000.0,177.4,220819,017.7,E*60
01DE3A,022662,00C4AA,$GPRMC,130700,A,5442.9449,N,11318.4706,W,000.0,177.4,220819,017.7,E*6D
01DE35,02265B,00C4A8,$GPRMC,130701,A,5442.9449,N,11318.4706,W,000.0,177.4,220819,017.7,E*6C
01DE37,022661,00C4A9,$GPRMC,130702,A,5442.9449,N,11318.4706,W,000.0,177.4,220819,017.7,E*6F
01DE37,022661,00C4A9,$GPRMC,130703,A,5442.9449,N,11318.4706,W,000.0,177.4,220819,017.7,E*6E
01DE38,022663,00C4AA,$GPRMC,130704,A,5442.9449,N,11318.4706,W,000.0,177.4,220819,017.7,E*69
01DE38,022666,00C4AB,$GPRMC,130705,A,5442.9449,N,11318.4706,W,000.0,177.4,220819,017.7,E*68
01DE38,022667,00C4AB,$GPRMC,130706,A,5442.9449,N,11318.4706,W,000.0,177.4,220819,017.7,E*6B
01DE32,022660,00C4A9,$GPRMC,130707,A,5442.9449,N,11318.4706,W,000.0,177.4,220819,017.7,E*6A
01DE35,022667,00C4AB,$GPRMC,130708,A,5442.9450,N,11318.4706,W,000.0,177.4,220819,017.7,E*6D
01DE32,022662,00C4A9,$GPRMC,130709,A,5442.9450,N,11318.4706,W,000.0,177.4,220819,017.7,E*6C
01DE34,022664,00C4AA,$GPRMC,130710,A,5442.9450,N,11318.4706,W,000.0,177.4,220819,017.7,E*64
01DE36,022665,00C4AA,$GPRMC,130711,A,5442.9450,N,11318.4706,W,000.0,177.4,220819,017.7,E*65
01DE35,022662,00C4A9,$GPRMC,130712,A,5442.9450,N,11318.4706,W,000.0,177.4,220819,017.7,E*66
01DE35,022662,00C4A9,$GPRMC,130713,A,5442.9450,N,11318.4706,W,000.0,177.4,220819,017.7,E*67
01DE36,022661,00C4A8,$GPRMC,130714,A,5442.9450,N,11318.4706,W,000.0,177.4,220819,017.7,E*60
01DE39,022664,00C4A9,$GPRMC,130715,A,5442.9450,N,11318.4706,W,000.0,177.4,220819,017.7,E*61
01DE37,022660,00C4A9,$GPRMC,130716,A,5442.9450,N,11318.4706,W,000.0,177.4,220819,017.7,E*62
01DE3C,022666,00C4AB,$GPRMC,130717,V,5442.9450,N,11318.4705,W,,,220819,017.7,E*72
01DE3A,022663,00C4A9,$GPRMC,130718,V,5442.9450,N,11318.4705,W,,,220819,017.7,E*7D
01DE3B,022665,00C4A9,$GPRMC,130719,V,5442.9450,N,11318.4705,W,,,220819,017.7,E*7C
01DE37,022660,00C4A7,$GPRMC,130720,V,5442.9450,N,11318.4705,W,,,220819,017.7,E*76
01DE3D,022667,00C4AA,$GPRMC,130721,V,5442.9450,N,11318.4705,W,,,220819,017.7,E*77
01DE38,02265E,00C4A8,$GPRMC,130722,V,5442.9450,N,11318.4705,W,,,220819,017.7,E*74
01DE35,02265C,00C4A5,$GPRMC,130723,V,5442.9450,N,11318.4705,W,,,220819,017.7,E*75
01DE3B,022663,00C4A9,$GPRMC,130724,V,5442.9450,N,11318.4705,W,,,220819,017.7,E*72
01DE3D,022664,00C4AA,$GPRMC,130725,V,5442.9450,N,11318.4705,W,,,220819,017.7,E*73
01DE3B,022661,00C4A8,$GPRMC,130726,A,5442.9317,N,11318.4688,W,000.0,030.7,220819,017.7,E*63
01DE3A,02265F,00C4A7,$GPRMC,130727,A,5442.9320,N,11318.4706,W,000.0,177.4,220819,017.7,E*60
01DE3A,022660,00C4A8,$GPRMC,130728,A,5442.9320,N,11318.4709,W,000.0,177.4,220819,017.7,E*60
01DE3D,022663,00C4A9,$GPRMC,130729,A,5442.9320,N,11318.4711,W,000.0,177.4,220819,017.7,E*68
01DE3C,022661,00C4A8,$GPRMC,130730,A,5442.9329,N,11318.4752,W,001.9,344.3,220819,017.7,E*63
01DE3C,022662,00C4A8,$GPRMC,130731,A,5442.9330,N,11318.4770,W,000.0,344.3,220819,017.7,E*62
01DE3E,022663,00C4A9,$GPRMC,130732,A,5442.9333,N,11318.4781,W,000.0,344.3,220819,017.7,E*6C
01DE3E,022662,00C4A9,$GPRMC,130733,A,5442.9332,N,11318.4781,W,000.0,344.3,220819,017.7,E*6C
01DE3E,022662,00C4A8,$GPRMC,130734,A,5442.9332,N,11318.4781,W,000.0,344.3,220819,017.7,E*6B
01DE3F,022663,00C4A9,$GPRMC,130735,A,5442.9332,N,11318.4781,W,000.0,344.3,220819,017.7,E*6A
01DE3C,02265F,00C4A8,$GPRMC,130736,A,5442.9332,N,11318.4782,W,000.0,344.3,220819,017.7,E*6A
01DE3E,022662,00C4A9,$GPRMC,130737,A,5442.9332,N,11318.4782,W,000.0,344.3,220819,017.7,E*6B
01DE3C,02265F,00C4A7,$GPRMC,130738,A,5442.9332,N,11318.4782,W,000.0,344.3,220819,017.7,E*64
01DE3F,022663,00C4AA,$GPRMC,130739,A,5442.9332,N,11318.4782,W,000.0,344.3,220819,017.7,E*65
01DE43,022668,00C4AC,$GPRMC,130740,A,5442.9331,N,11318.4782,W,000.0,344.3,220819,017.7,E*68
01DE41,022664,00C4AA,$GPRMC,130741,A,5442.9331,N,11318.4782,W,000.0,344.3,220819,017.7,E*69
01DE3E,022661,00C4A9,$GPRMC,130742,A,5442.9331,N,11318.4782,W,000.0,344.3,220819,017.7,E*6A
01DE45,022669,00C4AD,$GPRMC,130743,A,5442.9331,N,11318.4782,W,000.0,344.3,220819,017.7,E*6B
01DE42,022666,00C4AB,$GPRMC,130744,A,5442.9331,N,11318.4782,W,000.0,344.3,220819,017.7,E*6C
01DE3F,022660,00C4A9,$GPRMC,130745,A,5442.9331,N,11318.4782,W,000.0,344.3,220819,017.7,E*6D
01DE42,022663,00C4AA,$GPRMC,130746,A,5442.9331,N,11318.4782,W,000.0,344.3,220819,017.7,E*6E
01DE3F,02265F,00C4A8,$GPRMC,130747,A,5442.9330,N,11318.4782,W,000.0,344.3,220819,017.7,E*6E
01DE41,022662,00C4AA,$GPRMC,130748,A,5442.9330,N,11318.4782,W,000.0,344.3,220819,017.7,E*61
01DE42,022663,00C4AB,$GPRMC,130749,A,5442.9330,N,11318.4782,W,000.0,344.3,220819,017.7,E*60
01DE43,022664,00C4AB,$GPRMC,130750,A,5442.9330,N,11318.4782,W,000.0,344.3,220819,017.7,E*68
01DE44,022666,00C4AB,$GPRMC,130751,A,5442.9330,N,11318.4783,W,000.0,344.3,220819,017.7,E*68
01DE41,022662,00C4AA,$GPRMC,130752,A,5442.9330,N,11318.4783,W,000.0,344.3,220819,017.7,E*6B
01DE42,022663,00C4AB,$GPRMC,130753,A,5442.9330,N,11318.4783,W,000.0,344.3,220819,017.7,E*6A
01DE43,022663,00C4AB,$GPRMC,130754,A,5442.9329,N,11318.4783,W,000.0,344.3,220819,017.7,E*65
01DE43,022664,00C4AB,$GPRMC,130755,A,5442.9329,N,11318.4783,W,000.0,344.3,220819,017.7,E*64
01DE41,022660,00C4AA,$GPRMC,130756,A,5442.9329,N,11318.4783,W,000.0,344.3,220819,017.7,E*67
01DE42,022662,00C4AB,$GPRMC,130757,A,5442.9329,N,11318.4783,W,000.0,344.3,220819,017.7,E*66
01DE42,022662,00C4AB,$GPRMC,130758,A,5442.9329,N,11318.4783,W,000.0,344.3,220819,017.7,E*69
01DE42,022663,00C4AC,$GPRMC,130759,A,5442.9329,N,11318.4783,W,000.0,344.3,220819,017.7,E*68
01DE40,022660,00C4AA,$GPRMC,130800,A,5442.9329,N,11318.4783,W,000.0,344.3,220819,017.7,E*6B
01DE43,022664,00C4AC,$GPRMC,130801,A,5442.9328,N,11318.4783,W,000.0,344.3,220819,017.7,E*6B
01DE41,022661,00C4AB,$GPRMC,130802,A,5442.9353,N,11318.4756,W,000.0,344.3,220819,017.7,E*6C
01DE40,02265F,00C4AA,$GPRMC,130803,A,5442.9369,N,11318.4740,W,000.0,344.3,220819,017.7,E*63
01DE42,022663,00C4AB,$GPRMC,130804,A,5442.9381,N,11318.4732,W,000.0,344.3,220819,017.7,E*67
01DE41,022660,00C4AB,$GPRMC,130805,A,5442.9390,N,11318.4728,W,000.0,344.3,220819,017.7,E*6D
01DE42,022663,00C4AC,$GPRMC,130806,A,5442.9398,N,11318.4718,W,000.0,344.3,220819,017.7,E*65
01DE3E,02265D,00C4AA,$GPRMC,130807,A,5442.9405,N,11318.4711,W,000.0,344.3,220819,017.7,E*6E
01DE40,02265E,00C4AB,$GPRMC,130808,A,5442.9412,N,11318.4706,W,000.0,344.3,220819,017.7,E*61
01DE3D,02265A,00C4A9,$GPRMC,130809,A,5442.9415,N,11318.4702,W,000.0,344.3,220819,017.7,E*63
01DE3F,02265D,00C4AA,$GPRMC,130810,A,5442.9415,N,11318.4702,W,000.0,344.3,220819,017.7,E*6B
01DE3F,02265D,00C4AA,$GPRMC,130811,A,5442.9415,N,11318.4702,W,000.0,344.3,220819,017.7,E*6A
01DE3D,02265C,00C4AA,$GPRMC,130812,A,5442.9415,N,11318.4702,W,000.0,344.3,220819,017.7,E*69
01DE3E,02265C,00C4AA,$GPRMC,130813,A,5442.9415,N,11318.4702,W,000.0,344.3,220819,017.7,E*68
01DE3D,02265B,00C4AA,$GPRMC,130814,A,5442.9418,N,11318.4703,W,000.0,344.3,220819,017.7,E*63
01DE3F,02265E,00C4AC,$GPRMC,130815,A,5442.9420,N,11318.4707,W,000.0,344.3,220819,017.7,E*6D
01DE3B,022658,00C4A9,$GPRMC,130816,A,5442.9421,N,11318.4707,W,000.0,344.3,220819,017.7,E*6F
01DE3E,02265B,00C4AB,$GPRMC,130817,A,5442.9421,N,11318.4708,W,000.0,344.3,220819,017.7,E*61
01DE3C,022659,00C4AA,$GPRMC,130818,A,5442.9422,N,11318.4708,W,000.0,344.3,220819,017.7,E*6D
01DE3B,022657,00C4A9,$GPRMC,130819,A,5442.9422,N,11318.4708,W,000.0,344.3,220819,017.7,E*6C
01DE3F,02265E,00C4AC,$GPRMC,130820,A,5442.9423,N,11318.4709,W,000.0,344.3,220819,017.7,E*66
01DE3D,02265A,00C4AB,$GPRMC,130821,A,5442.9423,N,11318.4709,W,000.0,344.3,220819,017.7,E*67
01DE3F,02265E,00C4AC,$GPRMC,130822,A,5442.9424,N,11318.4710,W,000.0,344.3,220819,017.7,E*6B
01DE3F,02265E,00C4AC,$GPRMC,130823,A,5442.9424,N,11318.4710,W,000.0,344.3,220819,017.7,E*6A
01DE3F,02265F,00C4AC,$GPRMC,130824,A,5442.9425,N,11318.4710,W,000.0,344.3,220819,017.7,E*6C
01DE3D,02265D,00C4AB,$GPRMC,130825,A,5442.9425,N,11318.4711,W,000.0,344.3,220819,017.7,E*6C
01DE3E,02265D,00C4AB,$GPRMC,130826,A,5442.9426,N,11318.4711,W,000.0,344.3,220819,017.7,E*6C
01DE3F,02265F,00C4AC,$GPRMC,130827,A,5442.9426,N,11318.4711,W,000.0,344.3,220819,017.7,E*6D
01DE3D,02265D,00C4AA,$GPRMC,130828,A,5442.9427,N,11318.4712,W,000.0,344.3,220819,017.7,E*60
01DE40,022661,00C4AC,$GPRMC,130829,A,5442.9427,N,11318.4712,W,000.0,344.3,220819,017.7,E*61
01DE3C,02265A,00C4AA,$GPRMC,130830,A,5442.9428,N,11318.4712,W,000.0,344.3,220819,017.7,E*66
01DE3D,02265D,00C4AA,$GPRMC,130831,A,5442.9428,N,11318.4713,W,000.0,344.3,220819,017.7,E*66
01DE3C,02265C,00C4AB,$GPRMC,130832,A,5442.9429,N,11318.4713,W,000.0,344.3,220819,017.7,E*64
01DE3F,022660,00C4AD,$GPRMC,130833,A,5442.9429,N,11318.4713,W,000.0,344.3,220819,017.7,E*65
01DE3E,02265D,00C4AB,$GPRMC,130834,A,5442.9430,N,11318.4714,W,000.0,344.3,220819,017.7,E*6D
01DE3F,022660,00C4AD,$GPRMC,130835,A,5442.9430,N,11318.4714,W,000.0,344.3,220819,017.7,E*6C
01DE3F,022660,00C4AD,$GPRMC,130836,A,5442.9431,N,11318.4715,W,000.0,344.3,220819,017.7,E*6F
01DE3D,02265B,00C4AB,$GPRMC,130837,A,5442.9431,N,11318.4715,W,000.0,344.3,220819,017.7,E*6E
01DE3D,02265C,00C4AB,$GPRMC,130838,A,5442.9432,N,11318.4715,W,000.0,344.3,220819,017.7,E*62
01DE3D,02265E,00C4AB,$GPRMC,130839,A,5442.9432,N,11318.4716,W,000.0,344.3,220819,017.7,E*60
01DE3E,02265F,00C4AC,$GPRMC,130840,A,5442.9433,N,11318.4716,W,000.0,344.3,220819,017.7,E*6F
01DE3F,02265F,00C4AC,$GPRMC,130841,A,5442.9433,N,11318.4716,W,000.0,344.3,220819,017.7,E*6E
01DE3E,02265F,00C4AC,$GPRMC,130842,A,5442.9433,N,11318.4717,W,000.0,344.3,220819,017.7,E*6C
01DE3E,022660,00C4AC,$GPRMC,130843,A,5442.9434,N,11318.4717,W,000.0,344.3,220819,017.7,E*6A
01DE3E,02265E,00C4AB,$GPRMC,130844,A,5442.9434,N,11318.4717,W,000.0,344.3,220819,017.7,E*6D
01DE40,022662,00C4AD,$GPRMC,130845,A,5442.9435,N,11318.4718,W,000.0,344.3,220819,017.7,E*62
01DE3C,02265B,00C4AB,$GPRMC,130846,V,5442.9435,N,11318.4718,W,,,220819,017.7,E*76
01DE3C,02265D,00C4AC,$GPRMC,130847,V,5442.9435,N,11318.4718,W,,,220819,017.7,E*77
01DE39,022659,00C4A9,$GPRMC,130848,V,5442.9435,N,11318.4718,W,,,220819,017.7,E*78
01DE3D,02265D,00C4AB,$GPRMC,130849,V,5442.9435,N,11318.4718,W,,,220819,017.7,E*79
01DE3C,02265E,00C4AB,$GPRMC,130850,V,5442.9435,N,11318.4718,W,,,220819,017.7,E*71
01DE3B,02265B,00C4AA,$GPRMC,130851,V,5442.9435,N,11318.4718,W,,,220819,017.7,E*70
01DE38,022656,00C4A8,$GPRMC,130852,V,5442.9435,N,11318.4718,W,,,220819,017.7,E*73
01DE39,02265A,00C4AA,$GPRMC,130853,V,5442.9435,N,11318.4718,W,,,220819,017.7,E*72
01DE3D,02265D,00C4AB,$GPRMC,130854,V,5442.9435,N,11318.4718,W,,,220819,017.7,E*75
01DE35,022651,00C4A7,$GPRMC,130855,V,5442.9435,N,11318.4718,W,,,220819,017.7,E*74
01DE38,022657,00C4A8,$GPRMC,130856,V,5442.9435,N,11318.4718,W,,,220819,017.7,E*77
01DE38,022656,00C4A8,$GPRMC,130857,V,5442.9435,N,11318.4718,W,,,220819,017.7,E*76
01DE38,022655,00C4A8,$GPRMC,130858,V,5442.9435,N,11318.4718,W,,,220819,017.7,E*79
01DE38,022656,00C4A8,$GPRMC,130859,V,5442.9435,N,11318.4718,W,,,220819,017.7,E*78
01DE39,022657,00C4A9,$GPRMC,130900,V,5442.9435,N,11318.4718,W,,,220819,017.7,E*75
01DE37,022656,00C4A7,$GPRMC,130901,V,5442.9435,N,11318.4718,W,,,220819,017.7,E*74
01DE36,022653,00C4A6,$GPRMC,130902,V,5442.9435,N,11318.4718,W,,,220819,017.7,E*77
01DE37,022654,00C4A7,$GPRMC,130903,V,5442.9435,N,11318.4718,W,,,220819,017.7,E*76
01DE35,022653,00C4A6,$GPRMC,130904,V,5442.9435,N,11318.4718,W,,,220819,017.7,E*71
01DE37,022654,00C4A8,$GPRMC,130905,V,5442.9435,N,11318.4718,W,,,220819,017.7,E*70
01DE37,022655,00C4A8,$GPRMC,130906,V,5442.9435,N,11318.4718,W,,,220819,017.7,E*73
01DE32,02264F,00C4A5,$GPRMC,130907,V,5442.9435,N,11318.4718,W,,,220819,017.7,E*72
01DE38,022655,00C4A9,$GPRMC,130908,V,5442.9435,N,11318.4718,W,,,220819,017.7,E*7D
01DE34,02264F,00C4A7,$GPRMC,130909,V,5442.9435,N,11318.4718,W,,,220819,017.7,E*7C
01DE38,022656,00C4AA,$GPRMC,130910,V,5442.9435,N,11318.4718,W,,,220819,017.7,E*74
01DE34,022650,00C4A7,$GPRMC,130911,V,5442.9435,N,11318.4718,W,,,220819,017.7,E*75
01DE34,02264F,00C4A7,$GPRMC,130912,V,5442.9435,N,11318.4718,W,,,220819,017.7,E*76
01DE33,02264E,00C4A7,$GPRMC,130913,V,5442.9435,N,11318.4718,W,,,220819,017.7,E*77
01DE35,022651,00C4A8,$GPRMC,130914,V,5442.9435,N,11318.4718,W,,,220819,017.7,E*70
01DE33,02264E,00C4A7,$GPRMC,130915,V,5442.9435,N,11318.4718,W,,,220819,017.7,E*71
01DE33,02264E,00C4A6,$GPRMC,130916,V,5442.9435,N,11318.4718,W,,,220819,017.7,E*72
01DE38,022656,00C4AA,$GPRMC,130917,V,5442.9435,N,11318.4718,W,,,220819,017.7,E*73
01DE33,02264F,00C4A7,$GPRMC,130918,V,5442.9435,N,11318.4718,W,,,220819,017.7,E*7C
01DE3A,022656,00C4AB,$GPRMC,130919,A,5442.9362,N,11318.4759,W,000.0,336.7,220819,017.7,E*6B
01DE36,022652,00C4A9,$GPRMC,130920,A,5442.9397,N,11318.4791,W,000.0,344.3,220819,017.7,E*6E
01DE39,022656,00C4AB,$GPRMC,130921,A,5442.9412,N,11318.4800,W,000.0,344.3,220819,017.7,E*62
01DE34,02264F,00C4A8,$GPRMC,130922,A,5442.9425,N,11318.4804,W,000.0,344.3,220819,017.7,E*61
01DE39,022656,00C4AB,$GPRMC,130923,A,5442.9415,N,11318.4787,W,000.0,344.3,220819,017.7,E*67
01DE36,022651,00C4A9,$GPRMC,130924,A,5442.9413,N,11318.4779,W,000.0,344.3,220819,017.7,E*67
01DE3B,022658,00C4AC,$GPRMC,130925,A,5442.9410,N,11318.4768,W,000.0,344.3,220819,017.7,E*65
01DE39,022655,00C4AB,$GPRMC,130926,A,5442.9409,N,11318.4761,W,000.0,344.3,220819,017.7,E*67
01DE36,022653,00C4AA,$GPRMC,130927,A,5442.9405,N,11318.4764,W,000.0,344.3,220819,017.7,E*6F
01DE37,022653,00C4AA,$GPRMC,130928,A,5442.9402,N,11318.4769,W,000.0,344.3,220819,017.7,E*6A
01DE3B,022658,00C4AC,$GPRMC,130929,A,5442.9395,N,11318.4754,W,000.0,344.3,220819,017.7,E*6C
01DE35,022651,00C4A9,$GPRMC,130930,A,5442.9394,N,11318.4755,W,000.0,344.3,220819,017.7,E*64
01DE3C,02265A,00C4AD,$GPRMC,130931,A,5442.9394,N,11318.4755,W,000.0,344.3,220819,017.7,E*65
01DE37,022655,00C4AA,$GPRMC,130932,A,5442.9393,N,11318.4755,W,000.0,344.3,220819,017.7,E*61
01DE3A,022657,00C4AB,$GPRMC,130933,A,5442.9393,N,11318.4756,W,000.0,344.3,220819,017.7,E*63
01DE3C,02265A,00C4AC,$GPRMC,130934,A,5442.9391,N,11318.4757,W,000.0,344.3,220819,017.7,E*67
01DE38,022655,00C4A9,$GPRMC,130935,A,5442.9390,N,11318.4757,W,000.0,344.3,220819,017.7,E*67
01DE3A,022657,00C4AA,$GPRMC,130936,A,5442.9389,N,11318.4756,W,000.0,344.3,220819,017.7,E*6D
01DE3A,022656,00C4AB,$GPRMC,130937,A,5442.9388,N,11318.4756,W,000.0,344.3,220819,017.7,E*6D
01DE38,022656,00C4AA,$GPRMC,130938,A,5442.9388,N,11318.4755,W,000.0,344.3,220819,017.7,E*61
01DE38,022655,00C4A9,$GPRMC,130939,A,5442.9387,N,11318.4755,W,000.0,344.3,220819,017.7,E*6F
01DE3C,022659,00C4AB,$GPRMC,130940,A,5442.9386,N,11318.4754,W,000.0,344.3,220819,017.7,E*61
01DE3B,02265A,00C4AA,$GPRMC,130941,A,5442.9385,N,11318.4754,W,000.0,344.3,220819,017.7,E*63
01DE37,022655,00C4A8,$GPRMC,130942,A,5442.9385,N,11318.4754,W,000.0,344.3,220819,017.7,E*60
01DE36,022658,00C4AA,$GPRMC,130943,A,5442.9384,N,11318.4755,W,000.0,344.3,220819,017.7,E*61
01DE32,022654,00C4A8,$GPRMC,130944,A,5442.9384,N,11318.4755,W,000.0,344.3,220819,017.7,E*66
01DE36,02265C,00C4AB,$GPRMC,130945,A,5442.9384,N,11318.4756,W,000.0,344.3,220819,017.7,E*64
01DE36,022660,00C4AC,$GPRMC,130946,A,5442.9383,N,11318.4756,W,000.0,344.3,220819,017.7,E*60
01DE34,02265D,00C4AB,$GPRMC,130947,A,5442.9382,N,11318.4757,W,000.0,344.3,220819,017.7,E*61
01DE33,02265B,00C4AA,$GPRMC,130948,A,5442.9381,N,11318.4757,W,000.0,344.3,220819,017.7,E*6D
01DE35,02265C,00C4AA,$GPRMC,130949,A,5442.9380,N,11318.4757,W,000.0,344.3,220819,017.7,E*6D
01DE36,02265E,00C4AC,$GPRMC,130950,A,5442.9380,N,11318.4758,W,000.0,344.3,220819,017.7,E*6A
01DE37,02265E,00C4AB,$GPRMC,130951,A,5442.9380,N,11318.4760,W,000.0,344.3,220819,017.7,E*60
01DE34,02265A,00C4A9,$GPRMC,130952,A,5442.9380,N,11318.4762,W,000.0,344.3,220819,017.7,E*61
01DE35,022658,00C4A9,$GPRMC,130953,A,5442.9380,N,11318.4764,W,000.0,344.3,220819,017.7,E*66
01DE37,02265C,00C4AB,$GPRMC,130954,A,5442.9381,N,11318.4766,W,000.0,344.3,220819,017.7,E*62
01DE35,022658,00C4A9,$GPRMC,130955,A,5442.9382,N,11318.4769,W,000.0,344.3,220819,017.7,E*6F
01DE36,022658,00C4A9,$GPRMC,130956,A,5442.9383,N,11318.4771,W,000.0,344.3,220819,017.7,E*64
01DE37,02265A,00C4AA,$GPRMC,130957,A,5442.9384,N,11318.4774,W,000.0,344.3,220819,017.7,E*67
01DE36,022658,00C4A9,$GPRMC,130958,A,5442.9385,N,11318.4777,W,000.0,344.3,220819,017.7,E*6A
01DE3A,02265E,00C4AC,$GPRMC,130959,A,5442.9387,N,11318.4780,W,000.0,344.3,220819,017.7,E*61
01DE37,022658,00C4AA,$GPRMC,131000,A,5442.9388,N,11318.4782,W,000.0,344.3,220819,017.7,E*68
01DE3E,022661,00C4AE,$GPRMC,131001,A,5442.9389,N,11318.4785,W,000.0,344.3,220819,017.7,E*6F
01DE3A,02265D,00C4AC,$GPRMC,131002,A,5442.9391,N,11318.4787,W,000.0,344.3,220819,017.7,E*67
01DE3D,022660,00C4AD,$GPRMC,131003,A,5442.9392,N,11318.4790,W,000.0,344.3,220819,017.7,E*63
01DE3A,02265B,00C4AB,$GPRMC,131004,A,5442.9393,N,11318.4792,W,000.0,344.3,220819,017.7,E*67
01DE3C,02265E,00C4AD,$GPRMC,131005,A,5442.9394,N,11318.4795,W,000.0,344.3,220819,017.7,E*66
01DE3A,02265A,00C4AB,$GPRMC,131006,A,5442.9395,N,11318.4797,W,000.0,344.3,220819,017.7,E*66
01DE3B,02265B,00C4AD,$GPRMC,131007,A,5442.9396,N,11318.4798,W,000.0,344.3,220819,017.7,E*6B
01DE3C,02265B,00C4AC,$GPRMC,131008,A,5442.9396,N,11318.4800,W,000.0,344.3,220819,017.7,E*6A
01DE39,022657,00C4AA,$GPRMC,131009,A,5442.9398,N,11318.4802,W,000.0,344.3,220819,017.7,E*67
01DE3B,02265A,00C4AB,$GPRMC,131010,A,5442.9398,N,11318.4803,W,000.0,344.3,220819,017.7,E*6E
01DE3E,02265E,00C4AE,$GPRMC,131011,A,5442.9399,N,11318.4804,W,000.0,344.3,220819,017.7,E*69
01DE3D,02265B,00C4AD,$GPRMC,131012,A,5442.9400,N,11318.4805,W,000.0,344.3,220819,017.7,E*6C
01DE38,022652,00C4AA,$GPRMC,131013,A,5442.9401,N,11318.4805,W,000.0,344.3,220819,017.7,E*6C
01DE3D,02265A,00C4AD,$GPRMC,131014,A,5442.9402,N,11318.4806,W,000.0,344.3,220819,017.7,E*6B
01DE3C,022659,00C4AD,$GPRMC,131015,A,5442.9402,N,11318.4806,W,000.0,344.3,220819,017.7,E*6A
01DE38,022654,00C4AA,$GPRMC,131016,A,5442.9401,N,11318.4806,W,000.0,344.3,220819,017.7,E*6A
01DE3D,022659,00C4AD,$GPRMC,131017,A,5442.9406,N,11318.4801,W,000.0,344.3,220819,017.7,E*6B
01DE3E,02265B,00C4AE,$GPRMC,131018,A,5442.9410,N,11318.4797,W,000.0,344.3,220819,017.7,E*63
01DE38,022653,00C4AB,$GPRMC,131019,A,5442.9413,N,11318.4792,W,000.0,344.3,220819,017.7,E*64
01DE3A,022656,00C4AB,$GPRMC,131020,A,5442.9416,N,11318.4786,W,000.0,344.3,220819,017.7,E*6E
01DE3D,02265A,00C4AD,$GPRMC,131021,A,5442.9418,N,11318.4781,W,000.0,344.3,220819,017.7,E*66
01DE3F,02265D,00C4AF,$GPRMC,131022,A,5442.9419,N,11318.4775,W,000.0,344.3,220819,017.7,E*6F
01DE36,022650,00C4AA,$GPRMC,131023,A,5442.9417,N,11318.4772,W,000.0,344.3,220819,017.7,E*67
01DE37,022651,00C4AB,$GPRMC,131024,A,5442.9419,N,11318.4765,W,000.0,344.3,220819,017.7,E*68
01DE3A,022655,00C4AD,$GPRMC,131025,A,5442.9420,N,11318.4759,W,000.0,344.3,220819,017.7,E*6C
01DE3B,022656,00C4AD,$GPRMC,131026,A,5442.9419,N,11318.4756,W,000.0,344.3,220819,017.7,E*6A
01DE3A,022655,00C4AD,$GPRMC,131027,A,5442.9419,N,11318.4753,W,000.0,344.3,220819,017.7,E*6E
01DE3A,022656,00C4AE,$GPRMC,131028,A,5442.9418,N,11318.4751,W,000.0,344.3,220819,017.7,E*62
01DE34,02264D,00C4A9,$GPRMC,131029,A,5442.9418,N,11318.4749,W,000.0,344.3,220819,017.7,E*6A
01DE39,022654,00C4AC,$GPRMC,131030,A,5442.9418,N,11318.4749,W,000.0,344.3,220819,017.7,E*62
01DE3A,022655,00C4AD,$GPRMC,131031,A,5442.9419,N,11318.4749,W,000.0,344.3,220819,017.7,E*62
01DE3B,022658,00C4AE,$GPRMC,131032,A,5442.9420,N,11318.4749,W,000.0,344.3,220819,017.7,E*6B
01DE39,022657,00C4AD,$GPRMC,131033,A,5442.9421,N,11318.4751,W,000.0,344.3,220819,017.7,E*62
01DE3B,02265A,00C4AE,$GPRMC,131034,A,5442.9422,N,11318.4753,W,000.0,344.3,220819,017.7,E*64
01DE3A,022657,00C4AD,$GPRMC,131035,A,5442.9423,N,11318.4755,W,000.0,344.3,220819,017.7,E*62
01DE39,022657,00C4AC,$GPRMC,131036,A,5442.9424,N,11318.4758,W,000.0,344.3,220819,017.7,E*6B
