,A,5442.9499,N,11318.4592,W,000.0,023.7,210819,017.7,E*62
01DD56,0227E0,00C587,$GPRMC,235942,A,5442.9498,N,11318.4592,W,000.0,023.7,210819,017.7,E*60
01DD57,0227E0,00C588,$GPRMC,235943,A,5442.9497,N,11318.4591,W,000.0,023.7,210819,017.7,E*6D
01DD59,0227E3,00C589,$GPRMC,235944,A,5442.9501,N,11318.4590,W,000.0,023.7,210819,017.7,E*65
01DD58,0227E3,00C589,$GPRMC,235945,A,5442.9500,N,11318.4590,W,000.0,023.7,210819,017.7,E*65
01DD56,0227DF,00C588,$GPRMC,235946,A,5442.9500,N,11318.4590,W,000.0,023.7,210819,017.7,E*66
01DD56,0227DF,00C587,$GPRMC,235947,A,5442.9499,N,11318.4590,W,000.0,023.7,210819,017.7,E*66
01DD5A,0227E4,00C58A,$GPRMC,235948,A,5442.9499,N,11318.4590,W,000.0,023.7,210819,017.7,E*69
01DD5A,0227E4,00C58A,$GPRMC,235949,A,5442.9501,N,11318.4589,W,000.0,023.7,210819,017.7,E*60
01DD59,0227E1,00C588,$GPRMC,235950,A,5442.9502,N,11318.4588,W,000.0,023.7,210819,017.7,E*6A
01DD5A,0227E4,00C589,$GPRMC,235951,A,5442.9504,N,11318.4587,W,000.0,023.7,210819,017.7,E*62
01DD59,0227E1,00C589,$GPRMC,235952,A,5442.9506,N,11318.4587,W,000.0,023.7,210819,017.7,E*63
01DD58,0227DF,00C588,$GPRMC,235953,A,5442.9508,N,11318.4586,W,000.0,023.7,210819,017.7,E*6D
01DD58,0227DF,00C588,$GPRMC,235954,A,5442.9508,N,11318.4586,W,000.0,023.7,210819,017.7,E*6A
01DD5B,0227E3,00C58A,$GPRMC,235955,A,5442.9508,N,11318.4585,W,000.0,023.7,210819,017.7,E*68
01DD5B,0227E3,00C58B,$GPRMC,235956,A,5442.9507,N,11318.4585,W,000.0,023.7,210819,017.7,E*64
01DD5A,0227E0,00C589,$GPRMC,235957,A,5442.9505,N,11318.4585,W,000.0,023.7,210819,017.7,E*67
01DD5B,0227E3,00C58A,$GPRMC,235958,A,5442.9504,N,11318.4585,W,000.0,023.7,210819,017.7,E*69
01DD58,0227DC,00C588,$GPRMC,235959,A,5442.9504,N,11318.4584,W,000.0,023.7,210819,017.7,E*69
01DD58,0227DD,00C587,$GPRMC,000000,A,5442.9503,N,11318.4583,W,000.0,023.7,220819,017.7,E*6B
01DD5A,0227DF,00C588,$GPRMC,000001,A,5442.9500,N,11318.4584,W,000.0,023.7,220819,017.7,E*6E
01DD5A,0227DF,00C589,$GPRMC,000002,A,5442.9498,N,11318.4584,W,000.0,023.7,220819,017.7,E*6D
01DD5B,0227DF,00C589,$GPRMC,000003,A,5442.9495,N,11318.4584,W,000.0,023.7,220819,017.7,E*61
01DD5E,0227E4,00C58B,$GPRMC,000004,A,5442.9492,N,11318.4585,W,000.0,023.7,220819,017.7,E*60
01DD55,0227D9,00C585,$GPRMC,000005,A,5442.9490,N,11318.4585,W,000.0,023.7,220819,017.7,E*63
01DD57,0227D8,00C586,$GPRMC,000006,A,5442.9491,N,11318.4585,W,000.0,023.7,220819,017.7,E*61
01DD5A,0227DD,00C589,$GPRMC,000007,A,5442.9485,N,11318.4587,W,000.0,023.7,220819,017.7,E*67
01DD55,0227D5,00C585,$GPRMC,000008,A,5442.9485,N,11318.4587,W,000.0,023.7,220819,017.7,E*68
01DD58,0227DA,00C587,$GPRMC,000009,A,5442.9485,N,11318.4587,W,000.0,023.7,220819,017.7,E*69
01DD58,0227D9,00C587,$GPRMC,000010,A,5442.9485,N,11318.4587,W,000.0,023.7,220819,017.7,E*61
01DD57,0227D6,00C586,$GPRMC,000011,A,5442.9483,N,11318.4587,W,000.0,023.7,220819,017.7,E*66
01DD5B,0227DE,00C589,$GPRMC,000012,A,5442.9482,N,11318.4586,W,000.0,023.7,220819,017.7,E*65
01DD5A,0227DB,00C588,$GPRMC,000013,A,5442.9482,N,11318.4586,W,000.0,023.7,220819,017.7,E*64
01DD5F,0227E2,00C58B,$GPRMC,000014,A,5442.9482,N,11318.4586,W,000.0,023.7,220819,017.7,E*63
01DD5C,0227DD,00C589,$GPRMC,000015,A,5442.9482,N,11318.4585,W,000.0,023.7,220819,017.7,E*61
01DD5D,0227DE,00C589,$GPRMC,000016,A,5442.9481,N,11318.4584,W,000.0,023.7,220819,017.7,E*60
01DD5F,0227E2,00C58A,$GPRMC,000017,A,5442.9481,N,11318.4583,W,000.0,023.7,220819,017.7,E*66
01DD5E,0227DF,00C589,$GPRMC,000018,A,5442.9481,N,11318.4583,W,000.0,023.7,220819,017.7,E*69
01DD5B,0227DB,00C588,$GPRMC,000019,A,5442.9476,N,11318.4584,W,000.0,023.7,220819,017.7,E*67
01DD5C,0227DD,00C588,$GPRMC,000020,A,5442.9473,N,11318.4585,W,000.0,023.7,220819,017.7,E*69
01DD58,0227D6,00C586,$GPRMC,000021,A,5442.9469,N,11318.4585,W,000.0,023.7,220819,017.7,E*63
01DD59,0227D7,00C586,$GPRMC,000022,A,5442.9465,N,11318.4586,W,000.0,023.7,220819,017.7,E*6F
01DD5B,0227D9,00C587,$GPRMC,000023,A,5442.9461,N,11318.4587,W,000.0,023.7,220819,017.7,E*6B
01DD5C,0227DA,00C588,$GPRMC,000024,A,5442.9462,N,11318.4586,W,000.0,023.7,220819,017.7,E*6E
01DD5A,0227D8,00C587,$GPRMC,000025,A,5442.9463,N,11318.4585,W,000.0,023.7,220819,017.7,E*6D
01DD59,0227D4,00C586,$GPRMC,000026,A,5442.9463,N,11318.4584,W,000.0,023.7,220819,017.7,E*6F
01DD58,0227D6,00C586,$GPRMC,000027,A,5442.9463,N,11318.4584,W,000.0,023.7,220819,017.7,E*6E
01DD5A,0227D6,00C587,$GPRMC,000028,A,5442.9463,N,11318.4584,W,000.0,023.7,220819,017.7,E*61
01DD5D,0227D9,00C589,$GPRMC,000029,A,5442.9461,N,11318.4585,W,000.0,023.7,220819,017.7,E*63
01DD58,0227D2,00C586,$GPRMC,000030,A,5442.9461,N,11318.4585,W,000.0,023.7,220819,017.7,E*6B
01DD5D,0227D9,00C588,$GPRMC,000031,A,5442.9462,N,11318.4584,W,000.0,023.7,220819,017.7,E*68
01DD5A,0227D5,00C587,$GPRMC,000032,A,5442.9462,N,11318.4584,W,000.0,023.7,220819,017.7,E*6B
01DD5C,0227D8,00C588,$GPRMC,000033,A,5442.9463,N,11318.4583,W,000.0,023.7,220819,017.7,E*6C
01DD5B,0227D7,00C588,$GPRMC,000034,A,5442.9461,N,11318.4583,W,000.0,023.7,220819,017.7,E*69
01DD5E,0227DA,00C589,$GPRMC,000035,A,5442.9460,N,11318.4584,W,000.0,023.7,220819,017.7,E*6E
01DD59,0227D1,00C585,$GPRMC,000036,A,5442.9456,N,11318.4585,W,000.0,023.7,220819,017.7,E*69
01DD5E,0227DB,00C588,$GPRMC,000037,A,5442.9457,N,11318.4584,W,000.0,023.7,220819,017.7,E*68
01DD5A,0227D2,00C586,$GPRMC,000038,A,5442.9459,N,11318.4582,W,000.0,023.7,220819,017.7,E*6F
01DD5B,0227D5,00C586,$GPRMC,000039,A,5442.9460,N,11318.4581,W,000.0,023.7,220819,017.7,E*67
01DD5A,0227D3,00C585,$GPRMC,000040,A,5442.9458,N,11318.4581,W,000.0,023.7,220819,017.7,E*62
01DD5E,0227D9,00C588,$GPRMC,000041,A,5442.9457,N,11318.4581,W,000.0,023.7,220819,017.7,E*6C
01DD5B,0227D4,00C586,$GPRMC,000042,A,5442.9455,N,11318.4581,W,000.0,023.7,220819,017.7,E*6D
01DD5E,0227D9,00C588,$GPRMC,000043,A,5442.9453,N,11318.4581,W,000.0,023.7,220819,017.7,E*6A
01DD57,0227CD,00C583,$GPRMC,000044,A,5442.9452,N,11318.4581,W,000.0,023.7,220819,017.7,E*6C
01DD5E,0227D8,00C588,$GPRMC,000045,A,5442.9450,N,11318.4581,W,000.0,023.7,220819,017.7,E*6F
01DD5D,0227D6,00C587,$GPRMC,000046,A,5442.9449,N,11318.4581,W,000.0,023.7,220819,017.7,E*64
01DD60,0227DA,00C589,$GPRMC,000047,A,5442.9446,N,11318.4584,W,000.0,023.7,220819,017.7,E*6F
01DD5F,0227D5,00C588,$GPRMC,000048,A,5442.9444,N,11318.4587,W,000.0,023.7,220819,017.7,E*61
01DD61,0227DB,00C589,$GPRMC,000049,A,5442.9441,N,11318.4590,W,000.0,023.7,220819,017.7,E*63
01DD5F,0227D7,00C588,$GPRMC,000050,A,5442.9439,N,11318.4593,W,000.0,023.7,220819,017.7,E*67
01DD61,0227D8,00C589,$GPRMC,000051,A,5442.9441,N,11318.4594,W,000.0,023.7,220819,017.7,E*6E
01DD5F,0227D5,00C588,$GPRMC,000052,A,5442.9444,N,11318.4595,W,000.0,023.7,220819,017.7,E*69
01DD59,0227CD,00C585,$GPRMC,000053,A,5442.9446,N,11318.4596,W,000.0,023.7,220819,017.7,E*69
01DD5A,0227CD,00C586,$GPRMC,000054,A,5442.9449,N,11318.4598,W,000.0,023.7,220819,017.7,E*6F
01DD5A,0227CE,00C585,$GPRMC,000055,A,5442.9452,N,11318.4598,W,000.0,023.7,220819,017.7,E*64
01DD59,0227CB,00C584,$GPRMC,000056,A,5442.9455,N,11318.4599,W,000.0,023.7,220819,017.7,E*61
01DD5B,0227CD,00C585,$GPRMC,000057,A,5442.9453,N,11318.4599,W,000.0,023.7,220819,017.7,E*66
01DD5A,0227CA,00C585,$GPRMC,000058,A,5442.9452,N,11318.4600,W,000.0,023.7,220819,017.7,E*6B
01DD5C,0227D0,00C587,$GPRMC,000059,A,5442.9451,N,11318.4601,W,000.0,023.7,220819,017.7,E*68
01DD5A,0227CB,00C585,$GPRMC,000100,A,5442.9453,N,11318.4601,W,000.0,023.7,220819,017.7,E*67
01DD5D,0227D0,00C586,$GPRMC,000101,A,5442.9455,N,11318.4603,W,000.0,023.7,220819,017.7,E*62
01DD59,0227CA,00C584,$GPRMC,000102,A,5442.9454,N,11318.4605,W,000.0,023.7,220819,017.7,E*66
01DD5B,0227CD,00C585,$GPRMC,000103,A,5442.9452,N,11318.4607,W,000.0,023.7,220819,017.7,E*63
01DD59,0227CC,00C584,$GPRMC,000104,A,5442.9452,N,11318.4608,W,000.0,023.7,220819,017.7,E*6B
01DD59,0227D0,00C584,$GPRMC,000105,A,5442.9456,N,11318.4606,W,000.0,023.7,220819,017.7,E*60
01DD5B,0227D1,00C582,$GPRMC,000106,A,5442.9455,N,11318.4607,W,000.0,023.7,220819,017.7,E*61
01DD5F,0227D2,00C584,$GPRMC,000107,A,5442.9456,N,11318.4607,W,000.0,023.7,220819,017.7,E*63
01DD5B,0227D0,00C583,$GPRMC,000108,A,5442.9454,N,11318.4608,W,000.0,023.7,220819,017.7,E*61
01DD59,0227C7,00C57F,$GPRMC,000109,A,5442.9455,N,11318.4608,W,000.0,023.7,220819,017.7,E*61
01DD60,0227CB,00C583,$GPRMC,000110,A,5442.9456,N,11318.4608,W,000.0,023.7,220819,017.7,E*6A
01DD5D,0227C7,00C582,$GPRMC,000111,A,5442.9461,N,11318.4608,W,000.0,023.7,220819,017.7,E*6F
01DD5E,0227CC,00C585,$GPRMC,000112,A,5442.9467,N,11318.4608,W,000.0,023.7,220819,017.7,E*6A
01DD5F,0227D0,00C587,$GPRMC,000113,A,5442.9473,N,11318.4607,W,000.0,023.7,220819,017.7,E*61
01DD5B,0227C9,00C584,$GPRMC,000114,A,5442.9479,N,11318.4607,W,000.0,023.7,220819,017.7,E*6C
01DD5C,0227CB,00C585,$GPRMC,000115,A,5442.9485,N,11318.4606,W,000.0,023.7,220819,017.7,E*6F
01DD5D,0227CD,00C586,$GPRMC,000116,A,5442.9490,N,11318.4606,W,000.0,023.7,220819,017.7,E*68
01DD5C,0227CC,00C585,$GPRMC,000117,A,5442.9494,N,11318.4605,W,000.0,023.7,220819,017.7,E*6E
01DD59,0227C7,00C584,$GPRMC,000118,A,5442.9492,N,11318.4605,W,000.0,023.7,220819,017.7,E*67
01DD59,0227C7,00C583,$GPRMC,000119,A,5442.9488,N,11318.4606,W,000.0,023.7,220819,017.7,E*6E
01DD5C,0227CC,00C585,$GPRMC,000120,A,5442.9485,N,11318.4606,W,000.0,023.7,220819,017.7,E*69
01DD65,0227D8,00C58A,$GPRMC,000121,A,5442.9482,N,11318.4607,W,000.0,023.7,220819,017.7,E*6E
01DD60,0227D0,00C587,$GPRMC,000122,A,5442.9487,N,11318.4607,W,000.0,023.7,220819,017.7,E*68
01DD5E,0227CE,00C586,$GPRMC,000123,A,5442.9492,N,11318.4608,W,000.0,023.7,220819,017.7,E*62
01DD5C,0227CD,00C585,$GPRMC,000124,A,5442.9498,N,11318.4609,W,000.0,023.7,220819,017.7,E*6E
01DD5C,0227CD,00C585,$GPRMC,000125,A,5442.9504,N,11318.4610,W,000.0,023.7,220819,017.7,E*63
01DD5A,0227CA,00C584,$GPRMC,000126,A,5442.9509,N,11318.4611,W,000.0,023.7,220819,017.7,E*6C
01DD5D,0227CF,00C586,$GPRMC,000127,A,5442.9513,N,11318.4613,W,000.0,023.7,220819,017.7,E*64
01DD5B,0227CD,00C586,$GPRMC,000128,A,5442.9519,N,11318.4612,W,000.0,023.7,220819,017.7,E*60
01DD5E,0227D1,00C587,$GPRMC,000129,A,5442.9518,N,11318.4612,W,000.0,023.7,220819,017.7,E*60
01DD5E,0227D0,00C587,$GPRMC,000130,A,5442.9522,N,11318.4612,W,000.0,023.7,220819,017.7,E*61
01DD5F,0227D3,00C587,$GPRMC,000131,A,5442.9527,N,11318.4612,W,000.0,023.7,220819,017.7,E*65
01DD5F,0227D1,00C587,$GPRMC,000132,A,5442.9532,N,11318.4612,W,000.0,023.7,220819,017.7,E*62
01DD60,0227D3,00C588,$GPRMC,000133,A,5442.9536,N,11318.4612,W,000.0,023.7,220819,017.7,E*67
01DD5F,0227D2,00C588,$GPRMC,000134,A,5442.9539,N,11318.4613,W,000.0,023.7,220819,017.7,E*6E
01DD5B,0227CC,00C585,$GPRMC,000135,A,5442.9541,N,11318.4614,W,000.0,023.7,220819,017.7,E*67
01DD5C,0227CD,00C586,$GPRMC,000136,A,5442.9544,N,11318.4615,W,000.0,023.7,220819,017.7,E*60
01DD5F,0227CF,00C587,$GPRMC,000137,A,5442.9546,N,11318.4615,W,000.0,023.7,220819,017.7,E*63
01DD5D,0227CE,00C586,$GPRMC,000138,A,5442.9548,N,11318.4615,W,000.0,023.7,220819,017.7,E*62
01DD5D,0227CB,00C586,$GPRMC,000139,A,5442.9550,N,11318.4612,W,000.0,023.7,220819,017.7,E*6D
01DD5F,0227D0,00C587,$GPRMC,000140,A,5442.9551,N,11318.4612,W,000.0,023.7,220819,017.7,E*62
01DD5B,0227CA,00C585,$GPRMC,000141,A,5442.9550,N,11318.4613,W,000.0,023.7,220819,017.7,E*63
01DD5C,0227CB,00C585,$GPRMC,000142,A,5442.9552,N,11318.4613,W,000.0,023.7,220819,017.7,E*62
01DD5B,0227CA,00C585,$GPRMC,000143,A,5442.9553,N,11318.4614,W,000.0,023.7,220819,017.7,E*65
01DD5B,0227C8,00C584,$GPRMC,000144,A,5442.9548,N,11318.4617,W,000.0,023.7,220819,017.7,E*6B
01DD59,0227C7,00C583,$GPRMC,000145,A,5442.9548,N,11318.4617,W,000.0,023.7,220819,017.7,E*6A
01DD5E,0227CD,00C586,$GPRMC,000146,A,5442.9552,N,11318.4615,W,000.0,023.7,220819,017.7,E*60
01DD5D,0227CC,00C585,$GPRMC,000147,A,5442.9555,N,11318.4613,W,000.0,023.7,220819,017.7,E*60
01DD60,0227CF,00C587,$GPRMC,000148,A,5442.9558,N,11318.4611,W,000.0,023.7,220819,017.7,E*60
01DD5B,0227C8,00C583,$GPRMC,000149,A,5442.9559,N,11318.4610,W,000.0,023.7,220819,017.7,E*61
01DD5B,0227C8,00C584,$GPRMC,000150,A,5442.9559,N,11318.4609,W,000.0,023.7,220819,017.7,E*61
01DD5A,0227C7,00C583,$GPRMC,000151,A,5442.9558,N,11318.4607,W,000.0,023.7,220819,017.7,E*6F
01DD60,0227D0,00C587,$GPRMC,000152,A,5442.9558,N,11318.4606,W,000.0,023.7,220819,017.7,E*6D
01DD5E,0227CD,00C586,$GPRMC,000153,A,5442.9558,N,11318.4604,W,000.0,023.7,220819,017.7,E*6E
01DD5B,0227C9,00C584,$GPRMC,000154,A,5442.9558,N,11318.4602,W,000.0,023.7,220819,017.7,E*6F
01DD5A,0227C9,00C584,$GPRMC,000155,A,5442.9559,N,11318.4601,W,000.0,023.7,220819,017.7,E*6C
01DD61,0227D3,00C588,$GPRMC,000156,A,5442.9558,N,11318.4600,W,000.0,023.7,220819,017.7,E*6F
01DD5F,0227CF,00C586,$GPRMC,000157,A,5442.9558,N,11318.4599,W,000.0,023.7,220819,017.7,E*6D
01DD5A,0227C9,00C583,$GPRMC,000158,A,5442.9558,N,11318.4598,W,000.0,023.7,220819,017.7,E*63
01DD5F,0227CF,00C586,$GPRMC,000159,A,5442.9559,N,11318.4598,W,000.0,023.7,220819,017.7,E*63
01DD5B,0227CB,00C584,$GPRMC,000200,A,5442.9561,N,11318.4596,W,000.0,023.7,220819,017.7,E*69
01DD5C,0227CD,00C585,$GPRMC,000201,A,5442.9563,N,11318.4596,W,000.0,023.7,220819,017.7,E*6A
01DD5B,0227C9,00C584,$GPRMC,000202,A,5442.9564,N,11318.4596,W,000.0,023.7,220819,017.7,E*6E
01DD5F,0227CF,00C587,$GPRMC,000203,A,5442.9565,N,11318.4595,W,000.0,023.7,220819,017.7,E*6D
01DD5E,0227CB,00C585,$GPRMC,000204,A,5442.9567,N,11318.4594,W,000.0,023.7,220819,017.7,E*69
01DD5D,0227CB,00C585,$GPRMC,000205,A,5442.9569,N,11318.4593,W,000.0,023.7,220819,017.7,E*61
01DD5B,0227C9,00C585,$GPRMC,000206,A,5442.9568,N,11318.4593,W,000.0,023.7,220819,017.7,E*63
01DD5B,0227C7,00C584,$GPRMC,000207,A,5442.9568,N,11318.4593,W,000.0,023.7,220819,017.7,E*62
01DD60,0227CE,00C587,$GPRMC,000208,A,5442.9568,N,11318.4593,W,000.0,023.7,220819,017.7,E*6D
01DD5E,0227CB,00C586,$GPRMC,000209,A,5442.9568,N,11318.4593,W,000.0,023.7,220819,017.7,E*6C
01DD5D,0227CA,00C585,$GPRMC,000210,A,5442.9566,N,11318.4594,W,000.0,023.7,220819,017.7,E*6D
01DD62,0227D2,00C588,$GPRMC,000211,A,5442.9566,N,11318.4595,W,000.0,023.7,220819,017.7,E*6D
01DD5F,0227CC,00C586,$GPRMC,000212,A,5442.9564,N,11318.4595,W,000.0,023.7,220819,017.7,E*6C
01DD5D,0227CA,00C586,$GPRMC,000213,A,5442.9563,N,11318.4595,W,000.0,023.7,220819,017.7,E*6A
01DD60,0227CF,00C587,$GPRMC,000214,A,5442.9561,N,11318.4595,W,000.0,023.7,220819,017.7,E*6F
01DD5D,0227C8,00C585,$GPRMC,000215,A,5442.9560,N,11318.4595,W,000.0,023.7,220819,017.7,E*6F
01DD61,0227CE,00C587,$GPRMC,000216,A,5442.9559,N,11318.4595,W,000.0,023.7,220819,017.7,E*66
01DD5E,0227C9,00C585,$GPRMC,000217,A,5442.9556,N,11318.4597,W,000.0,023.7,220819,017.7,E*6A
01DD60,0227CF,00C588,$GPRMC,000218,A,5442.9555,N,11318.4596,W,000.0,023.7,220819,017.7,E*67
01DD60,0227CD,00C587,$GPRMC,000219,A,5442.9551,N,11318.4597,W,000.0,023.7,220819,017.7,E*63
01DD60,0227D0,00C588,$GPRMC,000220,A,5442.9548,N,11318.4596,W,000.0,023.7,220819,017.7,E*60
01DD5E,0227D1,00C588,$GPRMC,000221,A,5442.9545,N,11318.4595,W,000.0,023.7,220819,017.7,E*6F
01DD5D,0227CC,00C586,$GPRMC,000222,A,5442.9543,N,11318.4594,W,000.0,023.7,220819,017.7,E*6B
01DD5B,0227C6,00C585,$GPRMC,000223,A,5442.9541,N,11318.4594,W,000.0,023.7,220819,017.7,E*68
01DD5C,0227CC,00C587,$GPRMC,000224,A,5442.9540,N,11318.4594,W,000.0,023.7,220819,017.7,E*6E
01DD5A,0227C8,00C585,$GPRMC,000225,A,5442.9539,N,11318.4594,W,000.0,023.7,220819,017.7,E*61
01DD5C,0227C9,00C585,$GPRMC,000226,A,5442.9537,N,11318.4594,W,000.0,023.7,220819,017.7,E*6C
01DD59,0227C3,00C582,$GPRMC,000227,A,5442.9536,N,11318.4594,W,000.0,023.7,220819,017.7,E*6C
01DD5D,0227C9,00C585,$GPRMC,000228,A,5442.9535,N,11318.4594,W,000.0,023.7,220819,017.7,E*60
01DD5F,0227CC,00C586,$GPRMC,000229,A,5442.9537,N,11318.4593,W,000.0,023.7,220819,017.7,E*64
01DD5D,0227C9,00C585,$GPRMC,000230,A,5442.9536,N,11318.4593,W,000.0,023.7,220819,017.7,E*6D
01DD5F,0227CD,00C587,$GPRMC,000231,A,5442.9535,N,11318.4594,W,000.0,023.7,220819,017.7,E*68
01DD5E,0227CB,00C586,$GPRMC,000232,A,5442.9534,N,11318.4593,W,000.0,023.7,220819,017.7,E*6D
01DD5E,0227C9,00C585,$GPRMC,000233,A,5442.9534,N,11318.4590,W,000.0,023.7,220819,017.7,E*6F
01DD5D,0227C9,00C585,$GPRMC,000234,A,5442.9533,N,11318.4589,W,000.0,023.7,220819,017.7,E*67
01DD5E,0227C8,00C585,$GPRMC,000235,A,5442.9530,N,11318.4588,W,000.0,023.7,220819,017.7,E*64
01DD5D,0227C8,00C585,$GPRMC,000236,A,5442.9528,N,11318.4587,W,000.0,023.7,220819,017.7,E*61
01DD5C,0227C7,00C585,$GPRMC,000237,A,5442.9525,N,11318.4586,W,000.0,023.7,220819,017.7,E*6C
01DD5D,0227CA,00C586,$GPRMC,000238,A,5442.9523,N,11318.4584,W,000.0,023.7,220819,017.7,E*67
01DD5D,0227C9,00C586,$GPRMC,000239,A,5442.9520,N,11318.4584,W,000.0,023.7,220819,017.7,E*65
01DD60,0227CD,00C588,$GPRMC,000240,A,5442.9515,N,11318.4584,W,000.0,023.7,220819,017.7,E*6D
01DD5D,0227C9,00C586,$GPRMC,000241,A,5442.9511,N,11318.4584,W,000.0,023.7,220819,017.7,E*68
01DD5E,0227CA,00C587,$GPRMC,000242,A,5442.9507,N,11318.4584,W,000.0,023.7,220819,017.7,E*6C
01DD5C,0227C6,00C585,$GPRMC,000243,A,5442.9503,N,11318.4585,W,000.0,023.7,220819,017.7,E*68
01DD5C,0227C6,00C585,$GPRMC,000244,A,5442.9498,N,11318.4585,W,000.0,023.7,220819,017.7,E*6C
01DD59,0227C3,00C584,$GPRMC,000245,A,5442.9494,N,11318.4586,W,000.0,023.7,220819,017.7,E*62
01DD5E,0227C9,00C586,$GPRMC,000246,A,5442.9490,N,11318.4587,W,000.0,023.7,220819,017.7,E*64
01DD5A,0227C2,00C583,$GPRMC,000247,A,5442.9488,N,11318.4585,W,000.0,023.7,220819,017.7,E*6E
01DD5A,0227C3,00C585,$GPRMC,000248,A,5442.9487,N,11318.4584,W,000.0,023.7,220819,017.7,E*6F
01DD5D,0227C8,00C586,$GPRMC,000249,A,5442.9484,N,11318.4585,W,000.0,023.7,220819,017.7,E*6C
01DD5C,0227C6,00C585,$GPRMC,000250,A,5442.9483,N,11318.4584,W,000.0,023.7,220819,017.7,E*62
01DD5C,0227C7,00C586,$GPRMC,000251,A,5442.9480,N,11318.4587,W,000.0,023.7,220819,017.7,E*63
01DD5B,0227C5,00C585,$GPRMC,000252,A,5442.9480,N,11318.4586,W,000.0,023.7,220819,017.7,E*61
01DD5C,0227C6,00C586,$GPRMC,000253,A,5442.9480,N,11318.4587,W,000.0,023.7,220819,017.7,E*61
01DD5D,0227C9,00C586,$GPRMC,000254,A,5442.9481,N,11318.4588,W,000.0,023.7,220819,017.7,E*68
01DD5C,0227C5,00C585,$GPRMC,000255,A,5442.9481,N,11318.4589,W,000.0,023.7,220819,017.7,E*68
01DD5A,0227C3,00C585,$GPRMC,000256,A,5442.9482,N,11318.4590,W,000.0,023.7,220819,017.7,E*60
01DD5F,0227C9,00C587,$GPRMC,000257,A,5442.9484,N,11318.4592,W,000.0,023.7,220819,017.7,E*65
01DD5A,0227C3,00C585,$GPRMC,000258,A,5442.9485,N,11318.4594,W,000.0,023.7,220819,017.7,E*6D
01DD59,0227C3,00C585,$GPRMC,000259,A,5442.9486,N,11318.4595,W,000.0,023.7,220819,017.7,E*6E
01DD5A,0227C3,00C585,$GPRMC,000300,A,5442.9486,N,11318.4595,W,000.0,023.7,220819,017.7,E*63
01DD5E,0227CA,00C587,$GPRMC,000301,A,5442.9487,N,11318.4595,W,000.0,023.7,220819,017.7,E*63
01DD5D,0227C8,00C587,$GPRMC,000302,A,5442.9487,N,11318.4595,W,000.0,023.7,220819,017.7,E*60
01DD5C,0227C7,00C586,$GPRMC,000303,A,5442.9488,N,11318.4594,W,000.0,023.7,220819,017.7,E*6F
01DD5E,0227C8,00C587,$GPRMC,000304,A,5442.9487,N,11318.4594,W,000.0,023.7,220819,017.7,E*67
01DD60,0227CC,00C589,$GPRMC,000305,A,5442.9487,N,11318.4594,W,000.0,023.7,220819,017.7,E*66
01DD5A,0227C3,00C585,$GPRMC,000306,A,5442.9487,N,11318.4595,W,000.0,023.7,220819,017.7,E*64
01DD61,0227CE,00C589,$GPRMC,000307,A,5442.9487,N,11318.4595,W,000.0,023.7,220819,017.7,E*65
01DD58,0227C1,00C584,$GPRMC,000308,A,5442.9487,N,11318.4596,W,000.0,023.7,220819,017.7,E*69
01DD5B,0227C6,00C586,$GPRMC,000309,A,5442.9487,N,11318.4596,W,000.0,023.7,220819,017.7,E*68
01DD5B,0227C4,00C585,$GPRMC,000310,A,5442.9485,N,11318.4599,W,000.0,023.7,220819,017.7,E*6D
01DD58,0227C2,00C584,$GPRMC,000311,A,5442.9483,N,11318.4602,W,000.0,023.7,220819,017.7,E*6B
01DD59,0227C2,00C585,$GPRMC,000312,A,5442.9482,N,11318.4603,W,000.0,023.7,220819,017.7,E*68
01DD5B,0227C5,00C587,$GPRMC,000313,A,5442.9482,N,11318.4604,W,000.0,023.7,220819,017.7,E*6E
01DD58,0227C0,00C584,$GPRMC,000314,A,5442.9483,N,11318.4602,W,000.0,023.7,220819,017.7,E*6E
01DD5C,0227C9,00C587,$GPRMC,000315,A,5442.9483,N,11318.4601,W,000.0,023.7,220819,017.7,E*6C
01DD57,0227BF,00C583,$GPRMC,000316,A,5442.9484,N,11318.4601,W,000.0,023.7,220819,017.7,E*68
01DD58,0227C1,00C583,$GPRMC,000317,A,5442.9484,N,11318.4601,W,000.0,023.7,220819,017.7,E*69
01DD58,0227C0,00C583,$GPRMC,000318,A,5442.9486,N,11318.4600,W,000.0,023.7,220819,017.7,E*65
01DD5C,0227C6,00C586,$GPRMC,000319,A,5442.9487,N,11318.4599,W,000.0,023.7,220819,017.7,E*66
01DD59,0227C3,00C584,$GPRMC,000320,A,5442.9487,N,11318.4599,W,000.0,023.7,220819,017.7,E*6C
01DD58,0227C0,00C584,$GPRMC,000321,A,5442.9487,N,11318.4598,W,000.0,023.7,220819,017.7,E*6C
01DD57,0227C1,00C584,$GPRMC,000322,A,5442.9487,N,11318.4597,W,000.0,023.7,220819,017.7,E*60
01DD56,0227BE,00C583,$GPRMC,000323,A,5442.9487,N,11318.4597,W,000.0,023.7,220819,017.7,E*61
01DD5A,0227C4,00C585,$GPRMC,000324,A,5442.9487,N,11318.4597,W,000.0,023.7,220819,017.7,E*66
01DD54,0227BC,00C582,$GPRMC,000325,A,5442.9491,N,11318.4596,W,000.0,023.7,220819,017.7,E*61
01DD58,0227C2,00C585,$GPRMC,000326,A,5442.9495,N,11318.4595,W,000.0,023.7,220819,017.7,E*65
01DD59,0227C4,00C586,$GPRMC,000327,A,5442.9496,N,11318.4595,W,000.0,023.7,220819,017.7,E*67
01DD57,0227C0,00C584,$GPRMC,000328,A,5442.9497,N,11318.4595,W,000.0,023.7,220819,017.7,E*69
01DD5A,0227C3,00C586,$GPRMC,000329,A,5442.9498,N,11318.4596,W,000.0,023.7,220819,017.7,E*64
01DD5A,0227C4,00C586,$GPRMC,000330,A,5442.9498,N,11318.4596,W,000.0,023.7,220819,017.7,E*6C
01DD58,0227C1,00C585,$GPRMC,000331,A,5442.9500,N,11318.4596,W,000.0,023.7,220819,017.7,E*6D
01DD58,0227C1,00C586,$GPRMC,000332,A,5442.9501,N,11318.4597,W,000.0,023.7,220819,017.7,E*6E
01DD56,0227BB,00C584,$GPRMC,000333,A,5442.9501,N,11318.4597,W,000.0,023.7,220819,017.7,E*6F
01DD56,0227BC,00C584,$GPRMC,000334,A,5442.9501,N,11318.4598,W,000.0,023.7,220819,017.7,E*67
01DD56,0227BB,00C584,$GPRMC,000335,A,5442.9500,N,11318.4599,W,000.0,023.7,220819,017.7,E*66
01DD5B,0227C3,00C587,$GPRMC,000336,A,5442.9501,N,11318.4600,W,000.0,023.7,220819,017.7,E*67
01DD5B,0227C2,00C586,$GPRMC,000337,A,5442.9503,N,11318.4600,W,000.0,023.7,220819,017.7,E*64
01DD5B,0227C3,00C586,$GPRMC,000338,A,5442.9504,N,11318.4601,W,000.0,023.7,220819,017.7,E*6D
01DD59,0227C1,00C586,$GPRMC,000339,A,5442.9505,N,11318.4600,W,000.0,023.7,220819,017.7,E*6C
01DD5A,0227C2,00C587,$GPRMC,000340,A,5442.9502,N,11318.4602,W,000.0,023.7,220819,017.7,E*67
01DD5A,0227C1,00C587,$GPRMC,000341,A,5442.9501,N,11318.4603,W,000.0,023.7,220819,017.7,E*64
01DD5A,0227C1,00C586,$GPRMC,000342,A,5442.9502,N,11318.4604,W,000.0,023.7,220819,017.7,E*63
01DD5C,0227C4,00C587,$GPRMC,000343,A,5442.9503,N,11318.4604,W,000.0,023.7,220819,017.7,E*63
01DD55,0227BB,00C583,$GPRMC,000344,A,5442.9505,N,11318.4604,W,000.0,023.7,220819,017.7,E*62
01DD5D,0227C7,00C588,$GPRMC,000345,A,5442.9507,N,11318.4604,W,000.0,023.7,220819,017.7,E*61
01DD5A,0227C3,00C586,$GPRMC,000346,A,5442.9509,N,11318.4604,W,000.0,023.7,220819,017.7,E*6C
01DD58,0227BF,00C585,$GPRMC,000347,A,5442.9510,N,11318.4603,W,000.0,023.7,220819,017.7,E*62
01DD58,0227BF,00C584,$GPRMC,000348,A,5442.9511,N,11318.4603,W,000.0,023.7,220819,017.7,E*6C
01DD5E,0227C9,00C588,$GPRMC,000349,A,5442.9511,N,11318.4603,W,000.0,023.7,220819,017.7,E*6D
01DD58,0227BF,00C584,$GPRMC,000350,A,5442.9511,N,11318.4603,W,000.0,023.7,220819,017.7,E*65
01DD5D,0227C5,00C586,$GPRMC,000351,A,5442.9510,N,11318.4603,W,000.0,023.7,220819,017.7,E*65
01DD5A,0227C1,00C585,$GPRMC,000352,A,5442.9508,N,11318.4604,W,000.0,023.7,220819,017.7,E*68
01DD5B,0227C3,00C587,$GPRMC,000353,A,5442.9507,N,11318.4604,W,000.0,023.7,220819,017.7,E*66
01DD59,0227C1,00C585,$GPRMC,000354,A,5442.9506,N,11318.4605,W,000.0,023.7,220819,017.7,E*61
01DD5A,0227C0,00C585,$GPRMC,000355,A,5442.9506,N,11318.4603,W,000.0,023.7,220819,017.7,E*66
01DD5E,0227C6,00C587,$GPRMC,000356,A,5442.9506,N,11318.4605,W,000.0,023.7,220819,017.7,E*63
01DD5A,0227C0,00C585,$GPRMC,000357,A,5442.9507,N,11318.4602,W,000.0,023.7,220819,017.7,E*64
01DD59,0227BE,00C584,$GPRMC,000358,A,5442.9507,N,11318.4601,W,000.0,023.7,220819,017.7,E*68
01DD5E,0227C6,00C587,$GPRMC,000359,A,5442.9501,N,11318.4600,W,000.0,023.7,220819,017.7,E*6E
01DD5E,0227C4,00C588,$GPRMC,000400,A,5442.9501,N,11318.4600,W,000.0,023.7,220819,017.7,E*65
01DD5D,0227C3,00C587,$GPRMC,000401,A,5442.9500,N,11318.4600,W,000.0,023.7,220819,017.7,E*65
01DD5D,0227C3,00C587,$GPRMC,000402,A,5442.9498,N,11318.4600,W,000.0,023.7,220819,017.7,E*66
01DD5E,0227C4,00C588,$GPRMC,000403,A,5442.9496,N,11318.4600,W,000.0,023.7,220819,017.7,E*69
01DD5B,0227BF,00C586,$GPRMC,000404,A,5442.9494,N,11318.4600,W,000.0,023.7,220819,017.7,E*6C
01DD5F,0227C5,00C588,$GPRMC,000405,A,5442.9492,N,11318.4600,W,000.0,023.7,220819,017.7,E*6B
01DD5E,0227C3,00C588,$GPRMC,000406,A,5442.9491,N,11318.4600,W,000.0,023.7,220819,017.7,E*6B
01DD5E,0227C3,00C587,$GPRMC,000407,A,5442.9487,N,11318.4600,W,000.0,023.7,220819,017.7,E*6D
01DD5E,0227C1,00C586,$GPRMC,000408,A,5442.9486,N,11318.4599,W,000.0,023.7,220819,017.7,E*60
01DD59,0227BA,00C583,$GPRMC,000409,A,5442.9485,N,11318.4598,W,000.0,023.7,220819,017.7,E*63
01DD64,0227CB,00C58B,$GPRMC,000410,A,5442.9483,N,11318.4597,W,000.0,023.7,220819,017.7,E*62
01DD5A,0227BA,00C585,$GPRMC,000411,A,5442.9477,N,11318.4597,W,000.0,023.7,220819,017.7,E*68
01DD5F,0227C2,00C588,$GPRMC,000412,A,5442.9473,N,11318.4597,W,000.0,023.7,220819,017.7,E*6F
01DD5A,0227BD,00C585,$GPRMC,000413,A,5442.9470,N,11318.4596,W,000.0,023.7,220819,017.7,E*6C
01DD5F,0227C2,00C587,$GPRMC,000414,A,5442.9464,N,11318.4599,W,000.0,023.7,220819,017.7,E*61
01DD5F,0227C1,00C587,$GPRMC,000415,A,5442.9460,N,11318.4603,W,000.0,023.7,220819,017.7,E*64
01DD5D,0227BE,00C586,$GPRMC,000416,A,5442.9457,N,11318.4606,W,000.0,023.7,220819,017.7,E*66
01DD5C,0227BF,00C586,$GPRMC,000417,A,5442.9453,N,11318.4609,W,000.0,023.7,220819,017.7,E*6C
01DD5E,0227C2,00C587,$GPRMC,000418,A,5442.9442,N,11318.4612,W,000.0,023.7,220819,017.7,E*69
01DD5E,0227C2,00C587,$GPRMC,000419,A,5442.9441,N,11318.4615,W,000.0,023.7,220819,017.7,E*6C
01DD5C,0227BE,00C586,$GPRMC,000420,A,5442.9441,N,11318.4618,W,000.0,023.7,220819,017.7,E*6B
01DD61,0227C4,00C589,$GPRMC,000421,A,5442.9439,N,11318.4620,W,000.0,023.7,220819,017.7,E*6E
01DD5D,0227BF,00C586,$GPRMC,000422,A,5442.9441,N,11318.4622,W,000.0,023.7,220819,017.7,E*60
01DD5C,0227BE,00C586,$GPRMC,000423,A,5442.9441,N,11318.4624,W,000.0,023.7,220819,017.7,E*67
01DD5E,0227C1,00C587,$GPRMC,000424,A,5442.9445,N,11318.4624,W,000.0,023.7,220819,017.7,E*64
01DD5E,0227BF,00C586,$GPRMC,000425,A,5442.9444,N,11318.4626,W,000.0,023.7,220819,017.7,E*66
01DD5F,0227C3,00C587,$GPRMC,000426,A,5442.9447,N,11318.4628,W,000.0,023.7,220819,017.7,E*68
01DD5D,0227C0,00C586,$GPRMC,000427,A,5442.9449,N,11318.4630,W,000.0,023.7,220819,017.7,E*6E
01DD60,0227C3,00C587,$GPRMC,000428,A,5442.9448,N,11318.4632,W,000.0,023.7,220819,017.7,E*62
01DD5F,0227C1,00C588,$GPRMC,000429,A,5442.9447,N,11318.4633,W,000.0,023.7,220819,017.7,E*6D
01DD5F,0227C1,00C588,$GPRMC,000430,A,5442.9446,N,11318.4634,W,000.0,023.7,220819,017.7,E*63
01DD60,0227C4,00C589,$GPRMC,000431,A,5442.9446,N,11318.4634,W,000.0,023.7,220819,017.7,E*62
01DD60,0227C3,00C589,$GPRMC,000432,A,5442.9446,N,11318.4635,W,000.0,023.7,220819,017.7,E*60
01DD5F,0227C2,00C589,$GPRMC,000433,A,5442.9453,N,11318.4633,W,000.0,023.7,220819,017.7,E*63
01DD5D,0227BE,00C587,$GPRMC,000434,A,5442.9457,N,11318.4634,W,000.0,023.7,220819,017.7,E*67
01DD5E,0227C1,00C588,$GPRMC,000435,A,5442.9458,N,11318.4634,W,000.0,023.7,220819,017.7,E*69
01DD5D,0227BD,00C587,$GPRMC,000436,A,5442.9457,N,11318.4634,W,000.0,023.7,220819,017.7,E*65
01DD5C,0227BF,00C587,$GPRMC,000437,A,5442.9458,N,11318.4634,W,000.0,023.7,220819,017.7,E*6B
01DD5E,0227C0,00C587,$GPRMC,000438,A,5442.9457,N,11318.4634,W,000.0,023.7,220819,017.7,E*6B
01DD61,0227C3,00C589,$GPRMC,000439,A,5442.9456,N,11318.4635,W,000.0,023.7,220819,017.7,E*6A
01DD5C,0227BB,00C587,$GPRMC,000440,A,5442.9460,N,11318.4636,W,000.0,023.7,220819,017.7,E*62
01DD5B,0227BC,00C586,$GPRMC,000441,A,5442.9461,N,11318.4635,W,000.0,023.7,220819,017.7,E*61
01DD5D,0227BF,00C587,$GPRMC,000442,A,5442.9462,N,11318.4635,W,000.0,023.7,220819,017.7,E*61
01DD62,0227C5,00C58B,$GPRMC,000443,A,5442.9462,N,11318.4634,W,000.0,023.7,220819,017.7,E*61
01DD5D,0227BC,00C587,$GPRMC,000444,A,5442.9460,N,11318.4634,W,000.0,023.7,220819,017.7,E*64
01DD5F,0227C1,00C589,$GPRMC,000445,A,5442.9458,N,11318.4635,W,000.0,023.7,220819,017.7,E*6F
01DD5F,0227BE,00C588,$GPRMC,000446,A,5442.9455,N,11318.4637,W,000.0,023.7,220819,017.7,E*63
01DD5E,0227BD,00C587,$GPRMC,000447,A,5442.9455,N,11318.4639,W,000.0,023.7,220819,017.7,E*6C
01DD60,0227C0,00C587,$GPRMC,000448,A,5442.9456,N,11318.4641,W,000.0,023.7,220819,017.7,E*6F
01DD5F,0227C1,00C587,$GPRMC,000449,A,5442.9457,N,11318.4643,W,000.0,023.7,220819,017.7,E*6D
01DD5E,0227C1,00C588,$GPRMC,000450,A,5442.9457,N,11318.4645,W,000.0,023.7,220819,017.7,E*63
01DD59,0227B8,00C585,$GPRMC,000451,A,5442.9458,N,11318.4647,W,000.0,023.7,220819,017.7,E*6F
01DD5D,0227BF,00C588,$GPRMC,000452,A,5442.9455,N,11318.4648,W,000.0,023.7,220819,017.7,E*6E
01DD5E,0227C0,00C588,$GPRMC,000453,A,5442.9458,N,11318.4648,W,000.0,023.7,220819,017.7,E*62
01DD5D,0227BE,00C588,$GPRMC,000454,A,5442.9462,N,11318.4649,W,000.0,023.7,220819,017.7,E*6D
01DD62,0227C6,00C58B,$GPRMC,000455,A,5442.9465,N,11318.4650,W,000.0,023.7,220819,017.7,E*63
01DD5F,0227C1,00C589,$GPRMC,000456,A,5442.9468,N,11318.4652,W,000.0,023.7,220819,017.7,E*6F
01DD5E,0227C0,00C588,$GPRMC,000457,A,5442.9471,N,11318.4652,W,000.0,023.7,220819,017.7,E*66
01DD60,0227C3,00C589,$GPRMC,000458,A,5442.9472,N,11318.4653,W,000.0,023.7,220819,017.7,E*6B
01DD61,0227C4,00C58A,$GPRMC,000459,A,5442.9475,N,11318.4654,W,000.0,023.7,220819,017.7,E*6A
01DD5F,0227C0,00C588,$GPRMC,000500,A,5442.9477,N,11318.4655,W,000.0,023.7,220819,017.7,E*64
01DD60,0227C2,00C588,$GPRMC,000501,A,5442.9479,N,11318.4656,W,000.0,023.7,220819,017.7,E*68
01DD5E,0227BF,00C587,$GPRMC,000502,A,5442.9480,N,11318.4657,W,000.0,023.7,220819,017.7,E*6C
01DD5F,0227C1,00C588,$GPRMC,000503,A,5442.9480,N,11318.4660,W,000.0,023.7,220819,017.7,E*69
01DD59,0227B7,00C584,$GPRMC,000504,A,5442.9481,N,11318.4661,W,000.0,023.7,220819,017.7,E*6E
01DD5B,0227BA,00C586,$GPRMC,000505,A,5442.9482,N,11318.4662,W,000.0,023.7,220819,017.7,E*6F
01DD5B,0227BA,00C587,$GPRMC,000506,A,5442.9482,N,11318.4663,W,000.0,023.7,220819,017.7,E*6D
01DD5B,0227BA,00C586,$GPRMC,000507,A,5442.9483,N,11318.4665,W,000.0,023.7,220819,017.7,E*6B
01DD5A,0227BA,00C587,$GPRMC,000508,A,5442.9484,N,11318.4667,W,000.0,023.7,220819,017.7,E*61
01DD58,0227B7,00C585,$GPRMC,000509,A,5442.9484,N,11318.4670,W,000.0,023.7,220819,017.7,E*66
01DD58,0227B7,00C585,$GPRMC,000510,A,5442.9485,N,11318.4673,W,000.0,023.7,220819,017.7,E*6C
01DD58,0227B6,00C585,$GPRMC,000511,A,5442.9486,N,11318.4675,W,000.0,023.7,220819,017.7,E*68
01DD56,0227B3,00C584,$GPRMC,000512,A,5442.9485,N,11318.4679,W,000.0,023.7,220819,017.7,E*64
01DD57,0227B5,00C585,$GPRMC,000513,A,5442.9485,N,11318.4682,W,000.0,023.7,220819,017.7,E*61
01DD57,0227B5,00C584,$GPRMC,000514,A,5442.9485,N,11318.4684,W,000.0,023.7,220819,017.7,E*60
01DD5A,0227BB,00C586,$GPRMC,000515,A,5442.9484,N,11318.4685,W,000.0,023.7,220819,017.7,E*61
01DD5A,0227B9,00C586,$GPRMC,000516,A,5442.9482,N,11318.4685,W,000.0,023.7,220819,017.7,E*64
01DD5B,0227BA,00C586,$GPRMC,000517,A,5442.9480,N,11318.4686,W,000.0,023.7,220819,017.7,E*64
01DD5A,0227BB,00C587,$GPRMC,000518,A,5442.9479,N,11318.4685,W,000.0,023.7,220819,017.7,E*6E
01DD58,0227B6,00C585,$GPRMC,000519,A,5442.9476,N,11318.4686,W,000.0,023.7,220819,017.7,E*63
01DD5A,0227B9,00C587,$GPRMC,000520,A,5442.9474,N,11318.4686,W,000.0,023.7,220819,017.7,E*6B
01DD59,0227B7,00C585,$GPRMC,000521,A,5442.9472,N,11318.4686,W,000.0,023.7,220819,017.7,E*6C
01DD55,0227B2,00C583,$GPRMC,000522,A,5442.9470,N,11318.4687,W,000.0,023.7,220819,017.7,E*6C
01DD5C,0227BC,00C588,$GPRMC,000523,A,5442.9468,N,11318.4688,W,000.0,023.7,220819,017.7,E*6B
01DD5A,0227B9,00C586,$GPRMC,000524,A,5442.9466,N,11318.4689,W,000.0,023.7,220819,017.7,E*63
01DD5C,0227BB,00C588,$GPRMC,000525,A,5442.9465,N,11318.4689,W,000.0,023.7,220819,017.7,E*61
01DD59,0227B7,00C585,$GPRMC,000526,A,5442.9464,N,11318.4689,W,000.0,023.7,220819,017.7,E*63
01DD59,0227B9,00C586,$GPRMC,000527,A,5442.9465,N,11318.4690,W,000.0,023.7,220819,017.7,E*6B
01DD5C,0227BA,00C587,$GPRMC,000528,A,5442.9465,N,11318.4691,W,000.0,023.7,220819,017.7,E*65
01DD5F,0227C0,00C589,$GPRMC,000529,A,5442.9465,N,11318.4691,W,000.0,023.7,220819,017.7,E*64
01DD5F,0227C1,00C58A,$GPRMC,000530,A,5442.9465,N,11318.4691,W,000.0,023.7,220819,017.7,E*6C
01DD5C,0227BC,00C588,$GPRMC,000531,A,5442.9466,N,11318.4690,W,000.0,023.7,220819,017.7,E*6F
01DD58,0227B5,00C586,$GPRMC,000532,A,5442.9466,N,11318.4691,W,000.0,023.7,220819,017.7,E*6D
01DD5B,0227B9,00C587,$GPRMC,000533,A,5442.9464,N,11318.4689,W,000.0,023.7,220819,017.7,E*67
01DD57,0227B3,00C584,$GPRMC,000534,A,5442.9464,N,11318.4691,W,000.0,023.7,220819,017.7,E*69
01DD5C,0227BC,00C588,$GPRMC,000535,A,5442.9463,N,11318.4690,W,000.0,023.7,220819,017.7,E*6E
01DD5B,0227BB,00C587,$GPRMC,000536,A,5442.9462,N,11318.4689,W,000.0,023.7,220819,017.7,E*64
01DD59,0227B8,00C587,$GPRMC,000537,A,5442.9461,N,11318.4687,W,000.0,023.7,220819,017.7,E*68
01DD5D,0227BE,00C58A,$GPRMC,000538,A,5442.9459,N,11318.4685,W,000.0,023.7,220819,017.7,E*6E
01DD5B,0227BA,00C588,$GPRMC,000539,A,5442.9457,N,11318.4684,W,000.0,023.7,220819,017.7,E*60
01DD57,0227B4,00C586,$GPRMC,000540,A,5442.9456,N,11318.4682,W,000.0,023.7,220819,017.7,E*69
01DD58,0227B5,00C586,$GPRMC,000541,A,5442.9455,N,11318.4681,W,000.0,023.7,220819,017.7,E*68
01DD5D,0227BB,00C58A,$GPRMC,000542,A,5442.9451,N,11318.4680,W,000.0,023.7,220819,017.7,E*6E
01DD5B,0227B9,00C588,$GPRMC,000543,A,5442.9450,N,11318.4680,W,000.0,023.7,220819,017.7,E*6E
01DD5A,0227B8,00C587,$GPRMC,000544,A,5442.9450,N,11318.4681,W,000.0,023.7,220819,017.7,E*68
01DD5D,0227BC,00C58A,$GPRMC,000545,A,5442.9451,N,11318.4681,W,000.0,023.7,220819,017.7,E*68
01DD5C,0227BA,00C589,$GPRMC,000546,A,5442.9457,N,11318.4678,W,000.0,023.7,220819,017.7,E*6B
01DD58,0227B4,00C587,$GPRMC,000547,A,5442.9462,N,11318.4675,W,000.0,023.7,220819,017.7,E*61
01DD5E,0227BD,00C58B,$GPRMC,000548,A,5442.9468,N,11318.4672,W,000.0,023.7,220819,017.7,E*63
01DD59,0227B6,00C587,$GPRMC,000549,A,5442.9475,N,11318.4668,W,000.0,023.7,220819,017.7,E*65
01DD5B,0227B9,00C589,$GPRMC,000550,A,5442.9478,N,11318.4668,W,000.0,023.7,220819,017.7,E*60
01DD5D,0227BA,00C58A,$GPRMC,000551,A,5442.9477,N,11318.4667,W,000.0,023.7,220819,017.7,E*61
01DD59,0227B5,00C587,$GPRMC,000552,A,5442.9477,N,11318.4667,W,000.0,023.7,220819,017.7,E*62
01DD5E,0227BB,00C58A,$GPRMC,000553,A,5442.9479,N,11318.4667,W,000.0,023.7,220819,017.7,E*6D
01DD59,0227B5,00C587,$GPRMC,000554,A,5442.9480,N,11318.4667,W,000.0,023.7,220819,017.7,E*6C
01DD5B,0227B7,00C589,$GPRMC,000555,A,5442.9482,N,11318.4667,W,000.0,023.7,220819,017.7,E*6F
01DD5F,0227BC,00C58B,$GPRMC,000556,A,5442.9479,N,11318.4666,W,000.0,023.7,220819,017.7,E*69
01DD5E,0227BC,00C58B,$GPRMC,000557,A,5442.9477,N,11318.4666,W,000.0,023.7,220819,017.7,E*66
01DD5E,0227BA,00C58A,$GPRMC,000558,A,5442.9472,N,11318.4667,W,000.0,023.7,220819,017.7,E*6D
01DD5A,0227B3,00C587,$GPRMC,000559,A,5442.9467,N,11318.4669,W,000.0,023.7,220819,017.7,E*66
01DD5F,0227BB,00C58B,$GPRMC,000600,A,5442.9462,N,11318.4669,W,000.0,023.7,220819,017.7,E*6C
01DD5E,0227BA,00C58B,$GPRMC,000601,A,5442.9457,N,11318.4668,W,000.0,023.7,220819,017.7,E*6A
01DD5B,0227B6,00C589,$GPRMC,000602,A,5442.9451,N,11318.4668,W,000.0,023.7,220819,017.7,E*6F
01DD5D,0227B9,00C589,$GPRMC,000603,A,5442.9447,N,11318.4667,W,000.0,023.7,220819,017.7,E*66
01DD5B,0227B8,00C589,$GPRMC,000604,A,5442.9443,N,11318.4666,W,000.0,023.7,220819,017.7,E*64
01DD5C,0227B8,00C58A,$GPRMC,000605,A,5442.9439,N,11318.4665,W,000.0,023.7,220819,017.7,E*6B
01DD5C,0227B8,00C58A,$GPRMC,000606,A,5442.9434,N,11318.4664,W,000.0,023.7,220819,017.7,E*64
01DD57,0227B1,00C587,$GPRMC,000607,A,5442.9432,N,11318.4661,W,000.0,023.7,220819,017.7,E*66
01DD5C,0227B8,00C58A,$GPRMC,000608,A,5442.9432,N,11318.4661,W,000.0,023.7,220819,017.7,E*69
01DD5E,0227BA,00C58B,$GPRMC,000609,A,5442.9431,N,11318.4656,W,000.0,023.7,220819,017.7,E*6F
01DD5A,0227B5,00C589,$GPRMC,000610,A,5442.9428,N,11318.4654,W,000.0,023.7,220819,017.7,E*6D
01DD5E,0227BA,00C58C,$GPRMC,000611,A,5442.9434,N,11318.4652,W,000.0,023.7,220819,017.7,E*67
01DD5E,0227BB,00C58C,$GPRMC,000612,A,5442.9432,N,11318.4650,W,000.0,023.7,220819,017.7,E*60
01DD5D,0227B7,00C58A,$GPRMC,000613,A,5442.9430,N,11318.4648,W,000.0,023.7,220819,017.7,E*6A
01DD5F,0227BA,00C58C,$GPRMC,000614,A,5442.9428,N,11318.4646,W,000.0,023.7,220819,017.7,E*6A
01DD61,0227BE,00C58E,$GPRMC,000615,A,5442.9425,N,11318.4644,W,000.0,023.7,220819,017.7,E*64
01DD5D,0227B8,00C58B,$GPRMC,000616,A,5442.9420,N,11318.4644,W,000.0,023.7,220819,017.7,E*62
01DD5E,0227B8,00C58C,$GPRMC,000617,A,5442.9420,N,11318.4644,W,000.0,023.7,220819,017.7,E*63
01DD5E,0227BA,00C58C,$GPRMC,000618,A,5442.9413,N,11318.4643,W,000.0,023.7,220819,017.7,E*6B
01DD60,0227BD,00C58E,$GPRMC,000619,A,5442.9413,N,11318.4644,W,000.0,023.7,220819,017.7,E*6D
01DD5B,0227B6,00C58A,$GPRMC,000620,A,5442.9415,N,11318.4642,W,000.0,023.7,220819,017.7,E*67
01DD5B,0227B4,00C58A,$GPRMC,000621,A,5442.9415,N,11318.4643,W,000.0,023.7,220819,017.7,E*67
01DD5A,0227B5,00C58A,$GPRMC,000622,A,5442.9415,N,11318.4643,W,000.0,023.7,220819,017.7,E*64
01DD60,0227BB,00C58D,$GPRMC,000623,A,5442.9413,N,11318.4643,W,000.0,023.7,220819,017.7,E*63
01DD5D,0227B6,00C58B,$GPRMC,000624,A,5442.9412,N,11318.4644,W,000.0,023.7,220819,017.7,E*62
01DD5C,0227B6,00C58B,$GPRMC,000625,A,5442.9411,N,11318.4644,W,000.0,023.7,220819,017.7,E*60
01DD5F,0227B9,00C58D,$GPRMC,000626,A,5442.9411,N,11318.4645,W,000.0,023.7,220819,017.7,E*62
01DD5F,0227BA,00C58C,$GPRMC,000627,A,5442.9404,N,11318.4645,W,000.0,023.7,220819,017.7,E*67
01DD5D,0227B7,00C58C,$GPRMC,000628,A,5442.9404,N,11318.4646,W,000.0,023.7,220819,017.7,E*6B
01DD5C,0227B5,00C58B,$GPRMC,000629,A,5442.9404,N,11318.4647,W,000.0,023.7,220819,017.7,E*6B
01DD5D,0227B7,00C58C,$GPRMC,000630,A,5442.9403,N,11318.4648,W,000.0,023.7,220819,017.7,E*6B
01DD5B,0227B5,00C58B,$GPRMC,000631,A,5442.9402,N,11318.4651,W,000.0,023.7,220819,017.7,E*63
01DD5D,0227B8,00C58C,$GPRMC,000632,A,5442.9402,N,11318.4652,W,000.0,023.7,220819,017.7,E*63
01DD5A,0227B2,00C58A,$GPRMC,000633,A,5442.9402,N,11318.4653,W,000.0,023.7,220819,017.7,E*63
01DD5A,0227B4,00C58B,$GPRMC,000634,A,5442.9403,N,11318.4654,W,000.0,023.7,220819,017.7,E*62
01DD58,0227AF,00C589,$GPRMC,000635,A,5442.9403,N,11318.4655,W,000.0,023.7,220819,017.7,E*62
01DD5B,0227B3,00C58A,$GPRMC,000636,A,5442.9404,N,11318.4652,W,000.0,023.7,220819,017.7,E*61
01DD5C,0227B6,00C58B,$GPRMC,000637,A,5442.9404,N,11318.4653,W,000.0,023.7,220819,017.7,E*61
01DD59,0227B3,00C58A,$GPRMC,000638,A,5442.9400,N,11318.4658,W,000.0,023.7,220819,017.7,E*61
01DD56,0227AE,00C588,$GPRMC,000639,A,5442.9400,N,11318.4658,W,000.0,023.7,220819,017.7,E*60
01DD5C,0227B5,00C58B,$GPRMC,000640,A,5442.9400,N,11318.4659,W,000.0,023.7,220819,017.7,E*6F
01DD56,0227AE,00C588,$GPRMC,000641,A,5442.9400,N,11318.4660,W,000.0,023.7,220819,017.7,E*64
01DD56,0227AF,00C588,$GPRMC,000642,A,5442.9400,N,11318.4661,W,000.0,023.7,220819,017.7,E*66
01DD55,0227AB,00C587,$GPRMC,000643,A,5442.9400,N,11318.4661,W,000.0,023.7,220819,017.7,E*67
01DD57,0227AE,00C589,$GPRMC,000644,A,5442.9403,N,11318.4660,W,000.0,023.7,220819,017.7,E*62
01DD5D,0227B8,00C58D,$GPRMC,000645,A,5442.9404,N,11318.4659,W,000.0,023.7,220819,017.7,E*6E
01DD5D,0227B6,00C58C,$GPRMC,000646,A,5442.9406,N,11318.4658,W,000.0,023.7,220819,017.7,E*6E
01DD56,0227AE,00C589,$GPRMC,000647,A,5442.9407,N,11318.4660,W,000.0,023.7,220819,017.7,E*65
01DD56,0227AD,00C588,$GPRMC,000648,A,5442.9407,N,11318.4662,W,000.0,023.7,220819,017.7,E*68
01DD56,0227AE,00C588,$GPRMC,000649,A,5442.9407,N,11318.4665,W,000.0,023.7,220819,017.7,E*6E
01DD53,0227A8,00C586,$GPRMC,000650,A,5442.9407,N,11318.4667,W,000.0,023.7,220819,017.7,E*64
01DD53,0227A9,00C586,$GPRMC,000651,A,5442.9407,N,11318.4670,W,000.0,023.7,220819,017.7,E*63
01DD57,0227AE,00C588,$GPRMC,000652,A,5442.9407,N,11318.4672,W,000.0,023.7,220819,017.7,E*62
01DD55,0227AB,00C586,$GPRMC,000653,A,5442.9407,N,11318.4674,W,000.0,023.7,220819,017.7,E*65
01DD56,0227AD,00C588,$GPRMC,000654,A,5442.9407,N,11318.4676,W,000.0,023.7,220819,017.7,E*60
01DD58,0227AE,00C589,$GPRMC,000655,A,5442.9407,N,11318.4678,W,000.0,023.7,220819,017.7,E*6F
01DD58,0227AF,00C589,$GPRMC,000656,A,5442.9408,N,11318.4680,W,000.0,023.7,220819,017.7,E*64
01DD56,0227AC,00C588,$GPRMC,000657,A,5442.9408,N,11318.4681,W,000.0,023.7,220819,017.7,E*64
01DD57,0227AD,00C588,$GPRMC,000658,A,5442.9408,N,11318.4680,W,000.0,023.7,220819,017.7,E*6A
01DD57,0227AD,00C587,$GPRMC,000659,A,5442.9408,N,11318.4678,W,000.0,023.7,220819,017.7,E*6C
01DD53,0227A8,00C585,$GPRMC,000700,A,5442.9408,N,11318.4678,W,000.0,023.7,220819,017.7,E*61
01DD5B,0227B3,00C58A,$GPRMC,000701,A,5442.9408,N,11318.4678,W,000.0,023.7,220819,017.7,E*60
01DD5B,0227B4,00C58B,$GPRMC,000702,A,5442.9407,N,11318.4677,W,000.0,023.7,220819,017.7,E*63
01DD5C,0227B5,00C58B,$GPRMC,000703,A,5442.9407,N,11318.4677,W,000.0,023.7,220819,017.7,E*62
01DD57,0227AD,00C588,$GPRMC,000704,A,5442.9406,N,11318.4677,W,000.0,023.7,220819,017.7,E*64
01DD58,0227AE,00C588,$GPRMC,000705,A,5442.9406,N,11318.4677,W,000.0,023.7,220819,017.7,E*65
01DD55,0227A8,00C586,$GPRMC,000706,A,5442.9405,N,11318.4678,W,000.0,023.7,220819,017.7,E*6A
01DD57,0227AD,00C588,$GPRMC,000707,A,5442.9409,N,11318.4676,W,000.0,023.7,220819,017.7,E*69
01DD57,0227AB,00C587,$GPRMC,000708,A,5442.9412,N,11318.4673,W,000.0,023.7,220819,017.7,E*69
01DD58,0227AE,00C588,$GPRMC,000709,A,5442.9416,N,11318.4670,W,000.0,023.7,220819,017.7,E*6F
01DD58,0227AD,00C588,$GPRMC,000710,A,5442.9416,N,11318.4672,W,000.0,023.7,220819,017.7,E*65
01DD57,0227AD,00C587,$GPRMC,000711,A,5442.9417,N,11318.4673,W,000.0,023.7,220819,017.7,E*64
01DD58,0227AE,00C588,$GPRMC,000712,A,5442.9419,N,11318.4674,W,000.0,023.7,220819,017.7,E*6E
01DD58,0227AE,00C588,$GPRMC,000713,A,5442.9420,N,11318.4676,W,000.0,023.7,220819,017.7,E*67
01DD56,0227AA,00C586,$GPRMC,000714,A,5442.9422,N,11318.4677,W,000.0,023.7,220819,017.7,E*63
01DD59,0227AE,00C589,$GPRMC,000715,A,5442.9424,N,11318.4679,W,000.0,023.7,220819,017.7,E*6A
01DD58,0227AD,00C588,$GPRMC,000716,A,5442.9426,N,11318.4679,W,000.0,023.7,220819,017.7,E*6B
01DD5B,0227B0,00C58A,$GPRMC,000717,A,5442.9428,N,11318.4680,W,000.0,023.7,220819,017.7,E*62
01DD5C,0227B2,00C58B,$GPRMC,000718,A,5442.9429,N,11318.4680,W,000.0,023.7,220819,017.7,E*6C
01DD5B,0227B0,00C589,$GPRMC,000719,A,5442.9431,N,11318.4680,W,000.0,023.7,220819,017.7,E*64
01DD5C,0227B4,00C58A,$GPRMC,000720,A,5442.9432,N,11318.4681,W,000.0,023.7,220819,017.7,E*6C
01DD5B,0227B0,00C58A,$GPRMC,000721,A,5442.9434,N,11318.4681,W,000.0,023.7,220819,017.7,E*6B
01DD5A,0227AF,00C589,$GPRMC,000722,A,5442.9435,N,11318.4681,W,000.0,023.7,220819,017.7,E*69
01DD5A,0227AE,00C589,$GPRMC,000723,A,5442.9437,N,11318.4680,W,000.0,023.7,220819,017.7,E*6B
01DD59,0227AD,00C588,$GPRMC,000724,A,5442.9439,N,11318.4679,W,000.0,023.7,220819,017.7,E*64
01DD5C,0227B3,00C58A,$GPRMC,000725,A,5442.9441,N,11318.4677,W,000.0,023.7,220819,017.7,E*64
01DD5A,0227AF,00C589,$GPRMC,000726,A,5442.9443,N,11318.4676,W,000.0,023.7,220819,017.7,E*64
01DD56,0227AA,00C587,$GPRMC,000727,A,5442.9444,N,11318.4677,W,000.0,023.7,220819,017.7,E*63
01DD5B,0227B2,00C58B,$GPRMC,000728,A,5442.9447,N,11318.4677,W,000.0,023.7,220819,017.7,E*6F
01DD59,0227AE,00C589,$GPRMC,000729,A,5442.9449,N,11318.4678,W,000.0,023.7,220819,017.7,E*6F
01DD5A,0227AE,00C589,$GPRMC,000730,A,5442.9451,N,11318.4678,W,000.0,023.7,220819,017.7,E*6E
01DD58,0227AC,00C589,$GPRMC,000731,A,5442.9453,N,11318.4678,W,000.0,023.7,220819,017.7,E*6D
01DD5C,0227B1,00C58B,$GPRMC,000732,A,5442.9455,N,11318.4679,W,000.0,023.7,220819,017.7,E*69
01DD58,0227AC,00C589,$GPRMC,000733,A,5442.9457,N,11318.4679,W,000.0,023.7,220819,017.7,E*6A
01DD5B,0227AF,00C58A,$GPRMC,000734,A,5442.9459,N,11318.4680,W,000.0,023.7,220819,017.7,E*65
01DD5B,0227AE,00C589,$GPRMC,000735,A,5442.9462,N,11318.4681,W,000.0,023.7,220819,017.7,E*6D
01DD5D,0227B2,00C58B,$GPRMC,000736,A,5442.9465,N,11318.4682,W,000.0,023.7,220819,017.7,E*6A
01DD5B,0227AF,00C58A,$GPRMC,000737,A,5442.9467,N,11318.4683,W,000.0,023.7,220819,017.7,E*68
01DD58,0227AB,00C588,$GPRMC,000738,A,5442.9470,N,11318.4684,W,000.0,023.7,220819,017.7,E*66
01DD58,0227AA,00C588,$GPRMC,000739,A,5442.9473,N,11318.4685,W,000.0,023.7,220819,017.7,E*65
01DD5A,0227AE,00C58A,$GPRMC,000740,A,5442.9476,N,11318.4686,W,000.0,023.7,220819,017.7,E*6D
01DD5A,0227AE,00C589,$GPRMC,000741,A,5442.9479,N,11318.4687,W,000.0,023.7,220819,017.7,E*62
01DD5A,0227AD,00C589,$GPRMC,000742,A,5442.9482,N,11318.4688,W,000.0,023.7,220819,017.7,E*6A
01DD5A,0227AD,00C58A,$GPRMC,000743,A,5442.9484,N,11318.4688,W,000.0,023.7,220819,017.7,E*6D
01DD59,0227AB,00C588,$GPRMC,000744,A,5442.9487,N,11318.4688,W,000.0,023.7,220819,017.7,E*69
01DD58,0227AA,00C588,$GPRMC,000745,A,5442.9489,N,11318.4688,W,000.0,023.7,220819,017.7,E*66
01DD59,0227AB,00C589,$GPRMC,000746,A,5442.9491,N,11318.4689,W,000.0,023.7,220819,017.7,E*6D
01DD58,0227AA,00C588,$GPRMC,000747,A,5442.9493,N,11318.4690,W,000.0,023.7,220819,017.7,E*66
01DD58,0227A9,00C588,$GPRMC,000748,A,5442.9495,N,11318.4692,W,000.0,023.7,220819,017.7,E*6D
01DD5A,0227AD,00C589,$GPRMC,000749,A,5442.9497,N,11318.4694,W,000.0,023.7,220819,017.7,E*68
01DD58,0227AA,00C588,$GPRMC,000750,A,5442.9499,N,11318.4696,W,000.0,023.7,220819,017.7,E*6C
01DD5A,0227AD,00C589,$GPRMC,000751,A,5442.9501,N,11318.4698,W,000.0,023.7,220819,017.7,E*63
01DD57,0227A8,00C587,$GPRMC,000752,A,5442.9503,N,11318.4700,W,000.0,023.7,220819,017.7,E*62
01DD58,0227A9,00C588,$GPRMC,000753,A,5442.9505,N,11318.4702,W,000.0,023.7,220819,017.7,E*67
01DD59,0227AB,00C589,$GPRMC,000754,A,5442.9506,N,11318.4705,W,000.0,023.7,220819,017.7,E*64
01DD5A,0227AC,00C589,$GPRMC,000755,A,5442.9508,N,11318.4707,W,000.0,023.7,220819,017.7,E*69
01DD5A,0227AC,00C589,$GPRMC,000756,A,5442.9509,N,11318.4709,W,000.0,023.7,220819,017.7,E*65
01DD59,0227A9,00C588,$GPRMC,000757,A,5442.9511,N,11318.4710,W,000.0,023.7,220819,017.7,E*65
01DD5A,0227AC,00C589,$GPRMC,000758,A,5442.9513,N,11318.4711,W,000.0,023.7,220819,017.7,E*69
01DD57,0227A7,00C588,$GPRMC,000759,A,5442.9514,N,11318.4712,W,000.0,023.7,220819,017.7,E*6C
01DD58,0227A9,00C588,$GPRMC,000800,A,5442.9516,N,11318.4713,W,000.0,023.7,220819,017.7,E*6C
01DD5A,0227AC,00C589,$GPRMC,000801,A,5442.9517,N,11318.4714,W,000.0,023.7,220819,017.7,E*6B
01DD54,0227A3,00C585,$GPRMC,000802,A,5442.9518,N,11318.4715,W,000.0,023.7,220819,017.7,E*66
01DD59,0227AA,00C589,$GPRMC,000803,A,5442.9520,N,11318.4716,W,000.0,023.7,220819,017.7,E*6F
01DD55,0227A5,00C586,$GPRMC,000804,A,5442.9522,N,11318.4716,W,000.0,023.7,220819,017.7,E*6A
01DD55,0227A5,00C587,$GPRMC,000805,A,5442.9524,N,11318.4717,W,000.0,023.7,220819,017.7,E*6C
01DD55,0227A5,00C587,$GPRMC,000806,A,5442.9526,N,11318.4718,W,000.0,023.7,220819,017.7,E*62
01DD58,0227A8,00C588,$GPRMC,000807,A,5442.9527,N,11318.4719,W,000.0,023.7,220819,017.7,E*63
01DD57,0227A7,00C588,$GPRMC,000808,A,5442.9529,N,11318.4719,W,000.0,023.7,220819,017.7,E*62
01DD57,0227A6,00C588,$GPRMC,000809,A,5442.9531,N,11318.4719,W,000.0,023.7,220819,017.7,E*6A
01DD58,0227A9,00C589,$GPRMC,000810,A,5442.9536,N,11318.4715,W,000.0,023.7,220819,017.7,E*69
01DD51,02279F,00C585,$GPRMC,000811,A,5442.9537,N,11318.4715,W,000.0,023.7,220819,017.7,E*69
01DD55,0227A4,00C587,$GPRMC,000812,A,5442.9539,N,11318.4715,W,000.0,023.7,220819,017.7,E*64
01DD58,0227A9,00C589,$GPRMC,000813,A,5442.9544,N,11318.4710,W,000.0,023.7,220819,017.7,E*6A
01DD59,0227A9,00C589,$GPRMC,000814,A,5442.9545,N,11318.4709,W,000.0,023.7,220819,017.7,E*64
01DD54,0227A3,00C586,$GPRMC,000815,A,5442.9546,N,11318.4708,W,000.0,023.7,220819,017.7,E*67
01DD58,0227A8,00C588,$GPRMC,000816,A,5442.9548,N,11318.4708,W,000.0,023.7,220819,017.7,E*6A
01DD56,0227A6,00C587,$GPRMC,000817,A,5442.9552,N,11318.4704,W,000.0,023.7,220819,017.7,E*6C
01DD54,0227A3,00C586,$GPRMC,000818,A,5442.9553,N,11318.4705,W,000.0,023.7,220819,017.7,E*63
01DD55,0227A4,00C586,$GPRMC,000819,A,5442.9555,N,11318.4704,W,000.0,023.7,220819,017.7,E*65
01DD5A,0227AC,00C589,$GPRMC,000820,A,5442.9563,N,11318.4696,W,000.0,023.7,220819,017.7,E*60
01DD54,0227A4,00C586,$GPRMC,000821,A,5442.9567,N,11318.4696,W,000.0,023.7,220819,017.7,E*65
01DD55,0227A6,00C586,$GPRMC,000822,A,5442.9572,N,11318.4691,W,000.0,023.7,220819,017.7,E*65
01DD50,02279E,00C584,$GPRMC,000823,A,5442.9577,N,11318.4686,W,000.0,023.7,220819,017.7,E*67
01DD57,0227A8,00C589,$GPRMC,000824,A,5442.9581,N,11318.4682,W,000.0,023.7,220819,017.7,E*6D
01DD5A,0227AC,00C58A,$GPRMC,000825,A,5442.9585,N,11318.4677,W,000.0,023.7,220819,017.7,E*62
01DD54,0227A3,00C586,$GPRMC,000826,A,5442.9590,N,11318.4672,W,000.0,023.7,220819,017.7,E*60
01DD53,0227A2,00C586,$GPRMC,000827,A,5442.9595,N,11318.4666,W,000.0,023.7,220819,017.7,E*61
01DD56,0227A6,00C589,$GPRMC,000828,A,5442.9600,N,11318.4661,W,000.0,023.7,220819,017.7,E*66
01DD54,0227A1,00C587,$GPRMC,000829,A,5442.9606,N,11318.4655,W,000.0,023.7,220819,017.7,E*66
01DD56,0227A5,00C588,$GPRMC,000830,A,5442.9609,N,11318.4655,W,000.0,023.7,220819,017.7,E*61
01DD57,0227A6,00C588,$GPRMC,000831,A,5442.9615,N,11318.4649,W,000.0,023.7,220819,017.7,E*60
01DD52,02279F,00C585,$GPRMC,000832,A,5442.9622,N,11318.4642,W,000.0,023.7,220819,017.7,E*6C
01DD55,0227A4,00C587,$GPRMC,000833,A,5442.9628,N,11318.4635,W,000.0,023.7,220819,017.7,E*67
01DD52,0227A0,00C586,$GPRMC,000834,A,5442.9634,N,11318.4629,W,000.0,023.7,220819,017.7,E*60
01DD58,0227A8,00C589,$GPRMC,000835,A,5442.9641,N,11318.4622,W,000.0,023.7,220819,017.7,E*68
01DD55,0227A3,00C587,$GPRMC,000836,A,5442.9649,N,11318.4614,W,000.0,023.7,220819,017.7,E*66
01DD56,0227A6,00C588,$GPRMC,000837,A,5442.9654,N,11318.4608,W,000.0,023.7,220819,017.7,E*66
01DD51,02279E,00C585,$GPRMC,000838,A,5442.9660,N,11318.4602,W,000.0,023.7,220819,017.7,E*64
01DD55,0227A3,00C587,$GPRMC,000839,A,5442.9662,N,11318.4602,W,000.0,023.7,220819,017.7,E*67
01DD51,02279F,00C585,$GPRMC,000840,A,5442.9666,N,11318.4599,W,000.0,023.7,220819,017.7,E*6C
01DD54,0227A3,00C587,$GPRMC,000841,A,5442.9668,N,11318.4599,W,000.0,023.7,220819,017.7,E*63
01DD52,0227A0,00C586,$GPRMC,000842,A,5442.9671,N,11318.4595,W,000.0,023.7,220819,017.7,E*64
01DD54,0227A4,00C587,$GPRMC,000843,A,5442.9675,N,11318.4591,W,000.0,023.7,220819,017.7,E*65
01DD51,0227A0,00C586,$GPRMC,000844,A,5442.9677,N,11318.4587,W,000.0,023.7,220819,017.7,E*67
01DD52,0227A1,00C587,$GPRMC,000845,A,5442.9678,N,11318.4587,W,000.0,023.7,220819,017.7,E*69
01DD50,02279E,00C585,$GPRMC,000846,A,5442.9677,N,11318.4587,W,000.0,023.7,220819,017.7,E*65
01DD53,0227A3,00C587,$GPRMC,000847,A,5442.9676,N,11318.4586,W,000.0,023.7,220819,017.7,E*64
01DD51,0227A2,00C587,$GPRMC,000848,A,5442.9677,N,11318.4585,W,000.0,023.7,220819,017.7,E*69
01DD50,0227A1,00C586,$GPRMC,000849,A,5442.9676,N,11318.4584,W,000.0,023.7,220819,017.7,E*68
01DD4D,02279A,00C583,$GPRMC,000850,A,5442.9677,N,11318.4582,W,000.0,023.7,220819,017.7,E*67
01DD52,0227A2,00C586,$GPRMC,000851,A,5442.9677,N,11318.4579,W,000.0,023.7,220819,017.7,E*62
01DD53,0227A3,00C587,$GPRMC,000852,A,5442.9678,N,11318.4577,W,000.0,023.7,220819,017.7,E*60
01DD53,0227A3,00C587,$GPRMC,000853,A,5442.9680,N,11318.4573,W,000.0,023.7,220819,017.7,E*62
01DD55,0227A6,00C588,$GPRMC,000854,A,5442.9682,N,11318.4570,W,000.0,023.7,220819,017.7,E*64
01DD54,0227A5,00C587,$GPRMC,000855,A,5442.9685,N,11318.4566,W,000.0,023.7,220819,017.7,E*65
01DD53,0227A5,00C587,$GPRMC,000856,A,5442.9685,N,11318.4566,W,000.0,023.7,220819,017.7,E*66
01DD53,0227A3,00C587,$GPRMC,000857,A,5442.9687,N,11318.4564,W,000.0,023.7,220819,017.7,E*67
01DD56,0227A8,00C589,$GPRMC,000858,A,5442.9687,N,11318.4562,W,000.0,023.7,220819,017.7,E*6E
01DD54,0227A4,00C587,$GPRMC,000859,A,5442.9688,N,11318.4559,W,000.0,023.7,220819,017.7,E*68
01DD53,0227A4,00C587,$GPRMC,000900,A,5442.9689,N,11318.4557,W,000.0,023.7,220819,017.7,E*6A
01DD55,0227A9,00C588,$GPRMC,000901,A,5442.9690,N,11318.4555,W,000.0,023.7,220819,017.7,E*61
01DD57,0227AA,00C58A,$GPRMC,000902,A,5442.9690,N,11318.4553,W,000.0,023.7,220819,017.7,E*64
01DD55,0227A9,00C588,$GPRMC,000903,A,5442.9687,N,11318.4551,W,000.0,023.7,220819,017.7,E*61
01DD51,0227A5,00C587,$GPRMC,000904,A,5442.9685,N,11318.4550,W,000.0,023.7,220819,017.7,E*65
01DD53,0227A8,00C587,$GPRMC,000905,A,5442.9681,N,11318.4549,W,000.0,023.7,220819,017.7,E*68
01DD53,0227A9,00C587,$GPRMC,000906,A,5442.9677,N,11318.4548,W,000.0,023.7,220819,017.7,E*63
01DD51,0227A4,00C586,$GPRMC,000907,A,5442.9674,N,11318.4546,W,000.0,023.7,220819,017.7,E*6F
01DD51,0227A3,00C585,$GPRMC,000908,A,5442.9671,N,11318.4544,W,000.0,023.7,220819,017.7,E*67
01DD57,0227AB,00C589,$GPRMC,000909,A,5442.9669,N,11318.4542,W,000.0,023.7,220819,017.7,E*69
01DD55,0227AA,00C588,$GPRMC,000910,A,5442.9667,N,11318.4541,W,000.0,023.7,220819,017.7,E*6C
01DD50,0227A4,00C586,$GPRMC,000911,A,5442.9666,N,11318.4541,W,000.0,023.7,220819,017.7,E*6C
01DD56,0227AC,00C58A,$GPRMC,000912,A,5442.9665,N,11318.4541,W,000.0,023.7,220819,017.7,E*6C
01DD54,0227AB,00C588,$GPRMC,000913,A,5442.9665,N,11318.4540,W,000.0,023.7,220819,017.7,E*6C
01DD51,0227A9,00C587,$GPRMC,000914,A,5442.9666,N,11318.4541,W,000.0,023.7,220819,017.7,E*69
01DD50,0227A7,00C587,$GPRMC,000915,A,5442.9667,N,11318.4542,W,000.0,023.7,220819,017.7,E*6A
01DD4F,0227A9,00C587,$GPRMC,000916,A,5442.9670,N,11318.4543,W,000.0,023.7,220819,017.7,E*6E
01DD53,0227AD,00C589,$GPRMC,000917,A,5442.9671,N,11318.4543,W,000.0,023.7,220819,017.7,E*6E
01DD50,0227A8,00C586,$GPRMC,000918,A,5442.9671,N,11318.4543,W,000.0,023.7,220819,017.7,E*61
01DD51,0227AA,00C587,$GPRMC,000919,A,5442.9672,N,11318.4543,W,000.0,023.7,220819,017.7,E*63
01DD50,0227A8,00C587,$GPRMC,000920,A,5442.9673,N,11318.4540,W,000.0,023.7,220819,017.7,E*6B
01DD4F,0227A9,00C587,$GPRMC,000921,A,5442.9672,N,11318.4538,W,000.0,023.7,220819,017.7,E*64
01DD50,0227A8,00C587,$GPRMC,000922,A,5442.9671,N,11318.4535,W,000.0,023.7,220819,017.7,E*69
01DD50,0227A9,00C587,$GPRMC,000923,A,5442.9668,N,11318.4535,W,000.0,023.7,220819,017.7,E*60
01DD4D,0227A4,00C586,$GPRMC,000924,A,5442.9666,N,11318.4535,W,000.0,023.7,220819,017.7,E*69
01DD4C,0227A5,00C586,$GPRMC,000925,A,5442.9666,N,11318.4536,W,000.0,023.7,220819,017.7,E*6B
01DD4C,0227A1,00C584,$GPRMC,000926,A,5442.9665,N,11318.4536,W,000.0,023.7,220819,017.7,E*6B
01DD50,0227A7,00C586,$GPRMC,000927,A,5442.9663,N,11318.4535,W,000.0,023.7,220819,017.7,E*6F
01DD4C,0227A0,00C584,$GPRMC,000928,A,5442.9663,N,11318.4535,W,000.0,023.7,220819,017.7,E*60
01DD51,0227A8,00C588,$GPRMC,000929,A,5442.9663,N,11318.4536,W,000.0,023.7,220819,017.7,E*62
01DD50,0227A8,00C588,$GPRMC,000930,A,5442.9663,N,11318.4536,W,000.0,023.7,220819,017.7,E*6A
01DD4B,0227A0,00C584,$GPRMC,000931,A,5442.9667,N,11318.4539,W,000.0,023.7,220819,017.7,E*60
01DD51,0227A9,00C588,$GPRMC,000932,A,5442.9666,N,11318.4539,W,000.0,023.7,220819,017.7,E*62
01DD51,0227A8,00C588,$GPRMC,000933,A,5442.9666,N,11318.4539,W,000.0,023.7,220819,017.7,E*63
01DD52,0227AB,00C588,$GPRMC,000934,A,5442.9665,N,11318.4539,W,000.0,023.7,220819,017.7,E*67
01DD55,0227AF,00C58A,$GPRMC,000935,A,5442.9665,N,11318.4539,W,000.0,023.7,220819,017.7,E*66
01DD52,0227A9,00C588,$GPRMC,000936,A,5442.9665,N,11318.4539,W,000.0,023.7,220819,017.7,E*65
01DD52,0227A9,00C588,$GPRMC,000937,A,5442.9663,N,11318.4539,W,000.0,023.7,220819,017.7,E*62
01DD53,0227AB,00C588,$GPRMC,000938,A,5442.9661,N,11318.4539,W,000.0,023.7,220819,017.7,E*6F
01DD54,0227AC,00C589,$GPRMC,000939,A,5442.9659,N,11318.4539,W,000.0,023.7,220819,017.7,E*65
01DD52,0227AB,00C588,$GPRMC,000940,A,5442.9658,N,11318.4539,W,000.0,023.7,220819,017.7,E*6A
01DD50,0227A7,00C587,$GPRMC,000941,A,5442.9656,N,11318.4539,W,000.0,023.7,220819,017.7,E*65
01DD4F,0227A5,00C587,$GPRMC,000942,A,5442.9655,N,11318.4540,W,000.0,023.7,220819,017.7,E*6B
01DD4F,0227A4,00C587,$GPRMC,000943,A,5442.9655,N,11318.4540,W,000.0,023.7,220819,017.7,E*6A
01DD4D,0227A2,00C586,$GPRMC,000944,A,5442.9656,N,11318.4540,W,000.0,023.7,220819,017.7,E*6E
01DD4E,0227A3,00C586,$GPRMC,000945,A,5442.9656,N,11318.4540,W,000.0,023.7,220819,017.7,E*6F
01DD4D,0227A4,00C586,$GPRMC,000946,A,5442.9656,N,11318.4540,W,000.0,023.7,220819,017.7,E*6C
01DD4D,0227A2,00C586,$GPRMC,000947,A,5442.9656,N,11318.4540,W,000.0,023.7,220819,017.7,E*6D
01DD4E,0227A3,00C586,$GPRMC,000948,A,5442.9655,N,11318.4538,W,000.0,023.7,220819,017.7,E*6E
01DD50,0227A4,00C587,$GPRMC,000949,A,5442.9654,N,11318.4537,W,000.0,023.7,220819,017.7,E*61
01DD53,0227A9,00C588,$GPRMC,000950,A,5442.9654,N,11318.4536,W,000.0,023.7,220819,017.7,E*68
01DD52,0227AA,00C588,$GPRMC,000951,A,5442.9652,N,11318.4535,W,000.0,023.7,220819,017.7,E*6C
01DD4C,0227A4,00C586,$GPRMC,000952,A,5442.9652,N,11318.4535,W,000.0,023.7,220819,017.7,E*6F
01DD4E,0227A3,00C587,$GPRMC,000953,A,5442.9648,N,11318.4532,W,000.0,023.7,220819,017.7,E*62
01DD4F,0227A6,00C588,$GPRMC,000954,A,5442.9648,N,11318.4531,W,000.0,023.7,220819,017.7,E*66
01DD4D,0227A3,00C587,$GPRMC,000955,A,5442.9646,N,11318.4530,W,000.0,023.7,220819,017.7,E*68
01DD54,0227AC,00C58A,$GPRMC,000956,A,5442.9645,N,11318.4529,W,000.0,023.7,220819,017.7,E*60
01DD53,0227AC,00C58A,$GPRMC,000957,A,5442.9643,N,11318.4527,W,000.0,023.7,220819,017.7,E*69
01DD53,0227AB,00C589,$GPRMC,000958,A,5442.9641,N,11318.4526,W,000.0,023.7,220819,017.7,E*65
01DD52,0227AA,00C589,$GPRMC,000959,A,5442.9641,N,11318.4526,W,000.0,023.7,220819,017.7,E*64
01DD58,0227B4,00C58D,$GPRMC,001000,A,5442.9640,N,11318.4525,W,000.0,023.7,220819,017.7,E*62
01DD52,0227AA,00C589,$GPRMC,001001,A,5442.9640,N,11318.4526,W,000.0,023.7,220819,017.7,E*60
01DD56,0227B0,00C58B,$GPRMC,001002,A,5442.9640,N,11318.4526,W,000.0,023.7,220819,017.7,E*63
01DD4F,0227A8,00C587,$GPRMC,001003,A,5442.9640,N,11318.4526,W,000.0,023.7,220819,017.7,E*62
01DD51,0227AB,00C589,$GPRMC,001004,A,5442.9640,N,11318.4526,W,000.0,023.7,220819,017.7,E*65
01DD4D,0227A9,00C588,$GPRMC,001005,A,5442.9640,N,11318.4526,W,000.0,023.7,220819,017.7,E*64
01DD47,0227A2,00C585,$GPRMC,001006,A,5442.9640,N,11318.4526,W,000.0,023.7,220819,017.7,E*67
01DD48,0227A4,00C586,$GPRMC,001007,A,5442.9640,N,11318.4527,W,000.0,023.7,220819,017.7,E*67
01DD50,0227B0,00C58B,$GPRMC,001008,A,5442.9639,N,11318.4527,W,000.0,023.7,220819,017.7,E*66
01DD4B,0227AA,00C589,$GPRMC,001009,A,5442.9638,N,11318.4527,W,000.0,023.7,220819,017.7,E*66
01DD4D,0227AD,00C589,$GPRMC,001010,A,5442.9637,N,11318.4527,W,000.0,023.7,220819,017.7,E*61
01DD4B,0227AD,00C589,$GPRMC,001011,A,5442.9637,N,11318.4527,W,000.0,023.7,220819,017.7,E*60
01DD4A,0227A9,00C588,$GPRMC,001012,A,5442.9637,N,11318.4527,W,000.0,023.7,220819,017.7,E*63
01DD4A,0227AD,00C589,$GPRMC,001013,A,5442.9638,N,11318.4528,W,000.0,023.7,220819,017.7,E*62
01DD49,0227A9,00C587,$GPRMC,001014,A,5442.9638,N,11318.4528,W,000.0,023.7,220819,017.7,E*65
01DD4E,0227B2,00C58A,$GPRMC,001015,A,5442.9638,N,11318.4528,W,000.0,023.7,220819,017.7,E*64
01DD47,0227A9,00C587,$GPRMC,001016,A,5442.9638,N,11318.4528,W,000.0,023.7,220819,017.7,E*67
01DD4A,0227AB,00C589,$GPRMC,001017,A,5442.9638,N,11318.4527,W,000.0,023.7,220819,017.7,E*69
01DD4D,0227B2,00C58B,$GPRMC,001018,A,5442.9638,N,11318.4526,W,000.0,023.7,220819,017.7,E*67
01DD4A,0227AE,00C589,$GPRMC,001019,A,5442.9638,N,11318.4526,W,000.0,023.7,220819,017.7,E*66
01DD4C,0227B1,00C58A,$GPRMC,001020,A,5442.9637,N,11318.4525,W,000.0,023.7,220819,017.7,E*60
01DD4B,0227B0,00C589,$GPRMC,001021,A,5442.9637,N,11318.4525,W,000.0,023.7,220819,017.7,E*61
01DD4E,0227B1,00C582,$GPRMC,001022,A,5442.9637,N,11318.4525,W,000.0,023.7,220819,017.7,E*62
01DD4E,0227AE,00C57B,$GPRMC,001023,A,5442.9637,N,11318.4525,W,000.0,023.7,220819,017.7,E*63
01DD51,0227B2,00C57D,$GPRMC,001024,A,5442.9637,N,11318.4525,W,000.0,023.7,220819,017.7,E*64
01DD4F,0227AF,00C57C,$GPRMC,001025,A,5442.9636,N,11318.4525,W,000.0,023.7,220819,017.7,E*64
01DD4D,0227AC,00C57B,$GPRMC,001026,A,5442.9636,N,11318.4525,W,000.0,023.7,220819,017.7,E*67
01DD53,0227B5,00C57E,$GPRMC,001027,A,5442.9636,N,11318.4526,W,000.0,023.7,220819,017.7,E*65
01DD4F,0227AE,00C57C,$GPRMC,001028,A,5442.9636,N,11318.4526,W,000.0,023.7,220819,017.7,E*6A
01DD50,0227B0,00C57C,$GPRMC,001029,A,5442.9636,N,11318.4526,W,000.0,023.7,220819,017.7,E*6B
01DD50,0227B0,00C57C,$GPRMC,001030,A,5442.9636,N,11318.4526,W,000.0,023.7,220819,017.7,E*63
01DD51,0227B1,00C57C,$GPRMC,001031,A,5442.9636,N,11318.4526,W,000.0,023.7,220819,017.7,E*62
01DD4E,0227AF,00C57B,$GPRMC,001032,A,5442.9635,N,11318.4526,W,000.0,023.7,220819,017.7,E*62
