01DDBC,022505,00C4EB,$GPRMC,205955,A,5442.9520,N,11318.4626,W,000.0,228.6,210819,017.7,E*63
01DDBF,02250A,00C4ED,$GPRMC,205956,A,5442.9520,N,11318.4626,W,000.0,228.6,210819,017.7,E*60
01DDBA,022503,00C4EB,$GPRMC,205957,A,5442.9519,N,11318.4626,W,000.0,228.6,210819,017.7,E*6B
01DDBF,022507,00C4ED,$GPRMC,205958,A,5442.9519,N,11318.4626,W,000.0,228.6,210819,017.7,E*64
01DDBD,022505,00C4EC,$GPRMC,205959,A,5442.9519,N,11318.4625,W,000.0,228.6,210819,017.7,E*66
01DDBD,022505,00C4EC,$GPRMC,210000,A,5442.9518,N,11318.4625,W,000.0,228.6,210819,017.7,E*66
01DDBD,022505,00C4EC,$GPRMC,210001,A,5442.9518,N,11318.4625,W,000.0,228.6,210819,017.7,E*67
01DDBC,022503,00C4EB,$GPRMC,210002,A,5442.9517,N,11318.4624,W,000.0,228.6,210819,017.7,E*6A
01DDBB,022501,00C4EB,$GPRMC,210003,A,5442.9517,N,11318.4624,W,000.0,228.6,210819,017.7,E*6B
01DDC0,02250A,00C4EE,$GPRMC,210004,A,5442.9517,N,11318.4623,W,000.0,228.6,210819,017.7,E*6B
01DDBD,022504,00C4EC,$GPRMC,210005,A,5442.9517,N,11318.4623,W,000.0,228.6,210819,017.7,E*6A
01DDBE,022505,00C4ED,$GPRMC,210006,A,5442.9517,N,11318.4622,W,000.0,228.6,210819,017.7,E*68
01DDBC,022501,00C4EC,$GPRMC,210007,A,5442.9517,N,11318.4622,W,000.0,228.6,210819,017.7,E*69
01DDC1,022508,00C4EE,$GPRMC,210008,A,5442.9517,N,11318.4621,W,000.0,228.6,210819,017.7,E*65
01DDBC,022500,00C4EC,$GPRMC,210009,A,5442.9518,N,11318.4622,W,000.0,228.6,210819,017.7,E*68
01DDBD,022503,00C4ED,$GPRMC,210010,A,5442.9518,N,11318.4621,W,000.0,228.6,210819,017.7,E*63
01DDBE,022504,00C4ED,$GPRMC,210011,A,5442.9518,N,11318.4621,W,000.0,228.6,210819,017.7,E*62
01DDBE,022506,00C4ED,$GPRMC,210012,A,5442.9518,N,11318.4621,W,000.0,228.6,210819,017.7,E*61
01DDBE,022505,00C4ED,$GPRMC,210013,A,5442.9518,N,11318.4621,W,000.0,228.6,210819,017.7,E*60
01DDBB,022500,00C4EB,$GPRMC,210014,A,5442.9518,N,11318.4621,W,000.0,228.6,210819,017.7,E*67
01DDBE,022502,00C4ED,$GPRMC,210015,A,5442.9518,N,11318.4621,W,000.0,228.6,210819,017.7,E*66
01DDB9,0224FC,00C4EB,$GPRMC,210016,A,5442.9522,N,11318.4622,W,000.0,228.6,210819,017.7,E*6F
01DDB9,0224FC,00C4EA,$GPRMC,210017,A,5442.9528,N,11318.4624,W,000.0,228.6,210819,017.7,E*62
01DDBA,022500,00C4EB,$GPRMC,210018,A,5442.9533,N,11318.4627,W,000.0,228.6,210819,017.7,E*64
01DDB7,0224FC,00C4E9,$GPRMC,210019,A,5442.9535,N,11318.4626,W,000.0,228.6,210819,017.7,E*62
01DDBC,022503,00C4ED,$GPRMC,210020,A,5442.9537,N,11318.4626,W,000.0,228.6,210819,017.7,E*6A
01DDBB,022502,00C4EC,$GPRMC,210021,A,5442.9538,N,11318.4626,W,000.0,228.6,210819,017.7,E*64
01DDB5,0224F7,00C4E8,$GPRMC,210022,A,5442.9540,N,11318.4626,W,000.0,228.6,210819,017.7,E*68
01DDBD,0224F6,00C4E9,$GPRMC,210023,A,5442.9541,N,11318.4627,W,000.0,228.6,210819,017.7,E*69
01DDB9,0224F5,00C4E8,$GPRMC,210024,A,5442.9542,N,11318.4626,W,000.0,228.6,210819,017.7,E*6C
01DDBA,0224FB,00C4EB,$GPRMC,210025,A,5442.9543,N,11318.4626,W,000.0,228.6,210819,017.7,E*6C
01DDB8,0224FC,00C4EB,$GPRMC,210026,A,5442.9544,N,11318.4626,W,000.0,228.6,210819,017.7,E*68
01DDB5,0224F9,00C4E9,$GPRMC,210027,A,5442.9544,N,11318.4625,W,000.0,228.6,210819,017.7,E*6A
01DDBA,022501,00C4EC,$GPRMC,210028,A,5442.9544,N,11318.4625,W,000.0,228.6,210819,017.7,E*65
01DDB5,0224FA,00C4E9,$GPRMC,210029,A,5442.9549,N,11318.4625,W,000.0,228.6,210819,017.7,E*69
01DDB4,0224F9,00C4E8,$GPRMC,210030,A,5442.9547,N,11318.4622,W,000.0,228.6,210819,017.7,E*68
01DDB6,0224FB,00C4EA,$GPRMC,210031,A,5442.9540,N,11318.4624,W,000.0,228.6,210819,017.7,E*68
01DDB0,0224F2,00C4E6,$GPRMC,210032,A,5442.9536,N,11318.4626,W,000.0,228.6,210819,017.7,E*68
01DDB9,022501,00C4EC,$GPRMC,210033,A,5442.9528,N,11318.4626,W,000.0,228.6,210819,017.7,E*66
01DDB8,0225FF,00C4EC,$GPRMC,210034,A,5442.9521,N,11318.4626,W,000.0,228.6,210819,017.7,E*68
01DDB7,022500,00C4EC,$GPRMC,210035,A,5442.9519,N,11318.4625,W,000.0,228.6,210819,017.7,E*61
01DDB5,0224FD,00C4EB,$GPRMC,210036,A,5442.9518,N,11318.4623,W,000.0,228.6,210819,017.7,E*65
01DDB5,0224FC,00C4EB,$GPRMC,210037,A,5442.9516,N,11318.4623,W,000.0,228.6,210819,017.7,E*6A
01DDB3,0224F8,00C4E8,$GPRMC,210038,A,5442.9512,N,11318.4626,W,000.0,228.6,210819,017.7,E*64
01DDB6,0224FC,00C4E9,$GPRMC,210039,A,5442.9509,N,11318.4628,W,000.0,228.6,210819,017.7,E*61
01DDB9,0224F8,00C4E9,$GPRMC,210040,A,5442.9506,N,11318.4630,W,000.0,228.6,210819,017.7,E*69
01DDC1,0224FD,00C4E6,$GPRMC,210041,A,5442.9502,N,11318.4636,W,000.0,228.6,210819,017.7,E*6A
01DDD9,0224FC,00C4E5,$GPRMC,210042,A,5442.9501,N,11318.4636,W,000.0,228.6,210819,017.7,E*6A
01DDE2,0224F0,00C4E3,$GPRMC,210043,A,5442.9497,N,11318.4639,W,000.0,228.6,210819,017.7,E*6A
01DDDD,022502,00C4E0,$GPRMC,210044,A,5442.9492,N,11318.4641,W,000.0,228.6,210819,017.7,E*67
01DDDD,022502,00C4DE,$GPRMC,210045,A,5442.9490,N,11318.4641,W,000.0,228.6,210819,017.7,E*64
01DDDB,022501,00C4DD,$GPRMC,210046,A,5442.9489,N,11318.4641,W,000.0,228.6,210819,017.7,E*6F
01DDD7,022502,00C4DE,$GPRMC,210047,A,5442.9489,N,11318.4640,W,000.0,228.6,210819,017.7,E*6F
01DDBE,0225FF,00C4DD,$GPRMC,210048,A,5442.9488,N,11318.4639,W,000.0,228.6,210819,017.7,E*6F
01DD9C,0224E6,00C4E3,$GPRMC,210049,A,5442.9488,N,11318.4638,W,000.0,228.6,210819,017.7,E*6F
01DDA3,0224D4,00C4ED,$GPRMC,210050,A,5442.9488,N,11318.4636,W,000.0,228.6,210819,017.7,E*69
01DDAF,0224ED,00C4F2,$GPRMC,210051,A,5442.9488,N,11318.4635,W,000.0,228.6,210819,017.7,E*6B
01DDAD,0224F3,00C4EC,$GPRMC,210052,A,5442.9487,N,11318.4634,W,000.0,228.6,210819,017.7,E*66
01DDAE,0224F6,00C4EA,$GPRMC,210053,A,5442.9486,N,11318.4634,W,000.0,228.6,210819,017.7,E*66
01DDB6,0224FC,00C4EC,$GPRMC,210054,A,5442.9482,N,11318.4635,W,000.0,228.6,210819,017.7,E*64
01DDBA,0224FB,00C4EC,$GPRMC,210055,A,5442.9481,N,11318.4634,W,000.0,228.6,210819,017.7,E*67
01DDBD,022500,00C4EC,$GPRMC,210056,A,5442.9480,N,11318.4633,W,000.0,228.6,210819,017.7,E*62
01DDBC,022501,00C4ED,$GPRMC,210057,A,5442.9480,N,11318.4633,W,000.0,228.6,210819,017.7,E*63
01DDB8,0224FA,00C4EA,$GPRMC,210058,A,5442.9480,N,11318.4632,W,000.0,228.6,210819,017.7,E*6D
01DDB9,0224FD,00C4EB,$GPRMC,210059,A,5442.9479,N,11318.4631,W,000.0,228.6,210819,017.7,E*69
01DDB9,0224FC,00C4EB,$GPRMC,210100,A,5442.9479,N,11318.4631,W,000.0,228.6,210819,017.7,E*64
01DDBD,022501,00C4ED,$GPRMC,210101,A,5442.9471,N,11318.4632,W,000.0,228.6,210819,017.7,E*6E
01DDBD,022504,00C4ED,$GPRMC,210102,A,5442.9464,N,11318.4634,W,000.0,228.6,210819,017.7,E*6F
01DDB9,0224FC,00C4EB,$GPRMC,210103,A,5442.9457,N,11318.4635,W,000.0,228.6,210819,017.7,E*6F
01DDB8,0224FD,00C4EB,$GPRMC,210104,A,5442.9458,N,11318.4634,W,000.0,228.6,210819,017.7,E*66
01DDB8,0224FC,00C4EB,$GPRMC,210105,A,5442.9452,N,11318.4638,W,000.0,228.6,210819,017.7,E*61
01DDB5,0224F9,00C4EA,$GPRMC,210106,A,5442.9448,N,11318.4640,W,000.0,228.6,210819,017.7,E*66
01DDB8,0225FE,00C4EC,$GPRMC,210107,A,5442.9446,N,11318.4644,W,000.0,228.6,210819,017.7,E*6D
01DDB8,0225FE,00C4EC,$GPRMC,210108,A,5442.9448,N,11318.4641,W,000.0,228.6,210819,017.7,E*69
01DDB4,0224F8,00C4E9,$GPRMC,210109,A,5442.9447,N,11318.4644,W,000.0,228.6,210819,017.7,E*62
01DDBA,022501,00C4ED,$GPRMC,210110,A,5442.9448,N,11318.4644,W,000.0,228.6,210819,017.7,E*65
01DDB9,022502,00C4ED,$GPRMC,210111,A,5442.9450,N,11318.4643,W,000.0,228.6,210819,017.7,E*6A
01DDB8,022500,00C4EC,$GPRMC,210112,A,5442.9451,N,11318.4641,W,000.0,228.6,210819,017.7,E*6A
01DDB7,0224FD,00C4EB,$GPRMC,210113,A,5442.9455,N,11318.4637,W,000.0,228.6,210819,017.7,E*6E
01DDB9,022502,00C4EC,$GPRMC,210114,A,5442.9456,N,11318.4636,W,000.0,228.6,210819,017.7,E*6B
01DDB6,0224FD,00C4EB,$GPRMC,210115,A,5442.9457,N,11318.4634,W,000.0,228.6,210819,017.7,E*69
01DDB8,022501,00C4EC,$GPRMC,210116,A,5442.9458,N,11318.4633,W,000.0,228.6,210819,017.7,E*62
01DDBB,022503,00C4ED,$GPRMC,210117,A,5442.9460,N,11318.4631,W,000.0,228.6,210819,017.7,E*6A
01DDB8,022502,00C4EC,$GPRMC,210118,A,5442.9463,N,11318.4627,W,000.0,228.6,210819,017.7,E*61
01DDB6,0224FC,00C4EA,$GPRMC,210119,A,5442.9466,N,11318.4624,W,000.0,228.6,210819,017.7,E*66
01DDB8,022501,00C4EC,$GPRMC,210120,A,5442.9468,N,11318.4621,W,000.0,228.6,210819,017.7,E*67
01DDB9,022502,00C4ED,$GPRMC,210121,A,5442.9471,N,11318.4618,W,000.0,228.6,210819,017.7,E*64
01DDBC,022506,00C4EE,$GPRMC,210122,A,5442.9473,N,11318.4614,W,000.0,228.6,210819,017.7,E*69
01DDB8,0225FF,00C4EB,$GPRMC,210123,A,5442.9475,N,11318.4611,W,000.0,228.6,210819,017.7,E*6B
01DDB9,022500,00C4EC,$GPRMC,210124,A,5442.9477,N,11318.4608,W,000.0,228.6,210819,017.7,E*66
01DDB8,0225FF,00C4EC,$GPRMC,210125,A,5442.9480,N,11318.4605,W,000.0,228.6,210819,017.7,E*62
01DDBC,022503,00C4EE,$GPRMC,210126,A,5442.9482,N,11318.4602,W,000.0,228.6,210819,017.7,E*64
01DDBB,022503,00C4ED,$GPRMC,210127,A,5442.9485,N,11318.4599,W,000.0,228.6,210819,017.7,E*63
01DDBC,022503,00C4EE,$GPRMC,210128,A,5442.9487,N,11318.4596,W,000.0,228.6,210819,017.7,E*61
01DDBD,022504,00C4EE,$GPRMC,210129,A,5442.9489,N,11318.4595,W,000.0,228.6,210819,017.7,E*6D
01DDBE,022505,00C4EF,$GPRMC,210130,A,5442.9490,N,11318.4593,W,000.0,228.6,210819,017.7,E*6B
01DDBB,022503,00C4EE,$GPRMC,210131,A,5442.9492,N,11318.4592,W,000.0,228.6,210819,017.7,E*69
01DDBD,022501,00C4EE,$GPRMC,210132,A,5442.9493,N,11318.4592,W,000.0,228.6,210819,017.7,E*6B
01DDC2,02250B,00C4F1,$GPRMC,210133,A,5442.9494,N,11318.4591,W,000.0,228.6,210819,017.7,E*6E
01DDBD,022501,00C4EE,$GPRMC,210134,A,5442.9495,N,11318.4591,W,000.0,228.6,210819,017.7,E*68
01DDBF,022506,00C4F0,$GPRMC,210135,A,5442.9496,N,11318.4590,W,000.0,228.6,210819,017.7,E*6B
01DDBF,022503,00C4EE,$GPRMC,210136,A,5442.9496,N,11318.4590,W,000.0,228.6,210819,017.7,E*68
01DDC1,022507,00C4F0,$GPRMC,210137,A,5442.9497,N,11318.4590,W,000.0,228.6,210819,017.7,E*68
01DDC2,022506,00C4F0,$GPRMC,210138,A,5442.9497,N,11318.4591,W,000.0,228.6,210819,017.7,E*66
01DDC1,022505,00C4F0,$GPRMC,210139,A,5442.9497,N,11318.4591,W,000.0,228.6,210819,017.7,E*67
01DDBF,022500,00C4EE,$GPRMC,210140,A,5442.9497,N,11318.4591,W,000.0,228.6,210819,017.7,E*69
01DDC0,022501,00C4EE,$GPRMC,210141,A,5442.9497,N,11318.4592,W,000.0,228.6,210819,017.7,E*6B
01DDC1,022504,00C4EF,$GPRMC,210142,A,5442.9496,N,11318.4592,W,000.0,228.6,210819,017.7,E*69
01DDBF,022500,00C4EF,$GPRMC,210143,A,5442.9495,N,11318.4593,W,000.0,228.6,210819,017.7,E*6A
01DDC2,022504,00C4EF,$GPRMC,210144,A,5442.9494,N,11318.4594,W,000.0,228.6,210819,017.7,E*6B
01DDC1,022503,00C4EF,$GPRMC,210145,A,5442.9492,N,11318.4595,W,000.0,228.6,210819,017.7,E*6D
01DDC0,022501,00C4EF,$GPRMC,210146,A,5442.9491,N,11318.4597,W,000.0,228.6,210819,017.7,E*6F
01DDC0,022501,00C4EF,$GPRMC,210147,A,5442.9489,N,11318.4598,W,000.0,228.6,210819,017.7,E*68
01DDC4,022507,00C4F1,$GPRMC,210148,A,5442.9488,N,11318.4599,W,000.0,228.6,210819,017.7,E*67
01DDBF,022500,00C4EE,$GPRMC,210149,A,5442.9487,N,11318.4600,W,000.0,228.6,210819,017.7,E*6A
01DDC1,022502,00C4F0,$GPRMC,210150,A,5442.9485,N,11318.4601,W,000.0,228.6,210819,017.7,E*61
01DDC5,022508,00C4F2,$GPRMC,210151,A,5442.9483,N,11318.4602,W,000.0,228.6,210819,017.7,E*65
01DDC0,022500,00C4EF,$GPRMC,210152,A,5442.9482,N,11318.4603,W,000.0,228.6,210819,017.7,E*66
01DDC1,022501,00C4F0,$GPRMC,210153,A,5442.9481,N,11318.4603,W,000.0,228.6,210819,017.7,E*64
01DDBF,022501,00C4EF,$GPRMC,210154,A,5442.9481,N,11318.4603,W,000.0,228.6,210819,017.7,E*63
01DDC3,022503,00C4F0,$GPRMC,210155,A,5442.9481,N,11318.4604,W,000.0,228.6,210819,017.7,E*65
01DDBF,0225FF,00C4EE,$GPRMC,210156,A,5442.9480,N,11318.4604,W,000.0,228.6,210819,017.7,E*67
01DDBF,0225FF,00C4F0,$GPRMC,210157,A,5442.9481,N,11318.4604,W,000.0,228.6,210819,017.7,E*67
01DDC3,022505,00C4F1,$GPRMC,210158,A,5442.9481,N,11318.4603,W,000.0,228.6,210819,017.7,E*6F
01DDC0,0225FE,00C4EF,$GPRMC,210159,A,5442.9481,N,11318.4603,W,000.0,228.6,210819,017.7,E*6E
01DDC1,022500,00C4EF,$GPRMC,210200,A,5442.9482,N,11318.4603,W,000.0,228.6,210819,017.7,E*62
01DDC0,022502,00C4F0,$GPRMC,210201,A,5442.9482,N,11318.4603,W,000.0,228.6,210819,017.7,E*63
01DDBF,0225FE,00C4EF,$GPRMC,210202,A,5442.9482,N,11318.4603,W,000.0,228.6,210819,017.7,E*60
01DDBF,022500,00C4EF,$GPRMC,210203,A,5442.9482,N,11318.4603,W,000.0,228.6,210819,017.7,E*61
01DDBF,0224FD,00C4F0,$GPRMC,210204,A,5442.9483,N,11318.4603,W,000.0,228.6,210819,017.7,E*67
01DDBF,022502,00C4F1,$GPRMC,210205,A,5442.9487,N,11318.4603,W,000.0,228.6,210819,017.7,E*62
01DDC3,022506,00C4F3,$GPRMC,210206,A,5442.9491,N,11318.4602,W,000.0,228.6,210819,017.7,E*67
01DDBF,0225FF,00C4F0,$GPRMC,210207,A,5442.9496,N,11318.4602,W,000.0,228.6,210819,017.7,E*61
01DDC1,022503,00C4F1,$GPRMC,210208,A,5442.9501,N,11318.4602,W,000.0,228.6,210819,017.7,E*61
01DDC0,022502,00C4F1,$GPRMC,210209,A,5442.9503,N,11318.4599,W,000.0,228.6,210819,017.7,E*63
01DDCF,02252D,00C4EF,$GPRMC,210210,A,5442.9506,N,11318.4595,W,000.0,228.6,210819,017.7,E*62
01DDDB,022549,00C4EB,$GPRMC,210211,A,5442.9509,N,11318.4590,W,000.0,228.6,210819,017.7,E*69
01DDDB,02254D,00C4EC,$GPRMC,210212,A,5442.9512,N,11318.4586,W,000.0,228.6,210819,017.7,E*67
01DDD7,022551,00C4EC,$GPRMC,210213,A,5442.9514,N,11318.4583,W,000.0,228.6,210819,017.7,E*65
01DDD7,022556,00C4EA,$GPRMC,210214,A,5442.9517,N,11318.4579,W,000.0,228.6,210819,017.7,E*64
01DDE8,022550,00C4E7,$GPRMC,210215,A,5442.9518,N,11318.4579,W,000.0,228.6,210819,017.7,E*6A
01DDE5,022566,00C4EA,$GPRMC,210216,A,5442.9519,N,11318.4578,W,000.0,228.6,210819,017.7,E*69
01DDDE,02256E,00C4EF,$GPRMC,210217,A,5442.9520,N,11318.4578,W,000.0,228.6,210819,017.7,E*62
01DDCA,02255F,00C4F0,$GPRMC,210218,A,5442.9522,N,11318.4579,W,000.0,228.6,210819,017.7,E*6E
01DDCA,022541,00C4EF,$GPRMC,210219,A,5442.9523,N,11318.4579,W,000.0,228.6,210819,017.7,E*6E
01DDD8,022555,00C4ED,$GPRMC,210220,A,5442.9524,N,11318.4579,W,000.0,228.6,210819,017.7,E*63
01DDC8,022528,00C4EE,$GPRMC,210221,A,5442.9524,N,11318.4579,W,000.0,228.6,210819,017.7,E*62
01DDCA,02251F,00C4EF,$GPRMC,210222,A,5442.9524,N,11318.4579,W,000.0,228.6,210819,017.7,E*61
01DDC4,022514,00C4EE,$GPRMC,210223,A,5442.9524,N,11318.4580,W,000.0,228.6,210819,017.7,E*66
01DDC3,022515,00C4EE,$GPRMC,210224,A,5442.9524,N,11318.4582,W,000.0,228.6,210819,017.7,E*63
01DDC5,022517,00C4EF,$GPRMC,210225,A,5442.9524,N,11318.4582,W,000.0,228.6,210819,017.7,E*62
01DDC4,022515,00C4EE,$GPRMC,210226,A,5442.9525,N,11318.4583,W,000.0,228.6,210819,017.7,E*61
01DDC5,022518,00C4EF,$GPRMC,210227,A,5442.9525,N,11318.4584,W,000.0,228.6,210819,017.7,E*67
01DDC4,022516,00C4EF,$GPRMC,210228,A,5442.9526,N,11318.4584,W,000.0,228.6,210819,017.7,E*6B
01DDC1,022511,00C4ED,$GPRMC,210229,A,5442.9526,N,11318.4584,W,000.0,228.6,210819,017.7,E*6A
01DDC5,022515,00C4EE,$GPRMC,210230,A,5442.9527,N,11318.4585,W,000.0,228.6,210819,017.7,E*62
01DDC1,02250F,00C4EC,$GPRMC,210231,A,5442.9527,N,11318.4585,W,000.0,228.6,210819,017.7,E*63
01DDC1,02250E,00C4EC,$GPRMC,210232,A,5442.9526,N,11318.4585,W,000.0,228.6,210819,017.7,E*61
01DDBF,02250D,00C4EB,$GPRMC,210233,A,5442.9527,N,11318.4585,W,000.0,228.6,210819,017.7,E*61
01DDC0,02250F,00C4EC,$GPRMC,210234,A,5442.9527,N,11318.4585,W,000.0,228.6,210819,017.7,E*66
01DDBD,022509,00C4EA,$GPRMC,210235,A,5442.9527,N,11318.4585,W,000.0,228.6,210819,017.7,E*67
01DDC3,022513,00C4EE,$GPRMC,210236,A,5442.9526,N,11318.4584,W,000.0,228.6,210819,017.7,E*64
01DDC1,022511,00C4ED,$GPRMC,210237,A,5442.9527,N,11318.4586,W,000.0,228.6,210819,017.7,E*66
01DDC6,022519,00C4F0,$GPRMC,210238,A,5442.9529,N,11318.4587,W,000.0,228.6,210819,017.7,E*66
01DDC3,022513,00C4EE,$GPRMC,210239,A,5442.9530,N,11318.4588,W,000.0,228.6,210819,017.7,E*60
01DDC3,022515,00C4EF,$GPRMC,210240,A,5442.9531,N,11318.4589,W,000.0,228.6,210819,017.7,E*6E
01DDBF,022510,00C4ED,$GPRMC,210241,A,5442.9533,N,11318.4589,W,000.0,228.6,210819,017.7,E*6D
01DDC0,022510,00C4EC,$GPRMC,210242,A,5442.9534,N,11318.4589,W,000.0,228.6,210819,017.7,E*69
01DDBE,022510,00C4EC,$GPRMC,210243,A,5442.9535,N,11318.4588,W,000.0,228.6,210819,017.7,E*68
01DDBE,022512,00C4EC,$GPRMC,210244,A,5442.9536,N,11318.4586,W,000.0,228.6,210819,017.7,E*62
01DDBD,02250C,00C4EB,$GPRMC,210245,A,5442.9537,N,11318.4583,W,000.0,228.6,210819,017.7,E*67
01DDBC,02250E,00C4EB,$GPRMC,210246,A,5442.9541,N,11318.4583,W,000.0,228.6,210819,017.7,E*65
01DDBB,02250C,00C4E9,$GPRMC,210247,A,5442.9539,N,11318.4580,W,000.0,228.6,210819,017.7,E*68
01DDBD,02250E,00C4EB,$GPRMC,210248,A,5442.9534,N,11318.4582,W,000.0,228.6,210819,017.7,E*68
01DDBE,02250F,00C4EB,$GPRMC,210249,A,5442.9537,N,11318.4583,W,000.0,228.6,210819,017.7,E*6B
01DDC2,022515,00C4EE,$GPRMC,210250,A,5442.9535,N,11318.4579,W,000.0,228.6,210819,017.7,E*64
01DDBC,02250E,00C4EB,$GPRMC,210251,A,5442.9538,N,11318.4580,W,000.0,228.6,210819,017.7,E*6E
01DDBD,022510,00C4EB,$GPRMC,210252,A,5442.9540,N,11318.4580,W,000.0,228.6,210819,017.7,E*62
01DDC0,022516,00C4ED,$GPRMC,210253,A,5442.9538,N,11318.4578,W,000.0,228.6,210819,017.7,E*6B
01DDBB,02250E,00C4EA,$GPRMC,210254,A,5442.9540,N,11318.4579,W,000.0,228.6,210819,017.7,E*62
01DDBB,02250F,00C4EA,$GPRMC,210255,A,5442.9540,N,11318.4578,W,000.0,228.6,210819,017.7,E*62
01DDBB,02250F,00C4EA,$GPRMC,210256,A,5442.9543,N,11318.4578,W,000.0,228.6,210819,017.7,E*62
01DDB9,02250E,00C4EA,$GPRMC,210257,A,5442.9543,N,11318.4578,W,000.0,228.6,210819,017.7,E*63
01DDBC,022510,00C4EB,$GPRMC,210258,A,5442.9543,N,11318.4579,W,000.0,228.6,210819,017.7,E*6D
01DDBF,022514,00C4EC,$GPRMC,210259,A,5442.9544,N,11318.4580,W,000.0,228.6,210819,017.7,E*6D
01DDBC,022510,00C4EB,$GPRMC,210300,A,5442.9544,N,11318.4581,W,000.0,228.6,210819,017.7,E*61
01DDC1,022516,00C4EE,$GPRMC,210301,A,5442.9544,N,11318.4582,W,000.0,228.6,210819,017.7,E*63
01DDBD,022510,00C4EC,$GPRMC,210302,A,5442.9544,N,11318.4582,W,000.0,228.6,210819,017.7,E*60
01DDC1,022519,00C4EE,$GPRMC,210303,A,5442.9541,N,11318.4580,W,000.0,228.6,210819,017.7,E*66
01DDBB,022510,00C4EB,$GPRMC,210304,A,5442.9540,N,11318.4580,W,000.0,228.6,210819,017.7,E*60
01DDBF,022514,00C4ED,$GPRMC,210305,A,5442.9538,N,11318.4580,W,000.0,228.6,210819,017.7,E*6E
01DDBF,022515,00C4EC,$GPRMC,210306,A,5442.9537,N,11318.4581,W,000.0,228.6,210819,017.7,E*63
01DDC0,022515,00C4ED,$GPRMC,210307,A,5442.9536,N,11318.4582,W,000.0,228.6,210819,017.7,E*60
01DDBB,02250D,00C4EB,$GPRMC,210308,A,5442.9538,N,11318.4580,W,000.0,228.6,210819,017.7,E*63
01DDC0,022515,00C4EE,$GPRMC,210309,A,5442.9535,N,11318.4580,W,000.0,228.6,210819,017.7,E*6F
01DDC0,022514,00C4EE,$GPRMC,210310,A,5442.9533,N,11318.4580,W,000.0,228.6,210819,017.7,E*61
01DDC0,022515,00C4EE,$GPRMC,210311,A,5442.9532,N,11318.4580,W,000.0,228.6,210819,017.7,E*61
01DDBD,022511,00C4EC,$GPRMC,210312,A,5442.9531,N,11318.4579,W,000.0,228.6,210819,017.7,E*67
01DDBF,022512,00C4ED,$GPRMC,210313,A,5442.9531,N,11318.4579,W,000.0,228.6,210819,017.7,E*66
01DDC0,022513,00C4ED,$GPRMC,210314,A,5442.9528,N,11318.4578,W,000.0,228.6,210819,017.7,E*68
01DDC2,022516,00C4EE,$GPRMC,210315,A,5442.9527,N,11318.4578,W,000.0,228.6,210819,017.7,E*66
01DDC0,022513,00C4EE,$GPRMC,210316,A,5442.9526,N,11318.4578,W,000.0,228.6,210819,017.7,E*64
01DDC2,022516,00C4EF,$GPRMC,210317,A,5442.9526,N,11318.4578,W,000.0,228.6,210819,017.7,E*65
01DDBF,022514,00C4ED,$GPRMC,210318,A,5442.9525,N,11318.4577,W,000.0,228.6,210819,017.7,E*66
01DDBE,022510,00C4EC,$GPRMC,210319,A,5442.9525,N,11318.4577,W,000.0,228.6,210819,017.7,E*67
01DDC0,022514,00C4ED,$GPRMC,210320,A,5442.9526,N,11318.4578,W,000.0,228.6,210819,017.7,E*61
01DDC2,022518,00C4EF,$GPRMC,210321,A,5442.9526,N,11318.4578,W,000.0,228.6,210819,017.7,E*60
01DDBC,02250F,00C4EB,$GPRMC,210322,A,5442.9527,N,11318.4578,W,000.0,228.6,210819,017.7,E*62
01DDBE,022512,00C4EC,$GPRMC,210323,A,5442.9529,N,11318.4578,W,000.0,228.6,210819,017.7,E*6D
01DDC1,022515,00C4EE,$GPRMC,210324,A,5442.9529,N,11318.4579,W,000.0,228.6,210819,017.7,E*6B
01DDBD,022511,00C4EC,$GPRMC,210325,A,5442.9530,N,11318.4579,W,000.0,228.6,210819,017.7,E*62
01DDBD,022510,00C4EC,$GPRMC,210326,A,5442.9531,N,11318.4580,W,000.0,228.6,210819,017.7,E*66
01DDBB,02250E,00C4EB,$GPRMC,210327,A,5442.9532,N,11318.4580,W,000.0,228.6,210819,017.7,E*64
01DDC5,022522,00C4F0,$GPRMC,210328,A,5442.9532,N,11318.4580,W,000.0,228.6,210819,017.7,E*6B
01DDB6,022548,00C4F0,$GPRMC,210329,A,5442.9532,N,11318.4580,W,000.0,228.6,210819,017.7,E*6A
01DD8E,022565,00C4ED,$GPRMC,210330,A,5442.9531,N,11318.4581,W,000.0,228.6,210819,017.7,E*60
01DD88,02256B,00C4EB,$GPRMC,210331,A,5442.9531,N,11318.4582,W,000.0,228.6,210819,017.7,E*62
01DD89,02256D,00C4EC,$GPRMC,210332,A,5442.9531,N,11318.4582,W,000.0,228.6,210819,017.7,E*61
01DD8A,02256F,00C4ED,$GPRMC,210333,A,5442.9531,N,11318.4583,W,000.0,228.6,210819,017.7,E*61
01DD84,022567,00C4EA,$GPRMC,210334,A,5442.9531,N,11318.4583,W,000.0,228.6,210819,017.7,E*66
01DD84,022566,00C4EA,$GPRMC,210335,A,5442.9530,N,11318.4581,W,000.0,228.6,210819,017.7,E*64
01DD87,02256F,00C4ED,$GPRMC,210336,A,5442.9529,N,11318.4579,W,000.0,228.6,210819,017.7,E*68
01DD85,02256A,00C4EB,$GPRMC,210337,A,5442.9529,N,11318.4579,W,000.0,228.6,210819,017.7,E*69
01DD8A,022570,00C4ED,$GPRMC,210338,A,5442.9529,N,11318.4580,W,000.0,228.6,210819,017.7,E*60
01DD88,02256A,00C4EB,$GPRMC,210339,A,5442.9528,N,11318.4580,W,000.0,228.6,210819,017.7,E*60
01DD88,02256B,00C4EB,$GPRMC,210340,A,5442.9528,N,11318.4580,W,000.0,228.6,210819,017.7,E*6E
01DD8C,022573,00C4EE,$GPRMC,210341,A,5442.9527,N,11318.4586,W,000.0,228.6,210819,017.7,E*66
01DD86,022569,00C4EB,$GPRMC,210342,A,5442.9527,N,11318.4586,W,000.0,228.6,210819,017.7,E*65
01DD85,022568,00C4EB,$GPRMC,210343,A,5442.9527,N,11318.4586,W,000.0,228.6,210819,017.7,E*64
01DD87,02256B,00C4EC,$GPRMC,210344,A,5442.9527,N,11318.4586,W,000.0,228.6,210819,017.7,E*63
01DD84,022567,00C4EB,$GPRMC,210345,A,5442.9526,N,11318.4586,W,000.0,228.6,210819,017.7,E*63
01DD83,022566,00C4EA,$GPRMC,210346,A,5442.9526,N,11318.4586,W,000.0,228.6,210819,017.7,E*60
01DD87,02256C,00C4EC,$GPRMC,210347,A,5442.9523,N,11318.4587,W,000.0,228.6,210819,017.7,E*65
01DD87,02256B,00C4ED,$GPRMC,210348,A,5442.9521,N,11318.4589,W,000.0,228.6,210819,017.7,E*66
01DD86,02256C,00C4ED,$GPRMC,210349,A,5442.9521,N,11318.4588,W,000.0,228.6,210819,017.7,E*66
01DD85,02256C,00C4EC,$GPRMC,210350,A,5442.9517,N,11318.4586,W,000.0,228.6,210819,017.7,E*65
01DD80,022566,00C4EA,$GPRMC,210351,A,5442.9515,N,11318.4588,W,000.0,228.6,210819,017.7,E*68
01DD85,02256C,00C4ED,$GPRMC,210352,A,5442.9513,N,11318.4588,W,000.0,228.6,210819,017.7,E*6D
01DD84,02256B,00C4EC,$GPRMC,210353,A,5442.9512,N,11318.4589,W,000.0,228.6,210819,017.7,E*6C
01DD83,02256A,00C4EC,$GPRMC,210354,A,5442.9510,N,11318.4587,W,000.0,228.6,210819,017.7,E*67
01DD83,02256A,00C4EC,$GPRMC,210355,A,5442.9507,N,11318.4584,W,000.0,228.6,210819,017.7,E*63
01DD87,022570,00C4EF,$GPRMC,210356,A,5442.9504,N,11318.4580,W,000.0,228.6,210819,017.7,E*67
01DD82,02256D,00C4ED,$GPRMC,210357,A,5442.9503,N,11318.4584,W,000.0,228.6,210819,017.7,E*65
01DD80,02256B,00C4EC,$GPRMC,210358,A,5442.9503,N,11318.4583,W,000.0,228.6,210819,017.7,E*6D
01DD84,022572,00C4EE,$GPRMC,210359,A,5442.9503,N,11318.4582,W,000.0,228.6,210819,017.7,E*6D
01DD84,022571,00C4EE,$GPRMC,210400,A,5442.9501,N,11318.4582,W,000.0,228.6,210819,017.7,E*64
01DD80,02256B,00C4EC,$GPRMC,210401,A,5442.9499,N,11318.4582,W,000.0,228.6,210819,017.7,E*65
01DD83,022570,00C4EE,$GPRMC,210402,A,5442.9497,N,11318.4583,W,000.0,228.6,210819,017.7,E*69
01DD7F,02256A,00C4EB,$GPRMC,210403,A,5442.9497,N,11318.4583,W,000.0,228.6,210819,017.7,E*68
01DD83,02256E,00C4EC,$GPRMC,210404,A,5442.9494,N,11318.4583,W,000.0,228.6,210819,017.7,E*6C
01DD84,022570,00C4ED,$GPRMC,210405,A,5442.9492,N,11318.4585,W,000.0,228.6,210819,017.7,E*6D
01DD82,02256E,00C4EC,$GPRMC,210406,A,5442.9490,N,11318.4585,W,000.0,228.6,210819,017.7,E*6C
01DD85,022573,00C4EE,$GPRMC,210407,A,5442.9489,N,11318.4585,W,000.0,228.6,210819,017.7,E*65
01DD82,02256C,00C4EC,$GPRMC,210408,A,5442.9488,N,11318.4586,W,000.0,228.6,210819,017.7,E*68
01DD87,022573,00C4EF,$GPRMC,210409,A,5442.9486,N,11318.4586,W,000.0,228.6,210819,017.7,E*67
01DD81,02256D,00C4EC,$GPRMC,210410,A,5442.9486,N,11318.4586,W,000.0,228.6,210819,017.7,E*6F
01DD81,02256B,00C4EB,$GPRMC,210411,A,5442.9486,N,11318.4586,W,000.0,228.6,210819,017.7,E*6E
01DD82,02256D,00C4EB,$GPRMC,210412,A,5442.9485,N,11318.4587,W,000.0,228.6,210819,017.7,E*6F
01DD87,022574,00C4EE,$GPRMC,210413,A,5442.9483,N,11318.4588,W,000.0,228.6,210819,017.7,E*67
01DD88,022573,00C4EF,$GPRMC,210414,A,5442.9481,N,11318.4588,W,000.0,228.6,210819,017.7,E*62
01DD83,02256D,00C4EB,$GPRMC,210415,A,5442.9480,N,11318.4588,W,000.0,228.6,210819,017.7,E*62
01DD86,022570,00C4ED,$GPRMC,210416,A,5442.9479,N,11318.4588,W,000.0,228.6,210819,017.7,E*67
01DD85,022570,00C4ED,$GPRMC,210417,A,5442.9478,N,11318.4588,W,000.0,228.6,210819,017.7,E*67
01DD8C,02257B,00C4F1,$GPRMC,210418,A,5442.9475,N,11318.4589,W,000.0,228.6,210819,017.7,E*64
01DD88,022573,00C4EE,$GPRMC,210419,A,5442.9475,N,11318.4590,W,000.0,228.6,210819,017.7,E*6D
01DD86,022573,00C4ED,$GPRMC,210420,A,5442.9474,N,11318.4590,W,000.0,228.6,210819,017.7,E*66
01DD87,022572,00C4ED,$GPRMC,210421,A,5442.9474,N,11318.4590,W,000.0,228.6,210819,017.7,E*67
01DD8A,022579,00C4F0,$GPRMC,210422,A,5442.9472,N,11318.4590,W,000.0,228.6,210819,017.7,E*62
01DD86,022572,00C4EC,$GPRMC,210423,A,5442.9472,N,11318.4590,W,000.0,228.6,210819,017.7,E*63
01DD86,022571,00C4ED,$GPRMC,210424,A,5442.9471,N,11318.4590,W,000.0,228.6,210819,017.7,E*67
01DD88,022574,00C4ED,$GPRMC,210425,A,5442.9467,N,11318.4590,W,000.0,228.6,210819,017.7,E*61
01DD89,022575,00C4EE,$GPRMC,210426,A,5442.9466,N,11318.4590,W,000.0,228.6,210819,017.7,E*63
01DD89,022578,00C4EF,$GPRMC,210427,A,5442.9466,N,11318.4590,W,000.0,228.6,210819,017.7,E*62
01DD87,022573,00C4ED,$GPRMC,210428,A,5442.9464,N,11318.4590,W,000.0,228.6,210819,017.7,E*6F
01DD88,022575,00C4EE,$GPRMC,210429,A,5442.9464,N,11318.4588,W,000.0,228.6,210819,017.7,E*67
01DD8B,022579,00C4F1,$GPRMC,210430,A,5442.9464,N,11318.4588,W,000.0,228.6,210819,017.7,E*6F
01DD89,022575,00C4EF,$GPRMC,210431,A,5442.9463,N,11318.4588,W,000.0,228.6,210819,017.7,E*69
01DD8B,022579,00C4F1,$GPRMC,210432,A,5442.9463,N,11318.4588,W,000.0,228.6,210819,017.7,E*6A
01DD8B,022578,00C4F0,$GPRMC,210433,A,5442.9462,N,11318.4589,W,000.0,228.6,210819,017.7,E*6B
01DD8B,022578,00C4F0,$GPRMC,210434,A,5442.9461,N,11318.4590,W,000.0,228.6,210819,017.7,E*67
01DD8C,022578,00C4F0,$GPRMC,210435,A,5442.9461,N,11318.4591,W,000.0,228.6,210819,017.7,E*67
01DD88,022573,00C4EE,$GPRMC,210436,A,5442.9462,N,11318.4591,W,000.0,228.6,210819,017.7,E*67
01DD8F,02257D,00C4F2,$GPRMC,210437,A,5442.9460,N,11318.4591,W,000.0,228.6,210819,017.7,E*64
01DD8C,022578,00C4F1,$GPRMC,210438,A,5442.9459,N,11318.4593,W,000.0,228.6,210819,017.7,E*63
01DD89,022572,00C4EF,$GPRMC,210439,A,5442.9459,N,11318.4593,W,000.0,228.6,210819,017.7,E*62
01DD84,02256C,00C4EC,$GPRMC,210440,A,5442.9459,N,11318.4592,W,000.0,228.6,210819,017.7,E*6D
01DD88,022572,00C4EE,$GPRMC,210441,A,5442.9455,N,11318.4584,W,000.0,228.6,210819,017.7,E*67
01DD88,022570,00C4EE,$GPRMC,210442,A,5442.9452,N,11318.4578,W,000.0,228.6,210819,017.7,E*60
01DD86,02256F,00C4ED,$GPRMC,210443,A,5442.9452,N,11318.4579,W,000.0,228.6,210819,017.7,E*60
01DD89,022572,00C4EE,$GPRMC,210444,A,5442.9452,N,11318.4582,W,000.0,228.6,210819,017.7,E*63
01DD88,022570,00C4EE,$GPRMC,210445,A,5442.9452,N,11318.4585,W,000.0,228.6,210819,017.7,E*65
01DD89,022571,00C4EE,$GPRMC,210446,A,5442.9452,N,11318.4584,W,000.0,228.6,210819,017.7,E*67
01DD8B,022575,00C4EF,$GPRMC,210447,A,5442.9451,N,11318.4586,W,000.0,228.6,210819,017.7,E*67
01DD89,022570,00C4EE,$GPRMC,210448,A,5442.9452,N,11318.4586,W,000.0,228.6,210819,017.7,E*6B
01DD8A,022573,00C4EE,$GPRMC,210449,A,5442.9452,N,11318.4586,W,000.0,228.6,210819,017.7,E*6A
01DD8B,022571,00C4ED,$GPRMC,210450,A,5442.9452,N,11318.4587,W,000.0,228.6,210819,017.7,E*63
01DD8D,022575,00C4EF,$GPRMC,210451,A,5442.9448,N,11318.4577,W,000.0,228.6,210819,017.7,E*66
01DD87,02256D,00C4EC,$GPRMC,210452,A,5442.9449,N,11318.4578,W,000.0,228.6,210819,017.7,E*6B
01DD8D,022576,00C4EF,$GPRMC,210453,A,5442.9448,N,11318.4581,W,000.0,228.6,210819,017.7,E*6D
01DD8D,022574,00C4EF,$GPRMC,210454,A,5442.9447,N,11318.4584,W,000.0,228.6,210819,017.7,E*60
01DD8C,022575,00C4EE,$GPRMC,210455,A,5442.9446,N,11318.4583,W,000.0,228.6,210819,017.7,E*67
01DD8C,022576,00C4EE,$GPRMC,210456,A,5442.9445,N,11318.4585,W,000.0,228.6,210819,017.7,E*61
01DD89,022571,00C4ED,$GPRMC,210457,A,5442.9445,N,11318.4587,W,000.0,228.6,210819,017.7,E*62
01DD8A,022574,00C4EE,$GPRMC,210458,A,5442.9443,N,11318.4588,W,000.0,228.6,210819,017.7,E*64
01DD8E,022578,00C4F0,$GPRMC,210459,A,5442.9441,N,11318.4589,W,000.0,228.6,210819,017.7,E*66
01DD8B,022576,00C4EF,$GPRMC,210500,A,5442.9441,N,11318.4589,W,000.0,228.6,210819,017.7,E*6B
01DD89,022571,00C4ED,$GPRMC,210501,A,5442.9441,N,11318.4590,W,000.0,228.6,210819,017.7,E*62
01DD90,02257D,00C4F1,$GPRMC,210502,A,5442.9441,N,11318.4590,W,000.0,228.6,210819,017.7,E*61
01DD87,022570,00C4EB,$GPRMC,210503,A,5442.9441,N,11318.4591,W,000.0,228.6,210819,017.7,E*61
01DD8C,022578,00C4EF,$GPRMC,210504,A,5442.9440,N,11318.4592,W,000.0,228.6,210819,017.7,E*64
01DD8A,022574,00C4EE,$GPRMC,210505,A,5442.9440,N,11318.4593,W,000.0,228.6,210819,017.7,E*64
01DD8A,022574,00C4EE,$GPRMC,210506,A,5442.9440,N,11318.4594,W,000.0,228.6,210819,017.7,E*60
01DD88,022572,00C4EC,$GPRMC,210507,A,5442.9440,N,11318.4595,W,000.0,228.6,210819,017.7,E*60
01DD8F,02257D,00C4F1,$GPRMC,210508,A,5442.9441,N,11318.4596,W,000.0,228.6,210819,017.7,E*6D
01DD8C,022578,00C4EF,$GPRMC,210509,A,5442.9439,N,11318.4596,W,000.0,228.6,210819,017.7,E*63
01DD89,022573,00C4ED,$GPRMC,210510,A,5442.9438,N,11318.4596,W,000.0,228.6,210819,017.7,E*6A
01DD87,022572,00C4EC,$GPRMC,210511,A,5442.9437,N,11318.4598,W,000.0,228.6,210819,017.7,E*6A
01DD87,022571,00C4EB,$GPRMC,210512,A,5442.9437,N,11318.4598,W,000.0,228.6,210819,017.7,E*69
01DD85,02256E,00C4E9,$GPRMC,210513,A,5442.9435,N,11318.4599,W,000.0,228.6,210819,017.7,E*6B
01DD89,022573,00C4EC,$GPRMC,210514,A,5442.9435,N,11318.4599,W,000.0,228.6,210819,017.7,E*6C
01DD89,022572,00C4ED,$GPRMC,210515,A,5442.9433,N,11318.4599,W,000.0,228.6,210819,017.7,E*6B
01DD89,022572,00C4EC,$GPRMC,210516,A,5442.9431,N,11318.4597,W,000.0,228.6,210819,017.7,E*64
01DD8C,022578,00C4EF,$GPRMC,210517,A,5442.9433,N,11318.4596,W,000.0,228.6,210819,017.7,E*66
01DD89,022573,00C4ED,$GPRMC,210518,A,5442.9433,N,11318.4595,W,000.0,228.6,210819,017.7,E*6A
01DD89,022573,00C4ED,$GPRMC,210519,A,5442.9432,N,11318.4595,W,000.0,228.6,210819,017.7,E*6A
01DD8E,02257A,00C4EF,$GPRMC,210520,A,5442.9431,N,11318.4595,W,000.0,228.6,210819,017.7,E*63
01DD8A,022575,00C4ED,$GPRMC,210521,A,5442.9431,N,11318.4594,W,000.0,228.6,210819,017.7,E*63
01DD90,02257D,00C4F1,$GPRMC,210522,A,5442.9431,N,11318.4595,W,000.0,228.6,210819,017.7,E*61
01DD8E,022579,00C4EF,$GPRMC,210523,A,5442.9432,N,11318.4595,W,000.0,228.6,210819,017.7,E*63
01DD8F,02257A,00C4F0,$GPRMC,210524,A,5442.9432,N,11318.4593,W,000.0,228.6,210819,017.7,E*62
01DD86,02256D,00C4EA,$GPRMC,210525,A,5442.9431,N,11318.4592,W,000.0,228.6,210819,017.7,E*61
01DD8E,022576,00C4EE,$GPRMC,210526,A,5442.9431,N,11318.4590,W,000.0,228.6,210819,017.7,E*60
01DD8A,022571,00C4EC,$GPRMC,210527,A,5442.9429,N,11318.4589,W,001.0,228.6,210819,017.7,E*61
01DD89,022570,00C4EB,$GPRMC,210528,A,5442.9431,N,11318.4593,W,000.0,228.6,210819,017.7,E*6D
01DD87,02256C,00C4E9,$GPRMC,210529,A,5442.9431,N,11318.4594,W,000.0,228.6,210819,017.7,E*6B
01DD8F,022576,00C4EE,$GPRMC,210530,A,5442.9432,N,11318.4595,W,000.0,228.6,210819,017.7,E*61
01DD84,022568,00C4E8,$GPRMC,210531,A,5442.9433,N,11318.4596,W,000.0,228.6,210819,017.7,E*62
01DD8B,022571,00C4EC,$GPRMC,210532,A,5442.9431,N,11318.4597,W,000.0,228.6,210819,017.7,E*62
01DD8E,022574,00C4EE,$GPRMC,210533,A,5442.9431,N,11318.4600,W,000.0,228.6,210819,017.7,E*6E
01DD8B,022570,00C4EC,$GPRMC,210534,A,5442.9429,N,11318.4601,W,000.0,228.6,210819,017.7,E*61
01DD8C,022570,00C4EC,$GPRMC,210535,A,5442.9427,N,11318.4604,W,000.0,228.6,210819,017.7,E*6B
01DD8A,02256E,00C4EB,$GPRMC,210536,A,5442.9427,N,11318.4605,W,000.0,228.6,210819,017.7,E*69
01DD94,02257D,00C4F1,$GPRMC,210537,A,5442.9426,N,11318.4607,W,000.0,228.6,210819,017.7,E*6B
01DD8F,022574,00C4ED,$GPRMC,210538,A,5442.9426,N,11318.4609,W,000.0,228.6,210819,017.7,E*6A
01DD96,02257E,00C4F1,$GPRMC,210539,A,5442.9425,N,11318.4610,W,000.0,228.6,210819,017.7,E*60
01DD8C,022570,00C4EC,$GPRMC,210540,A,5442.9425,N,11318.4610,W,000.0,228.6,210819,017.7,E*6E
01DD8B,022570,00C4EC,$GPRMC,210541,A,5442.9423,N,11318.4610,W,000.0,228.6,210819,017.7,E*69
01DD8C,022570,00C4EC,$GPRMC,210542,A,5442.9423,N,11318.4611,W,000.0,228.6,210819,017.7,E*6B
01DD90,022577,00C4EF,$GPRMC,210543,A,5442.9422,N,11318.4611,W,000.0,228.6,210819,017.7,E*6B
01DD91,022579,00C4F0,$GPRMC,210544,A,5442.9421,N,11318.4611,W,000.0,228.6,210819,017.7,E*6F
01DD8E,022574,00C4EE,$GPRMC,210545,A,5442.9421,N,11318.4611,W,000.0,228.6,210819,017.7,E*6E
01DD8F,022575,00C4EE,$GPRMC,210546,A,5442.9422,N,11318.4613,W,000.0,228.6,210819,017.7,E*6C
01DD92,02257A,00C4F0,$GPRMC,210547,A,5442.9422,N,11318.4613,W,000.0,228.6,210819,017.7,E*6D
01DD8E,022572,00C4ED,$GPRMC,210548,A,5442.9423,N,11318.4615,W,000.0,228.6,210819,017.7,E*65
01DD8E,022573,00C4ED,$GPRMC,210549,A,5442.9422,N,11318.4615,W,000.0,228.6,210819,017.7,E*65
01DD8C,022571,00C4EC,$GPRMC,210550,A,5442.9420,N,11318.4613,W,000.0,228.6,210819,017.7,E*69
01DD90,022577,00C4EF,$GPRMC,210551,A,5442.9418,N,11318.4611,W,000.0,228.6,210819,017.7,E*61
01DD8B,02256E,00C4EB,$GPRMC,210552,A,5442.9418,N,11318.4609,W,000.0,228.6,210819,017.7,E*6B
01DD8F,022575,00C4EF,$GPRMC,210553,A,5442.9418,N,11318.4609,W,000.0,228.6,210819,017.7,E*6A
01DD8C,02256F,00C4EE,$GPRMC,210554,A,5442.9421,N,11318.4609,W,000.0,228.6,210819,017.7,E*67
01DD8A,02256D,00C4ED,$GPRMC,210555,A,5442.9424,N,11318.4609,W,000.0,228.6,210819,017.7,E*63
01DD8C,02256F,00C4ED,$GPRMC,210556,A,5442.9425,N,11318.4609,W,000.0,228.6,210819,017.7,E*61
01DD8D,022571,00C4EF,$GPRMC,210557,A,5442.9425,N,11318.4609,W,000.0,228.6,210819,017.7,E*60
01DD8D,022572,00C4EE,$GPRMC,210558,A,5442.9427,N,11318.4605,W,000.0,228.6,210819,017.7,E*61
01DD93,02257A,00C4F2,$GPRMC,210559,A,5442.9428,N,11318.4606,W,000.0,228.6,210819,017.7,E*6C
01DD91,022577,00C4F1,$GPRMC,210600,A,5442.9427,N,11318.4606,W,000.0,228.6,210819,017.7,E*6C
01DD91,022579,00C4F2,$GPRMC,210601,A,5442.9425,N,11318.4607,W,000.0,228.6,210819,017.7,E*6E
01DD93,02257A,00C4F2,$GPRMC,210602,A,5442.9425,N,11318.4607,W,000.0,228.6,210819,017.7,E*6D
01DD93,02257B,00C4F2,$GPRMC,210603,A,5442.9423,N,11318.4606,W,000.0,228.6,210819,017.7,E*6B
01DD90,022575,00C4EF,$GPRMC,210604,A,5442.9422,N,11318.4607,W,000.0,228.6,210819,017.7,E*6C
01DD96,02257C,00C4F3,$GPRMC,210605,A,5442.9420,N,11318.4611,W,000.0,228.6,210819,017.7,E*68
01DD93,022577,00C4F2,$GPRMC,210606,A,5442.9420,N,11318.4610,W,000.0,228.6,210819,017.7,E*6A
01DD92,022576,00C4F1,$GPRMC,210607,A,5442.9419,N,11318.4610,W,000.0,228.6,210819,017.7,E*61
01DD95,02257A,00C4F3,$GPRMC,210608,A,5442.9419,N,11318.4609,W,000.0,228.6,210819,017.7,E*66
01DD94,02257A,00C4F2,$GPRMC,210609,A,5442.9419,N,11318.4609,W,000.0,228.6,210819,017.7,E*67
01DD94,022579,00C4F2,$GPRMC,210610,A,5442.9418,N,11318.4610,W,000.0,228.6,210819,017.7,E*66
01DD93,022579,00C4F2,$GPRMC,210611,A,5442.9417,N,11318.4606,W,000.0,228.6,210819,017.7,E*6F
01DD94,02257A,00C4F2,$GPRMC,210612,A,5442.9417,N,11318.4606,W,000.0,228.6,210819,017.7,E*6C
01DD96,02257C,00C4F3,$GPRMC,210613,A,5442.9418,N,11318.4607,W,000.0,228.6,210819,017.7,E*63
01DD8F,022572,00C4EE,$GPRMC,210614,A,5442.9420,N,11318.4607,W,000.0,228.6,210819,017.7,E*6F
01DD97,02257D,00C4F4,$GPRMC,210615,A,5442.9420,N,11318.4608,W,000.0,228.6,210819,017.7,E*61
01DD94,022579,00C4F2,$GPRMC,210616,A,5442.9421,N,11318.4609,W,000.0,228.6,210819,017.7,E*62
01DD93,022577,00C4F1,$GPRMC,210617,A,5442.9421,N,11318.4610,W,000.0,228.6,210819,017.7,E*6B
01DD97,02257E,00C4F4,$GPRMC,210618,A,5442.9420,N,11318.4611,W,000.0,228.6,210819,017.7,E*64
01DD98,02257D,00C4F3,$GPRMC,210619,A,5442.9420,N,11318.4612,W,000.0,228.6,210819,017.7,E*66
01DD94,022577,00C4F0,$GPRMC,210620,A,5442.9420,N,11318.4614,W,000.0,228.6,210819,017.7,E*6A
01DD97,02257D,00C4F2,$GPRMC,210621,A,5442.9419,N,11318.4615,W,000.0,228.6,210819,017.7,E*60
01DD94,022577,00C4F1,$GPRMC,210622,A,5442.9419,N,11318.4615,W,000.0,228.6,210819,017.7,E*63
01DD92,022575,00C4F0,$GPRMC,210623,A,5442.9419,N,11318.4614,W,000.0,228.6,210819,017.7,E*63
01DD95,02257A,00C4F2,$GPRMC,210624,A,5442.9419,N,11318.4614,W,000.0,228.6,210819,017.7,E*64
01DD94,022578,00C4F1,$GPRMC,210625,A,5442.9418,N,11318.4615,W,000.0,228.6,210819,017.7,E*65
01DD93,022577,00C4F1,$GPRMC,210626,A,5442.9417,N,11318.4616,W,000.0,228.6,210819,017.7,E*6A
01DD97,02257C,00C4F3,$GPRMC,210627,A,5442.9417,N,11318.4616,W,000.0,228.6,210819,017.7,E*6B
01DD93,022578,00C4F1,$GPRMC,210628,A,5442.9417,N,11318.4615,W,000.0,228.6,210819,017.7,E*67
01DD96,02257C,00C4F2,$GPRMC,210629,A,5442.9416,N,11318.4615,W,000.0,228.6,210819,017.7,E*67
01DD95,02257A,00C4F2,$GPRMC,210630,A,5442.9416,N,11318.4615,W,000.0,228.6,210819,017.7,E*6F
01DD96,02257D,00C4F2,$GPRMC,210631,A,5442.9415,N,11318.4615,W,000.0,228.6,210819,017.7,E*6D
01DD94,022579,00C4F0,$GPRMC,210632,A,5442.9414,N,11318.4616,W,000.0,228.6,210819,017.7,E*6C
01DD90,022574,00C4EE,$GPRMC,210633,A,5442.9414,N,11318.4616,W,000.0,228.6,210819,017.7,E*6D
01DD93,022578,00C4F0,$GPRMC,210634,A,5442.9414,N,11318.4614,W,000.0,228.6,210819,017.7,E*68
01DD97,02257D,00C4F3,$GPRMC,210635,A,5442.9414,N,11318.4613,W,000.0,228.6,210819,017.7,E*6E
01DD96,02257B,00C4F2,$GPRMC,210636,A,5442.9413,N,11318.4613,W,000.0,228.6,210819,017.7,E*6A
01DD93,022577,00C4F1,$GPRMC,210637,A,5442.9412,N,11318.4613,W,000.0,228.6,210819,017.7,E*6A
01DD95,02257A,00C4F2,$GPRMC,210638,A,5442.9412,N,11318.4612,W,000.0,228.6,210819,017.7,E*64
01DD96,02257C,00C4F3,$GPRMC,210639,A,5442.9412,N,11318.4612,W,000.0,228.6,210819,017.7,E*65
01DD94,022579,00C4F2,$GPRMC,210640,A,5442.9413,N,11318.4610,W,000.0,228.6,210819,017.7,E*68
01DD96,02257C,00C4F4,$GPRMC,210641,A,5442.9412,N,11318.4610,W,000.0,228.6,210819,017.7,E*68
01DD98,02257F,00C4F4,$GPRMC,210642,A,5442.9411,N,11318.4612,W,000.0,228.6,210819,017.7,E*6A
01DD94,022578,00C4F1,$GPRMC,210643,A,5442.9410,N,11318.4615,W,000.0,228.6,210819,017.7,E*6D
01DD97,02257C,00C4F4,$GPRMC,210644,A,5442.9409,N,11318.4615,W,000.0,228.6,210819,017.7,E*62
01DD97,02257E,00C4F4,$GPRMC,210645,A,5442.9408,N,11318.4614,W,000.0,228.6,210819,017.7,E*63
01DD95,02257A,00C4F3,$GPRMC,210646,A,5442.9407,N,11318.4614,W,000.0,228.6,210819,017.7,E*6F
01DD95,02257A,00C4F4,$GPRMC,210647,A,5442.9405,N,11318.4614,W,000.0,228.6,210819,017.7,E*6C
01DD97,02257E,00C4F4,$GPRMC,210648,A,5442.9405,N,11318.4614,W,000.0,228.6,210819,017.7,E*63
01DD95,02257C,00C4F4,$GPRMC,210649,A,5442.9404,N,11318.4615,W,000.0,228.6,210819,017.7,E*62
01DD94,022578,00C4F2,$GPRMC,210650,A,5442.9404,N,11318.4615,W,000.0,228.6,210819,017.7,E*6A
01DD92,022577,00C4F1,$GPRMC,210651,A,5442.9404,N,11318.4617,W,000.0,228.6,210819,017.7,E*69
01DD92,022577,00C4F1,$GPRMC,210652,A,5442.9404,N,11318.4617,W,000.0,228.6,210819,017.7,E*6A
01DD94,022579,00C4F3,$GPRMC,210653,A,5442.9404,N,11318.4618,W,000.0,228.6,210819,017.7,E*64
01DD96,02257B,00C4F3,$GPRMC,210654,A,5442.9404,N,11318.4620,W,000.0,228.6,210819,017.7,E*68
01DD91,022572,00C4F0,$GPRMC,210655,A,5442.9403,N,11318.4623,W,000.0,228.6,210819,017.7,E*6D
01DD97,02257B,00C4F3,$GPRMC,210656,A,5442.9402,N,11318.4626,W,000.0,228.6,210819,017.7,E*6A
01DD96,02257A,00C4F2,$GPRMC,210657,A,5442.9401,N,11318.4629,W,000.0,228.6,210819,017.7,E*67
01DD91,022573,00C4F0,$GPRMC,210658,A,5442.9401,N,11318.4631,W,000.0,228.6,210819,017.7,E*61
01DD94,022577,00C4F1,$GPRMC,210659,A,5442.9400,N,11318.4631,W,000.0,228.6,210819,017.7,E*61
01DD95,022577,00C4F1,$GPRMC,210700,A,5442.9399,N,11318.4632,W,000.0,228.6,210819,017.7,E*68
01DD93,022576,00C4F1,$GPRMC,210701,A,5442.9398,N,11318.4631,W,000.0,228.6,210819,017.7,E*6B
01DD98,02257C,00C4F4,$GPRMC,210702,A,5442.9396,N,11318.4630,W,000.2,228.6,210819,017.7,E*65
01DD92,022573,00C4F0,$GPRMC,210703,A,5442.9396,N,11318.4633,W,000.0,228.6,210819,017.7,E*65
01DD96,022579,00C4F2,$GPRMC,210704,A,5442.9394,N,11318.4632,W,000.0,228.6,210819,017.7,E*61
01DD92,022573,00C4EF,$GPRMC,210705,A,5442.9394,N,11318.4635,W,000.0,228.6,210819,017.7,E*67
01DD95,022577,00C4F1,$GPRMC,210706,A,5442.9394,N,11318.4636,W,000.0,228.6,210819,017.7,E*67
01DD97,022579,00C4F2,$GPRMC,210707,A,5442.9393,N,11318.4636,W,000.0,228.6,210819,017.7,E*61
01DD97,02257A,00C4F2,$GPRMC,210708,A,5442.9393,N,11318.4638,W,000.0,228.6,210819,017.7,E*60
01DD98,022579,00C4F2,$GPRMC,210709,A,5442.9393,N,11318.4638,W,000.0,228.6,210819,017.7,E*61
01DD99,02257A,00C4F3,$GPRMC,210710,A,5442.9392,N,11318.4637,W,000.0,228.6,210819,017.7,E*67
01DD98,022579,00C4F2,$GPRMC,210711,A,5442.9392,N,11318.4638,W,000.0,228.6,210819,017.7,E*69
01DD99,02257A,00C4F3,$GPRMC,210712,A,5442.9392,N,11318.4639,W,000.0,228.6,210819,017.7,E*6B
01DD99,02257A,00C4F3,$GPRMC,210713,A,5442.9392,N,11318.4639,W,000.0,228.6,210819,017.7,E*6A
01DD9B,02257C,00C4F4,$GPRMC,210714,A,5442.9392,N,11318.4639,W,000.0,228.6,210819,017.7,E*6D
01DD97,022576,00C4F1,$GPRMC,210715,A,5442.9392,N,11318.4639,W,000.0,228.6,210819,017.7,E*6C
01DD99,02257A,00C4F2,$GPRMC,210716,A,5442.9392,N,11318.4635,W,000.0,228.6,210819,017.7,E*63
01DD96,022576,00C4F1,$GPRMC,210717,A,5442.9392,N,11318.4634,W,000.0,228.6,210819,017.7,E*63
01DD9E,022582,00C4F6,$GPRMC,210718,A,5442.9393,N,11318.4633,W,000.0,228.6,210819,017.7,E*6A
01DD99,022579,00C4F2,$GPRMC,210719,A,5442.9393,N,11318.4631,W,000.0,228.6,210819,017.7,E*69
01DD99,022578,00C4F1,$GPRMC,210720,A,5442.9394,N,11318.4628,W,000.0,228.6,210819,017.7,E*6C
01DD97,022577,00C4F0,$GPRMC,210721,A,5442.9395,N,11318.4632,W,000.0,228.6,210819,017.7,E*67
01DD9B,02257B,00C4F2,$GPRMC,210722,A,5442.9396,N,11318.4631,W,000.0,228.6,210819,017.7,E*64
01DD9A,02257C,00C4F3,$GPRMC,210723,A,5442.9396,N,11318.4632,W,000.0,228.6,210819,017.7,E*66
01DD95,022573,00C4F0,$GPRMC,210724,A,5442.9396,N,11318.4630,W,000.0,228.6,210819,017.7,E*63
01DD9C,02257E,00C4F4,$GPRMC,210725,A,5442.9396,N,11318.4629,W,000.0,228.6,210819,017.7,E*6A
01DD97,022577,00C4F1,$GPRMC,210726,A,5442.9397,N,11318.4635,W,000.0,228.6,210819,017.7,E*65
01DD96,022575,00C4F1,$GPRMC,210727,A,5442.9398,N,11318.4630,W,000.0,228.6,210819,017.7,E*6E
01DD91,022574,00C4ED,$GPRMC,210728,A,5442.9399,N,11318.4635,W,000.0,228.6,210819,017.7,E*65
01DD98,022581,00C4F3,$GPRMC,210729,A,5442.9398,N,11318.4634,W,000.0,228.6,210819,017.7,E*64
01DD96,02257F,00C4F1,$GPRMC,210730,A,5442.9399,N,11318.4637,W,000.0,228.6,210819,017.7,E*6E
01DD9A,022584,00C4F3,$GPRMC,210731,A,5442.9399,N,11318.4640,W,000.0,228.6,210819,017.7,E*6F
01DD93,02257C,00C4EF,$GPRMC,210732,A,5442.9399,N,11318.4640,W,000.0,228.6,210819,017.7,E*6C
01DD98,022583,00C4F3,$GPRMC,210733,A,5442.9399,N,11318.4639,W,000.0,228.6,210819,017.7,E*63
01DD95,02257A,00C4EF,$GPRMC,210734,A,5442.9399,N,11318.4639,W,000.0,228.6,210819,017.7,E*64
01DD98,02257D,00C4F0,$GPRMC,210735,A,5442.9399,N,11318.4637,W,000.0,228.6,210819,017.7,E*6B
01DD95,02257A,00C4EE,$GPRMC,210736,A,5442.9399,N,11318.4638,W,000.0,228.6,210819,017.7,E*67
01DD94,022579,00C4EE,$GPRMC,210737,A,5442.9399,N,11318.4638,W,000.0,228.6,210819,017.7,E*66
01DD95,022579,00C4EE,$GPRMC,210738,A,5442.9398,N,11318.4641,W,000.0,228.6,210819,017.7,E*66
01DD9B,022583,00C4F2,$GPRMC,210739,A,5442.9397,N,11318.4642,W,000.0,228.6,210819,017.7,E*6B
01DD95,022579,00C4EE,$GPRMC,210740,A,5442.9397,N,11318.4643,W,000.0,228.6,210819,017.7,E*64
01DD98,02257F,00C4F1,$GPRMC,210741,A,5442.9396,N,11318.4644,W,000.0,228.6,210819,017.7,E*63
01DD97,02257B,00C4F0,$GPRMC,210742,A,5442.9396,N,11318.4644,W,000.0,228.6,210819,017.7,E*60
01DD9A,022580,00C4F1,$GPRMC,210743,A,5442.9396,N,11318.4644,W,000.0,228.6,210819,017.7,E*61
01DD96,022579,00C4EE,$GPRMC,210744,A,5442.9394,N,11318.4649,W,000.0,228.6,210819,017.7,E*69
01DD9B,02257D,00C4F1,$GPRMC,210745,A,5442.9396,N,11318.4641,W,000.0,228.6,210819,017.7,E*62
01DD94,022576,00C4ED,$GPRMC,210746,A,5442.9396,N,11318.4643,W,000.0,228.6,210819,017.7,E*63
01DD95,022575,00C4ED,$GPRMC,210747,A,5442.9395,N,11318.4645,W,000.0,228.6,210819,017.7,E*67
01DD94,022573,00C4EC,$GPRMC,210748,A,5442.9395,N,11318.4645,W,000.0,228.6,210819,017.7,E*68
01DD98,02257A,00C4EF,$GPRMC,210749,A,5442.9394,N,11318.4646,W,000.0,228.6,210819,017.7,E*6B
01DD94,022572,00C4ED,$GPRMC,210750,A,5442.9394,N,11318.4651,W,000.0,228.6,210819,017.7,E*65
01DD9C,02257E,00C4F1,$GPRMC,210751,A,5442.9394,N,11318.4648,W,000.0,228.6,210819,017.7,E*6C
01DD95,022575,00C4ED,$GPRMC,210752,A,5442.9394,N,11318.4645,W,000.0,228.6,210819,017.7,E*62
01DD9B,02257D,00C4F1,$GPRMC,210753,A,5442.9394,N,11318.4641,W,000.0,228.6,210819,017.7,E*67
01DD98,022579,00C4EF,$GPRMC,210754,A,5442.9393,N,11318.4638,W,000.0,228.6,210819,017.7,E*69
01DD9B,02257C,00C4F0,$GPRMC,210755,A,5442.9393,N,11318.4637,W,000.0,228.6,210819,017.7,E*67
01DD97,022575,00C4EE,$GPRMC,210756,A,5442.9394,N,11318.4636,W,000.0,228.6,210819,017.7,E*62
01DD99,022579,00C4F0,$GPRMC,210757,A,5442.9394,N,11318.4636,W,000.0,228.6,210819,017.7,E*63
01DD95,022575,00C4EE,$GPRMC,210758,A,5442.9392,N,11318.4633,W,000.0,228.6,210819,017.7,E*6F
01DD98,022577,00C4EF,$GPRMC,210759,A,5442.9391,N,11318.4631,W,000.0,228.6,210819,017.7,E*6F
01DD96,022575,00C4EE,$GPRMC,210800,A,5442.9391,N,11318.4631,W,000.0,228.6,210819,017.7,E*6C
01DD95,022573,00C4EE,$GPRMC,210801,A,5442.9390,N,11318.4632,W,000.0,228.6,210819,017.7,E*6F
01DD98,022578,00C4F0,$GPRMC,210802,A,5442.9390,N,11318.4629,W,000.0,228.6,210819,017.7,E*66
01DD97,022576,00C4F0,$GPRMC,210803,A,5442.9390,N,11318.4625,W,000.0,228.6,210819,017.7,E*6B
01DD94,022572,00C4ED,$GPRMC,210804,A,5442.9389,N,11318.4624,W,000.0,228.6,210819,017.7,E*65
01DD98,022578,00C4EF,$GPRMC,210805,A,5442.9389,N,11318.4624,W,000.0,228.6,210819,017.7,E*64
01DD98,022577,00C4EF,$GPRMC,210806,A,5442.9386,N,11318.4632,W,000.0,228.6,210819,017.7,E*6F
01DD94,022573,00C4ED,$GPRMC,210807,A,5442.9384,N,11318.4639,W,000.0,228.6,210819,017.7,E*67
01DD97,022576,00C4F0,$GPRMC,210808,A,5442.9382,N,11318.4644,W,000.0,228.6,210819,017.7,E*64
01DD95,022578,00C4F1,$GPRMC,210809,A,5442.9382,N,11318.4642,W,000.0,228.6,210819,017.7,E*63
01DD96,02257A,00C4F2,$GPRMC,210810,A,5442.9383,N,11318.4636,W,000.0,228.6,210819,017.7,E*69
01DD91,022574,00C4EF,$GPRMC,210811,A,5442.9382,N,11318.4632,W,000.0,228.6,210819,017.7,E*6D
01DD98,02257E,00C4F3,$GPRMC,210812,A,5442.9381,N,11318.4630,W,000.0,228.6,210819,017.7,E*6F
01DD95,02257A,00C4F1,$GPRMC,210813,A,5442.9381,N,11318.4625,W,000.0,228.6,210819,017.7,E*6A
01DD95,02257A,00C4F1,$GPRMC,210814,A,5442.9380,N,11318.4627,W,000.0,228.6,210819,017.7,E*6E
01DD97,02257D,00C4F2,$GPRMC,210815,A,5442.9379,N,11318.4625,W,000.0,228.6,210819,017.7,E*6B
01DD94,022577,00C4F0,$GPRMC,210816,A,5442.9379,N,11318.4623,W,000.0,228.6,210819,017.7,E*6E
01DD95,02257A,00C4F1,$GPRMC,210817,A,5442.9378,N,11318.4623,W,000.0,228.6,210819,017.7,E*6E
01DD96,02257C,00C4F2,$GPRMC,210818,A,5442.9377,N,11318.4623,W,000.0,228.6,210819,017.7,E*6E
01DD94,022577,00C4F0,$GPRMC,210819,A,5442.9376,N,11318.4624,W,000.0,228.6,210819,017.7,E*69
01DD92,022576,00C4F0,$GPRMC,210820,A,5442.9374,N,11318.4626,W,000.0,228.6,210819,017.7,E*63
01DD9A,022581,00C4F3,$GPRMC,210821,A,5442.9374,N,11318.4626,W,000.0,228.6,210819,017.7,E*62
01DD95,02257A,00C4F1,$GPRMC,210822,A,5442.9373,N,11318.4628,W,000.0,228.6,210819,017.7,E*68
01DD93,022579,00C4F0,$GPRMC,210823,A,5442.9372,N,11318.4627,W,000.0,228.6,210819,017.7,E*67
01DD9C,022585,00C4F5,$GPRMC,210824,A,5442.9371,N,11318.4626,W,000.0,228.6,210819,017.7,E*62
01DD97,02257F,00C4F3,$GPRMC,210825,A,5442.9371,N,11318.4625,W,000.0,228.6,210819,017.7,E*60
01DD96,02257D,00C4F2,$GPRMC,210826,A,5442.9370,N,11318.4622,W,000.0,228.6,210819,017.7,E*65
01DD96,02257E,00C4F2,$GPRMC,210827,A,5442.9370,N,11318.4619,W,000.0,228.6,210819,017.7,E*6C
01DD93,022579,00C4F1,$GPRMC,210828,A,5442.9371,N,11318.4616,W,000.0,228.6,210819,017.7,E*6D
01DD98,022581,00C4F3,$GPRMC,210829,A,5442.9371,N,11318.4612,W,000.0,228.6,210819,017.7,E*68
01DD98,022580,00C4F3,$GPRMC,210830,A,5442.9371,N,11318.4609,W,000.0,228.6,210819,017.7,E*6A
01DD95,02257B,00C4F2,$GPRMC,210831,A,5442.9371,N,11318.4608,W,000.0,228.6,210819,017.7,E*6A
01DD95,02257B,00C4F2,$GPRMC,210832,A,5442.9371,N,11318.4608,W,000.0,228.6,210819,017.7,E*69
01DD97,02257D,00C4F2,$GPRMC,210833,A,5442.9371,N,11318.4607,W,000.0,228.6,210819,017.7,E*67
01DD96,02257B,00C4F2,$GPRMC,210834,A,5442.9371,N,11318.4604,W,000.0,228.6,210819,017.7,E*63
01DD93,022577,00C4F0,$GPRMC,210835,A,5442.9371,N,11318.4601,W,000.0,228.6,210819,017.7,E*67
01DD96,02257B,00C4F2,$GPRMC,210836,A,5442.9372,N,11318.4597,W,000.0,228.6,210819,017.7,E*6B
01DD98,02257D,00C4F3,$GPRMC,210837,A,5442.9372,N,11318.4592,W,000.0,228.6,210819,017.7,E*6F
01DD95,02257A,00C4F2,$GPRMC,210838,A,5442.9373,N,11318.4593,W,000.0,228.6,210819,017.7,E*60
01DD96,02257A,00C4F2,$GPRMC,210839,A,5442.9376,N,11318.4591,W,000.0,228.6,210819,017.7,E*66
01DD9A,02257F,00C4F5,$GPRMC,210840,A,5442.9377,N,11318.4590,W,000.0,228.6,210819,017.7,E*68
01DD97,02257D,00C4F3,$GPRMC,210841,A,5442.9379,N,11318.4588,W,000.0,228.6,210819,017.7,E*6E
01DD9A,022580,00C4F4,$GPRMC,210842,A,5442.9380,N,11318.4591,W,000.0,228.6,210819,017.7,E*63
01DD96,022579,00C4F2,$GPRMC,210843,A,5442.9380,N,11318.4593,W,000.0,228.6,210819,017.7,E*60
01DD99,02257F,00C4F5,$GPRMC,210844,A,5442.9380,N,11318.4595,W,000.0,228.6,210819,017.7,E*61
01DD94,02257B,00C4F3,$GPRMC,210845,A,5442.9380,N,11318.4598,W,000.0,228.6,210819,017.7,E*6D
01DD97,02257F,00C4F4,$GPRMC,210846,A,5442.9380,N,11318.4599,W,000.0,228.6,210819,017.7,E*6F
01DD97,02257F,00C4F4,$GPRMC,210847,A,5442.9380,N,11318.4601,W,000.0,228.6,210819,017.7,E*6C
01DD9A,022584,00C4F6,$GPRMC,210848,A,5442.9379,N,11318.4604,W,000.0,228.6,210819,017.7,E*60
01DD95,02257C,00C4F3,$GPRMC,210849,A,5442.9379,N,11318.4607,W,000.0,228.6,210819,017.7,E*62
01DD98,022583,00C4F5,$GPRMC,210850,A,5442.9379,N,11318.4606,W,000.0,228.6,210819,017.7,E*6B
01DD98,022581,00C4F4,$GPRMC,210851,A,5442.9380,N,11318.4606,W,000.0,228.6,210819,017.7,E*6C
01DD98,022581,00C4F4,$GPRMC,210852,A,5442.9381,N,11318.4607,W,000.0,228.6,210819,017.7,E*6F
01DD95,02257D,00C4F1,$GPRMC,210853,A,5442.9380,N,11318.4611,W,000.0,228.6,210819,017.7,E*68
01DD91,02257A,00C4F0,$GPRMC,210854,A,5442.9379,N,11318.4614,W,000.0,228.6,210819,017.7,E*6C
01DD98,022582,00C4F4,$GPRMC,210855,A,5442.9380,N,11318.4614,W,000.0,228.6,210819,017.7,E*6B
01DD97,022581,00C4F4,$GPRMC,210856,A,5442.9381,N,11318.4614,W,000.0,228.6,210819,017.7,E*69
01DD94,02257D,00C4F1,$GPRMC,210857,A,5442.9382,N,11318.4613,W,000.0,228.6,210819,017.7,E*6C
01DD9B,022587,00C4F6,$GPRMC,210858,A,5442.9383,N,11318.4613,W,000.0,228.6,210819,017.7,E*62
01DD97,022581,00C4F3,$GPRMC,210859,A,5442.9382,N,11318.4614,W,000.0,228.6,210819,017.7,E*65
01DD97,022581,00C4F4,$GPRMC,210900,A,5442.9381,N,11318.4619,W,000.0,228.6,210819,017.7,E*66
01DD97,022581,00C4F3,$GPRMC,210901,A,5442.9380,N,11318.4620,W,000.0,228.6,210819,017.7,E*6C
01DD99,022585,00C4F4,$GPRMC,210902,A,5442.9379,N,11318.4625,W,000.0,228.6,210819,017.7,E*6C
01DD98,022583,00C4F3,$GPRMC,210903,A,5442.9379,N,11318.4625,W,000.0,228.6,210819,017.7,E*6D
01DD9A,022585,00C4F5,$GPRMC,210904,A,5442.9378,N,11318.4630,W,000.0,228.6,210819,017.7,E*6F
01DD99,022584,00C4F4,$GPRMC,210905,A,5442.9376,N,11318.4635,W,000.0,228.6,210819,017.7,E*65
01DD96,02257E,00C4F2,$GPRMC,210906,A,5442.9377,N,11318.4636,W,000.0,228.6,210819,017.7,E*64
01DD96,02257F,00C4F2,$GPRMC,210907,A,5442.9377,N,11318.4638,W,000.0,228.6,210819,017.7,E*6B
01DD95,02257D,00C4F1,$GPRMC,210908,A,5442.9377,N,11318.4639,W,000.0,228.6,210819,017.7,E*65
01DD9B,022585,00C4F4,$GPRMC,210909,A,5442.9377,N,11318.4641,W,000.0,228.6,210819,017.7,E*6B
01DD98,022580,00C4F3,$GPRMC,210910,A,5442.9379,N,11318.4641,W,000.0,228.6,210819,017.7,E*6D
01DD9B,022584,00C4F4,$GPRMC,210911,A,5442.9380,N,11318.4641,W,000.0,228.6,210819,017.7,E*6A
01DD9C,022587,00C4F6,$GPRMC,210912,A,5442.9381,N,11318.4641,W,000.0,228.6,210819,017.7,E*68
01DD9B,022586,00C4F5,$GPRMC,210913,A,5442.9382,N,11318.4641,W,000.0,228.6,210819,017.7,E*6A
01DD98,022582,00C4F3,$GPRMC,210914,A,5442.9383,N,11318.4640,W,000.0,228.6,210819,017.7,E*6D
01DD9A,022584,00C4F5,$GPRMC,210915,A,5442.9385,N,11318.4639,W,000.0,228.6,210819,017.7,E*64
01DD99,022583,00C4F4,$GPRMC,210916,A,5442.9387,N,11318.4638,W,000.0,228.6,210819,017.7,E*64
01DD98,022580,00C4F3,$GPRMC,210917,A,5442.9388,N,11318.4638,W,000.0,228.6,210819,017.7,E*6A
01DD99,022581,00C4F3,$GPRMC,210918,A,5442.9392,N,11318.4633,W,000.0,228.6,210819,017.7,E*65
01DD96,02257E,00C4F2,$GPRMC,210919,A,5442.9393,N,11318.4634,W,000.0,228.6,210819,017.7,E*62
01DD99,022581,00C4F3,$GPRMC,210920,A,5442.9393,N,11318.4635,W,000.0,228.6,210819,017.7,E*69
01DD98,02257F,00C4F3,$GPRMC,210921,A,5442.9390,N,11318.4642,W,000.0,228.6,210819,017.7,E*6B
01DD98,02257F,00C4F3,$GPRMC,210922,A,5442.9390,N,11318.4642,W,000.0,228.6,210819,017.7,E*68
01DD9A,022581,00C4F4,$GPRMC,210923,A,5442.9391,N,11318.4643,W,000.0,228.6,210819,017.7,E*69
01DD97,02257D,00C4F2,$GPRMC,210924,A,5442.9393,N,11318.4644,W,000.0,228.6,210819,017.7,E*6B
01DD98,02257F,00C4F2,$GPRMC,210925,A,5442.9393,N,11318.4646,W,000.0,228.6,210819,017.7,E*68
01DD94,022579,00C4F0,$GPRMC,210926,A,5442.9393,N,11318.4646,W,000.0,228.6,210819,017.7,E*6B
01DD99,022580,00C4F3,$GPRMC,210927,A,5442.9392,N,11318.4649,W,000.0,228.6,210819,017.7,E*64
01DD94,022579,00C4F0,$GPRMC,210928,A,5442.9391,N,11318.4652,W,000.0,228.6,210819,017.7,E*62
01DD9A,022580,00C4F3,$GPRMC,210929,A,5442.9391,N,11318.4655,W,000.0,228.6,210819,017.7,E*64
01DD9C,022582,00C4F3,$GPRMC,210930,A,5442.9390,N,11318.4659,W,000.0,228.6,210819,017.7,E*61
01DD9C,022584,00C4F4,$GPRMC,210931,A,5442.9391,N,11318.4659,W,000.0,228.6,210819,017.7,E*61
01DD9C,022582,00C4F3,$GPRMC,210932,A,5442.9391,N,11318.4659,W,000.0,228.6,210819,017.7,E*62
01DD96,02257A,00C4F0,$GPRMC,210933,A,5442.9389,N,11318.4662,W,000.0,228.6,210819,017.7,E*62
01DD9B,022582,00C4F3,$GPRMC,210934,A,5442.9390,N,11318.4661,W,000.0,228.6,210819,017.7,E*6E
01DD9B,022582,00C4F3,$GPRMC,210935,A,5442.9390,N,11318.4661,W,000.0,228.6,210819,017.7,E*6F
01DD9B,022580,00C4F2,$GPRMC,210936,A,5442.9390,N,11318.4662,W,000.0,228.6,210819,017.7,E*6F
01DD97,02257A,00C4F0,$GPRMC,210937,A,5442.9389,N,11318.4662,W,000.0,228.6,210819,017.7,E*66
01DD9A,022580,00C4F2,$GPRMC,210938,A,5442.9390,N,11318.4661,W,000.0,228.6,210819,017.7,E*62
01DD99,02257F,00C4F1,$GPRMC,210939,A,5442.9390,N,11318.4661,W,000.0,228.6,210819,017.7,E*63
01DD99,02257D,00C4F0,$GPRMC,210940,A,5442.9391,N,11318.4661,W,000.0,228.6,210819,017.7,E*6C
01DD9A,02257F,00C4F1,$GPRMC,210941,A,5442.9391,N,11318.4661,W,000.0,228.6,210819,017.7,E*6D
01DD9D,022583,00C4F3,$GPRMC,210942,A,5442.9391,N,11318.4661,W,000.0,228.6,210819,017.7,E*6E
01DD9A,02257E,00C4F1,$GPRMC,210943,A,5442.9392,N,11318.4661,W,000.0,228.6,210819,017.7,E*6C
01DD9B,022580,00C4F1,$GPRMC,210944,A,5442.9392,N,11318.4660,W,000.0,228.6,210819,017.7,E*6A
01DD9E,022584,00C4F3,$GPRMC,210945,A,5442.9392,N,11318.4660,W,000.0,228.6,210819,017.7,E*6B
01DD9B,022581,00C4F2,$GPRMC,210946,A,5442.9394,N,11318.4659,W,000.0,228.6,210819,017.7,E*64
01DDA0,022588,00C4F6,$GPRMC,210947,A,5442.9394,N,11318.4657,W,000.0,228.6,210819,017.7,E*6B
01DD9B,02257F,00C4F2,$GPRMC,210948,A,5442.9395,N,11318.4655,W,000.0,228.6,210819,017.7,E*67
01DD9F,022585,00C4F5,$GPRMC,210949,A,5442.9395,N,11318.4654,W,000.0,228.6,210819,017.7,E*67
01DD9F,022587,00C4F5,$GPRMC,210950,A,5442.9396,N,11318.4652,W,000.0,228.6,210819,017.7,E*6A
01DD9F,022585,00C4F5,$GPRMC,210951,A,5442.9397,N,11318.4651,W,000.0,228.6,210819,017.7,E*69
01DDA1,022589,00C4F6,$GPRMC,210952,A,5442.9398,N,11318.4649,W,000.0,228.6,210819,017.7,E*6C
01DD9F,022587,00C4F5,$GPRMC,210953,A,5442.9398,N,11318.4649,W,000.0,228.6,210819,017.7,E*6D
01DDA4,02258E,00C4F8,$GPRMC,210954,A,5442.9398,N,11318.4649,W,000.0,228.6,210819,017.7,E*6A
01DD9E,022585,00C4F4,$GPRMC,210955,A,5442.9398,N,11318.4649,W,000.0,228.6,210819,017.7,E*6B
01DDA1,02258A,00C4F6,$GPRMC,210956,A,5442.9399,N,11318.4648,W,000.0,228.6,210819,017.7,E*68
01DDA0,022588,00C4F5,$GPRMC,210957,A,5442.9398,N,11318.4649,W,000.0,228.6,210819,017.7,E*69
01DDA1,022589,00C4F6,$GPRMC,210958,A,5442.9399,N,11318.4648,W,000.0,228.6,210819,017.7,E*66
01DDA1,022589,00C4F6,$GPRMC,210959,A,5442.9400,N,11318.4647,W,000.0,228.6,210819,017.7,E*6F
01DDA2,02258A,00C4F6,$GPRMC,211000,A,5442.9401,N,11318.4647,W,000.0,228.6,210819,017.7,E*6A
01DD9E,022584,00C4F4,$GPRMC,211001,A,5442.9403,N,11318.4645,W,000.0,228.6,210819,017.7,E*6B
01DD9E,022585,00C4F4,$GPRMC,211002,A,5442.9405,N,11318.4644,W,000.0,228.6,210819,017.7,E*6F
01DD9F,022585,00C4F5,$GPRMC,211003,A,5442.9407,N,11318.4643,W,000.0,228.6,210819,017.7,E*6B
01DD9F,022585,00C4F7,$GPRMC,211004,A,5442.9409,N,11318.4642,W,000.0,228.6,210819,017.7,E*63
01DDA0,022585,00C4F6,$GPRMC,211005,A,5442.9410,N,11318.4643,W,000.0,228.6,210819,017.7,E*6B
01DD9D,022583,00C4F6,$GPRMC,211006,A,5442.9411,N,11318.4643,W,000.0,228.6,210819,017.7,E*69
01DD9F,022583,00C4F6,$GPRMC,211007,A,5442.9413,N,11318.4643,W,000.0,228.6,210819,017.7,E*6A
01DDA1,022588,00C4F8,$GPRMC,211008,A,5442.9414,N,11318.4643,W,000.0,228.6,210819,017.7,E*62
01DDA1,022587,00C4F7,$GPRMC,211009,A,5442.9415,N,11318.4643,W,000.0,228.6,210819,017.7,E*62
01DDA2,02258B,00C4FA,$GPRMC,211010,A,5442.9416,N,11318.4643,W,000.0,228.6,210819,017.7,E*69
01DD9F,022585,00C4F7,$GPRMC,211011,A,5442.9416,N,11318.4643,W,000.0,228.6,210819,017.7,E*68
01DDA2,02258A,00C4F8,$GPRMC,211012,A,5442.9417,N,11318.4643,W,000.0,228.6,210819,017.7,E*6A
01DDA1,022588,00C4F8,$GPRMC,211013,A,5442.9417,N,11318.4643,W,000.0,228.6,210819,017.7,E*6B
01DDA2,02258A,00C4F9,$GPRMC,211014,A,5442.9418,N,11318.4643,W,000.0,228.6,210819,017.7,E*63
01DDA2,02258A,00C4F9,$GPRMC,211015,A,5442.9418,N,11318.4644,W,000.0,228.6,210819,017.7,E*65
01DDA0,022586,00C4F7,$GPRMC,211016,A,5442.9419,N,11318.4644,W,000.0,228.6,210819,017.7,E*67
01DD9A,022580,00C4F4,$GPRMC,211017,A,5442.9419,N,11318.4644,W,000.0,228.6,210819,017.7,E*66
01DD9E,022584,00C4F7,$GPRMC,211018,A,5442.9418,N,11318.4645,W,000.0,228.6,210819,017.7,E*69
01DD9E,022584,00C4F7,$GPRMC,211019,A,5442.9418,N,11318.4645,W,000.0,228.6,210819,017.7,E*68
01DD9F,022586,00C4F7,$GPRMC,211020,A,5442.9419,N,11318.4645,W,000.0,228.6,210819,017.7,E*63
01DD9A,022580,00C4F4,$GPRMC,211021,A,5442.9419,N,11318.4645,W,000.0,228.6,210819,017.7,E*62
01DDA2,02258B,00C4F9,$GPRMC,211022,A,5442.9419,N,11318.4645,W,000.0,228.6,210819,017.7,E*61
01DDA0,022588,00C4F7,$GPRMC,211023,A,5442.9418,N,11318.4645,W,000.0,228.6,210819,017.7,E*61
01DD9E,022585,00C4F5,$GPRMC,211024,A,5442.9419,N,11318.4644,W,000.0,228.6,210819,017.7,E*66
01DD9C,022582,00C4F5,$GPRMC,211025,A,5442.9419,N,11318.4644,W,000.0,228.6,210819,017.7,E*67
01DD9F,022588,00C4F7,$GPRMC,211026,A,5442.9419,N,11318.4644,W,000.0,228.6,210819,017.7,E*64
01DD9E,022586,00C4F6,$GPRMC,211027,A,5442.9418,N,11318.4644,W,000.0,228.6,210819,017.7,E*64
01DDA2,02258C,00C4F8,$GPRMC,211028,A,5442.9418,N,11318.4644,W,000.0,228.6,210819,017.7,E*6B
01DD9F,022588,00C4F7,$GPRMC,211029,A,5442.9418,N,11318.4643,W,000.0,228.6,210819,017.7,E*6D
01DDA1,022589,00C4F7,$GPRMC,211030,A,5442.9417,N,11318.4643,W,000.0,228.6,210819,017.7,E*6A
01DD9E,022584,00C4F4,$GPRMC,211031,A,5442.9417,N,11318.4642,W,000.0,228.6,210819,017.7,E*6A
01DD9F,022586,00C4F4,$GPRMC,211032,A,5442.9417,N,11318.4642,W,000.0,228.6,210819,017.7,E*69
01DDA0,022589,00C4F5,$GPRMC,211033,A,5442.9417,N,11318.4641,W,000.0,228.6,210819,017.7,E*6B
01DD9F,022586,00C4F4,$GPRMC,211034,A,5442.9416,N,11318.4640,W,000.0,228.6,210819,017.7,E*6C
01DD9D,022583,00C4F3,$GPRMC,211035,A,5442.9417,N,11318.4638,W,000.0,228.6,210819,017.7,E*63
01DD9C,022581,00C4F2,$GPRMC,211036,A,5442.9419,N,11318.4634,W,000.0,228.6,210819,017.7,E*62
01DD9F,022588,00C4F5,$GPRMC,211037,A,5442.9419,N,11318.4633,W,000.0,228.6,210819,017.7,E*64
01DDA1,022588,00C4F6,$GPRMC,211038,A,5442.9418,N,11318.4633,W,000.0,228.6,210819,017.7,E*6A
01DDA0,022587,00C4F5,$GPRMC,211039,A,5442.9418,N,11318.4632,W,000.0,228.6,210819,017.7,E*6A
01DDA0,022587,00C4F5,$GPRMC,211040,A,5442.9418,N,11318.4631,W,000.0,228.6,210819,017.7,E*67
01DDA0,022589,00C4F6,$GPRMC,211041,A,5442.9418,N,11318.4629,W,000.0,228.6,210819,017.7,E*6F
01DDA0,022589,00C4F6,$GPRMC,211042,A,5442.9419,N,11318.4628,W,000.0,228.6,210819,017.7,E*6C
01DD9D,022587,00C4F6,$GPRMC,211043,A,5442.9419,N,11318.4626,W,000.0,228.6,210819,017.7,E*63
01DD9F,022588,00C4F5,$GPRMC,211044,A,5442.9419,N,11318.4625,W,000.0,228.6,210819,017.7,E*67
01DD9B,022583,00C4F3,$GPRMC,211045,A,5442.9419,N,11318.4623,W,000.0,228.6,210819,017.7,E*60
01DD9F,022588,00C4F6,$GPRMC,211046,A,5442.9420,N,11318.4623,W,000.0,228.6,210819,017.7,E*69
