01DE6F,022719,00C520,$GPRMC,145944,A,5442.9306,N,11318.4675,W,000.0,311.6,220819,017.7,E*68
01DE71,02271C,00C521,$GPRMC,145945,A,5442.9307,N,11318.4672,W,000.0,311.6,220819,017.7,E*6F
01DE70,02271B,00C521,$GPRMC,145946,A,5442.9308,N,11318.4668,W,000.0,311.6,220819,017.7,E*68
01DE70,02271C,00C521,$GPRMC,145947,A,5442.9309,N,11318.4664,W,000.0,311.6,220819,017.7,E*64
01DE6E,02271A,00C520,$GPRMC,145948,A,5442.9309,N,11318.4661,W,000.0,311.6,220819,017.7,E*6E
01DE6F,02271C,00C521,$GPRMC,145949,A,5442.9310,N,11318.4657,W,000.0,311.6,220819,017.7,E*62
01DE6F,02271F,00C522,$GPRMC,145950,A,5442.9311,N,11318.4654,W,000.0,311.6,220819,017.7,E*68
01DE6C,02271B,00C520,$GPRMC,145951,A,5442.9311,N,11318.4650,W,000.0,311.6,220819,017.7,E*6D
01DE6D,02271E,00C521,$GPRMC,145952,A,5442.9312,N,11318.4647,W,000.0,311.6,220819,017.7,E*6B
01DE6A,022718,00C51E,$GPRMC,145953,A,5442.9312,N,11318.4644,W,000.0,311.6,220819,017.7,E*69
01DE6B,022719,00C51E,$GPRMC,145954,A,5442.9312,N,11318.4640,W,000.0,311.6,220819,017.7,E*6A
01DE6F,02271F,00C521,$GPRMC,145955,A,5442.9312,N,11318.4637,W,000.0,311.6,220819,017.7,E*6B
01DE6F,02271E,00C521,$GPRMC,145956,A,5442.9312,N,11318.4634,W,000.0,311.6,220819,017.7,E*6B
01DE6E,02271E,00C521,$GPRMC,145957,A,5442.9311,N,11318.4630,W,000.0,311.6,220819,017.7,E*6D
01DE6B,02271A,00C51F,$GPRMC,145958,A,5442.9311,N,11318.4627,W,000.0,311.6,220819,017.7,E*64
01DE6C,02271C,00C521,$GPRMC,145959,A,5442.9311,N,11318.4624,W,000.0,311.6,220819,017.7,E*66
01DE6F,02271F,00C521,$GPRMC,150000,A,5442.9311,N,11318.4620,W,000.0,311.6,220819,017.7,E*63
01DE6B,02271D,00C520,$GPRMC,150001,A,5442.9311,N,11318.4617,W,000.0,311.6,220819,017.7,E*66
01DE6B,02271F,00C521,$GPRMC,150002,A,5442.9311,N,11318.4613,W,000.0,311.6,220819,017.7,E*61
01DE6A,02271F,00C521,$GPRMC,150003,A,5442.9311,N,11318.4610,W,000.0,311.6,220819,017.7,E*63
01DE65,02271A,00C51F,$GPRMC,150004,A,5442.9310,N,11318.4612,W,000.0,311.6,220819,017.7,E*67
01DE62,022717,00C51C,$GPRMC,150005,A,5442.9309,N,11318.4613,W,000.0,311.6,220819,017.7,E*6F
01DE64,022719,00C51D,$GPRMC,150006,A,5442.9308,N,11318.4615,W,000.0,311.6,220819,017.7,E*6B
01DE69,02271F,00C51F,$GPRMC,150007,A,5442.9308,N,11318.4612,W,000.0,311.6,220819,017.7,E*6D
01DE67,02271E,00C51E,$GPRMC,150008,A,5442.9310,N,11318.4613,W,000.0,311.6,220819,017.7,E*6A
01DE68,02271F,00C51F,$GPRMC,150009,A,5442.9311,N,11318.4609,W,000.0,311.6,220819,017.7,E*61
01DE68,02271F,00C51E,$GPRMC,150010,A,5442.9312,N,11318.4605,W,000.0,311.6,220819,017.7,E*66
01DE66,02271E,00C51D,$GPRMC,150011,A,5442.9312,N,11318.4606,W,000.0,311.6,220819,017.7,E*64
01DE6A,022724,00C520,$GPRMC,150012,A,5442.9313,N,11318.4603,W,000.0,311.6,220819,017.7,E*63
01DE67,02271E,00C51E,$GPRMC,150013,A,5442.9312,N,11318.4604,W,000.0,311.6,220819,017.7,E*64
01DE68,022722,00C520,$GPRMC,150014,A,5442.9310,N,11318.4604,W,000.0,311.6,220819,017.7,E*61
01DE63,02271D,00C51D,$GPRMC,150015,A,5442.9306,N,11318.4605,W,000.0,311.6,220819,017.7,E*66
01DE65,022722,00C520,$GPRMC,150016,A,5442.9304,N,11318.4606,W,000.0,311.6,220819,017.7,E*64
01DE62,02271F,00C51D,$GPRMC,150017,A,5442.9301,N,11318.4608,W,000.0,311.6,220819,017.7,E*6E
01DE64,022726,00C51F,$GPRMC,150018,A,5442.9297,N,11318.4609,W,000.0,311.6,220819,017.7,E*6E
01DE63,022725,00C51F,$GPRMC,150019,A,5442.9294,N,11318.4611,W,000.0,311.6,220819,017.7,E*65
01DE61,022723,00C51F,$GPRMC,150020,A,5442.9291,N,11318.4612,W,000.0,311.6,220819,017.7,E*69
01DE60,022723,00C51E,$GPRMC,150021,A,5442.9288,N,11318.4613,W,000.0,311.6,220819,017.7,E*61
01DE5E,022720,00C51D,$GPRMC,150022,A,5442.9286,N,11318.4614,W,000.0,311.6,220819,017.7,E*6B
01DE64,022729,00C520,$GPRMC,150023,A,5442.9286,N,11318.4615,W,000.0,311.6,220819,017.7,E*6B
01DE5D,02271F,00C51C,$GPRMC,150024,A,5442.9287,N,11318.4616,W,000.0,311.6,220819,017.7,E*6E
01DE5F,022722,00C51D,$GPRMC,150025,A,5442.9289,N,11318.4617,W,000.0,311.6,220819,017.7,E*60
01DE63,022725,00C51E,$GPRMC,150026,A,5442.9292,N,11318.4618,W,000.0,311.6,220819,017.7,E*66
01DE64,022727,00C51E,$GPRMC,150027,A,5442.9296,N,11318.4619,W,000.0,311.6,220819,017.7,E*62
01DE63,022722,00C51D,$GPRMC,150028,A,5442.9301,N,11318.4619,W,000.0,311.6,220819,017.7,E*62
01DE66,022725,00C51E,$GPRMC,150029,A,5442.9306,N,11318.4620,W,000.0,311.6,220819,017.7,E*6E
01DE68,022726,00C51F,$GPRMC,150030,A,5442.9312,N,11318.4621,W,000.0,311.6,220819,017.7,E*62
01DE6C,02272A,00C520,$GPRMC,150031,A,5442.9318,N,11318.4622,W,000.0,311.6,220819,017.7,E*6A
01DE69,022724,00C51E,$GPRMC,150032,A,5442.9325,N,11318.4623,W,000.0,311.6,220819,017.7,E*66
01DE6D,022729,00C520,$GPRMC,150033,A,5442.9332,N,11318.4624,W,000.0,311.6,220819,017.7,E*66
01DE6B,022724,00C51E,$GPRMC,150034,A,5442.9339,N,11318.4625,W,000.0,311.6,220819,017.7,E*6B
01DE6F,02272A,00C520,$GPRMC,150035,A,5442.9346,N,11318.4626,W,000.0,311.6,220819,017.7,E*61
01DE6A,022723,00C51D,$GPRMC,150036,A,5442.9353,N,11318.4626,W,000.0,311.6,220819,017.7,E*66
01DE6C,022727,00C51F,$GPRMC,150037,A,5442.9360,N,11318.4627,W,000.0,311.6,220819,017.7,E*66
01DE6D,022728,00C520,$GPRMC,150038,A,5442.9366,N,11318.4627,W,000.0,311.6,220819,017.7,E*6F
01DE6E,022728,00C520,$GPRMC,150039,A,5442.9372,N,11318.4628,W,000.0,311.6,220819,017.7,E*64
01DE6F,02272A,00C521,$GPRMC,150040,A,5442.9378,N,11318.4628,W,000.0,311.6,220819,017.7,E*60
01DE6D,022728,00C520,$GPRMC,150041,A,5442.9383,N,11318.4629,W,000.0,311.6,220819,017.7,E*64
01DE6E,022727,00C520,$GPRMC,150042,A,5442.9387,N,11318.4629,W,000.0,311.6,220819,017.7,E*63
01DE6E,022728,00C520,$GPRMC,150043,A,5442.9391,N,11318.4630,W,000.0,311.6,220819,017.7,E*6D
01DE6E,022728,00C520,$GPRMC,150044,A,5442.9394,N,11318.4630,W,000.0,311.6,220819,017.7,E*6F
01DE70,022728,00C520,$GPRMC,150045,A,5442.9397,N,11318.4630,W,000.0,311.6,220819,017.7,E*6D
01DE71,022727,00C520,$GPRMC,150046,A,5442.9400,N,11318.4630,W,000.0,311.6,220819,017.7,E*67
01DE6F,022725,00C51F,$GPRMC,150047,A,5442.9402,N,11318.4630,W,000.0,311.6,220819,017.7,E*64
01DE70,022722,00C51E,$GPRMC,150048,A,5442.9404,N,11318.4630,W,000.0,311.6,220819,017.7,E*6D
01DE74,022727,00C520,$GPRMC,150049,A,5442.9405,N,11318.4631,W,000.0,311.6,220819,017.7,E*6C
01DE71,022723,00C51F,$GPRMC,150050,A,5442.9407,N,11318.4631,W,000.0,311.6,220819,017.7,E*66
01DE75,022726,00C521,$GPRMC,150051,A,5442.9409,N,11318.4632,W,000.0,311.6,220819,017.7,E*6A
01DE73,022724,00C520,$GPRMC,150052,A,5442.9410,N,11318.4632,W,000.0,311.6,220819,017.7,E*61
01DE74,022723,00C520,$GPRMC,150053,A,5442.9410,N,11318.4633,W,000.0,311.6,220819,017.7,E*61
01DE75,022724,00C520,$GPRMC,150054,A,5442.9411,N,11318.4633,W,000.0,311.6,220819,017.7,E*67
01DE73,022722,00C51F,$GPRMC,150055,A,5442.9412,N,11318.4634,W,000.0,311.6,220819,017.7,E*62
01DE78,022727,00C522,$GPRMC,150056,A,5442.9412,N,11318.4635,W,000.0,311.6,220819,017.7,E*60
01DE75,022723,00C520,$GPRMC,150057,A,5442.9412,N,11318.4635,W,000.0,311.6,220819,017.7,E*61
01DE75,022724,00C51F,$GPRMC,150058,A,5442.9413,N,11318.4636,W,000.0,311.6,220819,017.7,E*6C
01DE78,022725,00C521,$GPRMC,150059,A,5442.9412,N,11318.4637,W,000.0,311.6,220819,017.7,E*6D
01DE77,022724,00C520,$GPRMC,150100,A,5442.9412,N,11318.4638,W,000.0,311.6,220819,017.7,E*6F
01DE74,022720,00C51E,$GPRMC,150101,A,5442.9412,N,11318.4639,W,000.0,311.6,220819,017.7,E*6F
01DE79,022726,00C521,$GPRMC,150102,A,5442.9412,N,11318.4639,W,000.0,311.6,220819,017.7,E*6C
01DE77,022723,00C520,$GPRMC,150103,A,5442.9413,N,11318.4640,W,000.0,311.6,220819,017.7,E*62
01DE75,022721,00C51E,$GPRMC,150104,A,5442.9413,N,11318.4641,W,000.0,311.6,220819,017.7,E*64
01DE76,022721,00C51F,$GPRMC,150105,A,5442.9414,N,11318.4642,W,000.0,311.6,220819,017.7,E*61
01DE78,022724,00C520,$GPRMC,150106,A,5442.9414,N,11318.4643,W,000.0,311.6,220819,017.7,E*63
01DE78,022723,00C520,$GPRMC,150107,A,5442.9415,N,11318.4644,W,000.0,311.6,220819,017.7,E*64
01DE75,02271F,00C51F,$GPRMC,150108,A,5442.9417,N,11318.4645,W,000.0,311.6,220819,017.7,E*68
01DE77,022721,00C520,$GPRMC,150109,A,5442.9420,N,11318.4646,W,000.0,311.6,220819,017.7,E*6E
01DE79,022724,00C522,$GPRMC,150110,A,5442.9423,N,11318.4646,W,000.0,311.6,220819,017.7,E*65
01DE77,02271B,00C51F,$GPRMC,150111,A,5442.9427,N,11318.4646,W,000.0,311.6,220819,017.7,E*60
01DE79,022715,00C51D,$GPRMC,150112,A,5442.9430,N,11318.4646,W,000.0,311.6,220819,017.7,E*65
01DE79,02271A,00C51F,$GPRMC,150113,A,5442.9433,N,11318.4646,W,000.0,311.6,220819,017.7,E*67
01DE78,02271C,00C51F,$GPRMC,150114,A,5442.9436,N,11318.4646,W,000.0,311.6,220819,017.7,E*65
01DE76,02271C,00C51F,$GPRMC,150115,A,5442.9439,N,11318.4646,W,000.0,311.6,220819,017.7,E*6B
01DE77,02271E,00C520,$GPRMC,150116,A,5442.9441,N,11318.4645,W,000.0,311.6,220819,017.7,E*64
01DE76,022720,00C521,$GPRMC,150117,A,5442.9444,N,11318.4645,W,000.0,311.6,220819,017.7,E*60
01DE76,02271F,00C521,$GPRMC,150118,A,5442.9446,N,11318.4644,W,000.0,311.6,220819,017.7,E*6C
01DE74,02271C,00C51F,$GPRMC,150119,A,5442.9449,N,11318.4642,W,000.0,311.6,220819,017.7,E*64
01DE74,02271C,00C51F,$GPRMC,150120,A,5442.9451,N,11318.4641,W,000.0,311.6,220819,017.7,E*64
01DE75,022720,00C521,$GPRMC,150121,A,5442.9453,N,11318.4640,W,000.0,311.6,220819,017.7,E*66
01DE74,022720,00C521,$GPRMC,150122,A,5442.9455,N,11318.4639,W,000.0,311.6,220819,017.7,E*6D
01DE76,022722,00C522,$GPRMC,150123,A,5442.9457,N,11318.4638,W,000.0,311.6,220819,017.7,E*6F
01DE75,022720,00C520,$GPRMC,150124,A,5442.9459,N,11318.4638,W,000.0,311.6,220819,017.7,E*66
01DE73,022720,00C520,$GPRMC,150125,A,5442.9461,N,11318.4638,W,000.0,311.6,220819,017.7,E*6C
01DE72,02271E,00C51F,$GPRMC,150126,A,5442.9462,N,11318.4638,W,000.0,311.6,220819,017.7,E*6C
01DE74,022722,00C521,$GPRMC,150127,A,5442.9463,N,11318.4638,W,000.0,311.6,220819,017.7,E*6C
01DE73,022721,00C521,$GPRMC,150128,A,5442.9463,N,11318.4638,W,000.0,311.6,220819,017.7,E*63
01DE74,022721,00C521,$GPRMC,150129,A,5442.9463,N,11318.4638,W,000.0,311.6,220819,017.7,E*62
01DE74,022721,00C521,$GPRMC,150130,A,5442.9463,N,11318.4637,W,000.0,311.6,220819,017.7,E*65
01DE73,022720,00C520,$GPRMC,150131,A,5442.9462,N,11318.4637,W,000.0,311.6,220819,017.7,E*65
01DE74,022723,00C521,$GPRMC,150132,A,5442.9461,N,11318.4637,W,000.0,311.6,220819,017.7,E*65
01DE74,022721,00C520,$GPRMC,150133,A,5442.9459,N,11318.4637,W,000.0,311.6,220819,017.7,E*6F
01DE74,022720,00C520,$GPRMC,150134,A,5442.9458,N,11318.4637,W,000.0,311.6,220819,017.7,E*69
01DE73,022722,00C521,$GPRMC,150135,A,5442.9457,N,11318.4637,W,000.0,311.6,220819,017.7,E*67
01DE71,022721,00C51F,$GPRMC,150136,A,5442.9456,N,11318.4636,W,000.0,311.6,220819,017.7,E*64
01DE72,022721,00C51F,$GPRMC,150137,A,5442.9455,N,11318.4636,W,000.0,311.6,220819,017.7,E*66
01DE73,022723,00C520,$GPRMC,150138,A,5442.9455,N,11318.4636,W,000.0,311.6,220819,017.7,E*69
01DE71,022721,00C51F,$GPRMC,150139,A,5442.9454,N,11318.4636,W,000.0,311.6,220819,017.7,E*69
01DE71,022723,00C520,$GPRMC,150140,A,5442.9454,N,11318.4637,W,000.0,311.6,220819,017.7,E*66
01DE70,022722,00C51F,$GPRMC,150141,A,5442.9453,N,11318.4637,W,000.0,311.6,220819,017.7,E*60
01DE72,022727,00C521,$GPRMC,150142,A,5442.9452,N,11318.4637,W,000.0,311.6,220819,017.7,E*62
01DE6E,022724,00C51F,$GPRMC,150143,A,5442.9451,N,11318.4638,W,000.0,311.6,220819,017.7,E*6F
01DE6E,022726,00C520,$GPRMC,150144,A,5442.9450,N,11318.4638,W,000.0,311.6,220819,017.7,E*69
01DE6C,022726,00C51F,$GPRMC,150145,A,5442.9449,N,11318.4639,W,000.0,311.6,220819,017.7,E*61
01DE6E,022729,00C520,$GPRMC,150146,A,5442.9448,N,11318.4640,W,000.0,311.6,220819,017.7,E*6D
01DE6D,022727,00C51F,$GPRMC,150147,A,5442.9447,N,11318.4639,W,000.0,311.6,220819,017.7,E*6D
01DE6D,022727,00C51E,$GPRMC,150148,A,5442.9446,N,11318.4639,W,000.0,311.6,220819,017.7,E*63
01DE6D,022726,00C51E,$GPRMC,150149,A,5442.9445,N,11318.4639,W,000.0,311.6,220819,017.7,E*61
01DE6F,022729,00C51F,$GPRMC,150150,A,5442.9443,N,11318.4638,W,000.0,311.6,220819,017.7,E*6E
01DE6C,022723,00C51C,$GPRMC,150151,A,5442.9442,N,11318.4637,W,000.0,311.6,220819,017.7,E*61
01DE71,022729,00C51E,$GPRMC,150152,A,5442.9441,N,11318.4637,W,000.0,311.6,220819,017.7,E*61
01DE6E,022724,00C51C,$GPRMC,150153,A,5442.9440,N,11318.4636,W,000.0,311.6,220819,017.7,E*60
01DE6F,022724,00C51C,$GPRMC,150154,A,5442.9440,N,11318.4636,W,000.0,311.6,220819,017.7,E*67
01DE73,02272A,00C51E,$GPRMC,150155,A,5442.9440,N,11318.4636,W,000.0,311.6,220819,017.7,E*66
01DE73,022727,00C51D,$GPRMC,150156,A,5442.9441,N,11318.4637,W,000.0,311.6,220819,017.7,E*65
01DE70,022724,00C51C,$GPRMC,150157,A,5442.9442,N,11318.4637,W,000.0,311.6,220819,017.7,E*67
01DE72,022724,00C51D,$GPRMC,150158,A,5442.9443,N,11318.4637,W,000.0,311.6,220819,017.7,E*69
01DE73,022725,00C51C,$GPRMC,150159,A,5442.9445,N,11318.4640,W,000.0,311.6,220819,017.7,E*6E
01DE75,022728,00C51D,$GPRMC,150200,A,5442.9445,N,11318.4640,W,000.0,311.6,220819,017.7,E*61
01DE74,022725,00C51C,$GPRMC,150201,A,5442.9445,N,11318.4640,W,000.0,311.6,220819,017.7,E*60
01DE77,022729,00C51E,$GPRMC,150202,A,5442.9445,N,11318.4640,W,000.0,311.6,220819,017.7,E*63
01DE78,02272A,00C51F,$GPRMC,150203,A,5442.9446,N,11318.4641,W,000.0,311.6,220819,017.7,E*60
01DE77,022727,00C51E,$GPRMC,150204,A,5442.9446,N,11318.4641,W,000.0,311.6,220819,017.7,E*67
01DE7C,02272C,00C520,$GPRMC,150205,A,5442.9446,N,11318.4642,W,000.0,311.6,220819,017.7,E*65
01DE75,022723,00C51C,$GPRMC,150206,A,5442.9446,N,11318.4642,W,000.0,311.6,220819,017.7,E*66
01DE78,022726,00C51D,$GPRMC,150207,A,5442.9446,N,11318.4644,W,000.0,311.6,220819,017.7,E*61
01DE7A,02272A,00C51F,$GPRMC,150208,A,5442.9447,N,11318.4645,W,000.0,311.6,220819,017.7,E*6E
01DE7D,02272E,00C521,$GPRMC,150209,A,5442.9448,N,11318.4647,W,000.0,311.6,220819,017.7,E*62
01DE79,022727,00C51E,$GPRMC,150210,A,5442.9448,N,11318.4648,W,000.0,311.6,220819,017.7,E*65
01DE7C,02272A,00C51F,$GPRMC,150211,A,5442.9450,N,11318.4650,W,000.0,311.6,220819,017.7,E*64
01DE77,022724,00C51C,$GPRMC,150212,A,5442.9452,N,11318.4652,W,000.0,311.6,220819,017.7,E*67
01DE78,022725,00C51D,$GPRMC,150213,A,5442.9453,N,11318.4653,W,000.0,311.6,220819,017.7,E*66
01DE7B,022729,00C51F,$GPRMC,150214,A,5442.9456,N,11318.4657,W,000.0,311.6,220819,017.7,E*60
01DE78,022723,00C51C,$GPRMC,150215,A,5442.9456,N,11318.4657,W,000.0,311.6,220819,017.7,E*61
01DE7A,022725,00C51D,$GPRMC,150216,A,5442.9456,N,11318.4657,W,000.0,311.6,220819,017.7,E*62
01DE7D,02272B,00C51F,$GPRMC,150217,A,5442.9457,N,11318.4657,W,000.0,311.6,220819,017.7,E*62
01DE7C,022728,00C51E,$GPRMC,150218,A,5442.9457,N,11318.4657,W,000.0,311.6,220819,017.7,E*6D
01DE7C,022727,00C51E,$GPRMC,150219,A,5442.9457,N,11318.4654,W,000.0,311.6,220819,017.7,E*6F
01DE7D,02272A,00C520,$GPRMC,150220,A,5442.9457,N,11318.4653,W,000.0,311.6,220819,017.7,E*62
01DE7C,022726,00C51E,$GPRMC,150221,A,5442.9457,N,11318.4653,W,000.0,311.6,220819,017.7,E*63
01DE7F,022729,00C51E,$GPRMC,150222,A,5442.9458,N,11318.4652,W,000.0,311.6,220819,017.7,E*6E
01DE7E,022727,00C51E,$GPRMC,150223,A,5442.9458,N,11318.4650,W,000.0,311.6,220819,017.7,E*6D
01DE7C,022725,00C51D,$GPRMC,150224,A,5442.9458,N,11318.4648,W,000.0,311.6,220819,017.7,E*63
01DE7F,022727,00C51E,$GPRMC,150225,A,5442.9458,N,11318.4646,W,000.0,311.6,220819,017.7,E*6C
01DE82,02272C,00C521,$GPRMC,150226,A,5442.9458,N,11318.4644,W,000.0,311.6,220819,017.7,E*6D
01DE7D,022725,00C51D,$GPRMC,150227,A,5442.9458,N,11318.4643,W,000.0,311.6,220819,017.7,E*6B
01DE80,022729,00C51F,$GPRMC,150228,A,5442.9459,N,11318.4644,W,000.0,311.6,220819,017.7,E*62
01DE80,022728,00C51F,$GPRMC,150229,A,5442.9456,N,11318.4645,W,000.0,311.6,220819,017.7,E*6D
01DE7D,022725,00C51E,$GPRMC,150230,A,5442.9453,N,11318.4644,W,000.0,311.6,220819,017.7,E*61
01DE7D,022726,00C51E,$GPRMC,150231,A,5442.9451,N,11318.4644,W,000.0,311.6,220819,017.7,E*62
01DE7C,022724,00C51D,$GPRMC,150232,A,5442.9448,N,11318.4643,W,000.0,311.6,220819,017.7,E*6E
01DE80,022728,00C51F,$GPRMC,150233,A,5442.9445,N,11318.4643,W,000.0,311.6,220819,017.7,E*62
01DE7B,022722,00C51C,$GPRMC,150234,A,5442.9443,N,11318.4642,W,000.0,311.6,220819,017.7,E*62
01DE7E,022726,00C51E,$GPRMC,150235,A,5442.9440,N,11318.4641,W,000.0,311.6,220819,017.7,E*63
01DE7D,022725,00C51F,$GPRMC,150236,A,5442.9438,N,11318.4640,W,000.0,311.6,220819,017.7,E*6E
01DE7D,022723,00C51E,$GPRMC,150237,A,5442.9436,N,11318.4639,W,000.0,311.6,220819,017.7,E*6F
01DE7E,022724,00C51E,$GPRMC,150238,A,5442.9434,N,11318.4638,W,000.0,311.6,220819,017.7,E*63
01DE7D,022724,00C51E,$GPRMC,150239,A,5442.9432,N,11318.4638,W,000.0,311.6,220819,017.7,E*64
01DE7C,022720,00C51D,$GPRMC,150240,A,5442.9430,N,11318.4637,W,000.0,311.6,220819,017.7,E*67
01DE7B,02271F,00C51C,$GPRMC,150241,A,5442.9428,N,11318.4637,W,000.0,311.6,220819,017.7,E*6F
01DE7C,02271F,00C51D,$GPRMC,150242,A,5442.9425,N,11318.4636,W,000.0,311.6,220819,017.7,E*60
01DE80,022719,00C515,$GPRMC,150243,A,5442.9423,N,11318.4636,W,000.0,311.6,220819,017.7,E*67
01DEAF,022711,00C4C7,$GPRMC,150244,A,5442.9421,N,11318.4635,W,000.0,311.6,220819,017.7,E*61
01DEB9,02271D,00C4B4,$GPRMC,150245,A,5442.9414,N,11318.4635,W,000.0,311.6,220819,017.7,E*66
01DEBE,022722,00C4B4,$GPRMC,150246,A,5442.9407,N,11318.4636,W,000.0,311.6,220819,017.7,E*64
01DEBD,02271F,00C4B3,$GPRMC,150247,A,5442.9401,N,11318.4636,W,000.0,311.6,220819,017.7,E*63
01DEBE,022721,00C4B4,$GPRMC,150248,A,5442.9399,N,11318.4635,W,000.0,311.6,220819,017.7,E*69
01DEBF,022721,00C4B4,$GPRMC,150249,A,5442.9396,N,11318.4634,W,000.0,311.6,220819,017.7,E*66
01DEBD,02271C,00C4B2,$GPRMC,150250,A,5442.9393,N,11318.4633,W,000.0,311.6,220819,017.7,E*6C
01DEBF,02271F,00C4B4,$GPRMC,150251,A,5442.9391,N,11318.4633,W,000.0,311.6,220819,017.7,E*6F
01DEBD,02271D,00C4B3,$GPRMC,150252,A,5442.9389,N,11318.4631,W,000.0,311.6,220819,017.7,E*67
01DEBB,022719,00C4BD,$GPRMC,150253,A,5442.9390,N,11318.4627,W,000.0,311.6,220819,017.7,E*69
01DE8A,02270D,00C507,$GPRMC,150254,A,5442.9391,N,11318.4624,W,000.0,311.6,220819,017.7,E*6C
01DE7C,02271A,00C51E,$GPRMC,150255,A,5442.9390,N,11318.4621,W,000.0,311.6,220819,017.7,E*69
01DE7D,022718,00C51C,$GPRMC,150256,A,5442.9391,N,11318.4617,W,000.0,311.6,220819,017.7,E*6E
01DE7A,022715,00C51C,$GPRMC,150257,A,5442.9392,N,11318.4613,W,000.0,311.6,220819,017.7,E*68
01DE7C,022719,00C51D,$GPRMC,150258,A,5442.9395,N,11318.4609,W,000.0,311.6,220819,017.7,E*6B
01DE7E,02271B,00C51E,$GPRMC,150259,A,5442.9397,N,11318.4606,W,000.0,311.6,220819,017.7,E*67
01DE79,022715,00C51C,$GPRMC,150300,A,5442.9397,N,11318.4605,W,000.0,311.6,220819,017.7,E*69
01DE7C,02271B,00C51E,$GPRMC,150301,A,5442.9396,N,11318.4603,W,000.0,311.6,220819,017.7,E*6F
01DE7C,02271A,00C51E,$GPRMC,150302,A,5442.9396,N,11318.4602,W,000.0,311.6,220819,017.7,E*6D
01DE7B,02271B,00C51E,$GPRMC,150303,A,5442.9395,N,11318.4600,W,000.0,311.6,220819,017.7,E*6D
01DE79,022716,00C51D,$GPRMC,150304,A,5442.9395,N,11318.4597,W,000.0,311.6,220819,017.7,E*67
01DE78,022716,00C51D,$GPRMC,150305,A,5442.9394,N,11318.4593,W,000.0,311.6,220819,017.7,E*63
01DE76,022714,00C51C,$GPRMC,150306,A,5442.9394,N,11318.4590,W,000.0,311.6,220819,017.7,E*63
01DE75,022714,00C51D,$GPRMC,150307,A,5442.9387,N,11318.4592,W,000.0,311.6,220819,017.7,E*62
01DE75,022715,00C51D,$GPRMC,150308,A,5442.9386,N,11318.4589,W,000.0,311.6,220819,017.7,E*66
01DE7D,02271F,00C522,$GPRMC,150309,A,5442.9386,N,11318.4585,W,000.0,311.6,220819,017.7,E*6B
01DE76,022714,00C51D,$GPRMC,150310,A,5442.9385,N,11318.4581,W,000.0,311.6,220819,017.7,E*64
01DE78,022718,00C51F,$GPRMC,150311,A,5442.9384,N,11318.4584,W,000.0,311.6,220819,017.7,E*61
01DE7A,02271C,00C520,$GPRMC,150312,A,5442.9383,N,11318.4587,W,000.0,311.6,220819,017.7,E*66
01DE74,022714,00C51D,$GPRMC,150313,A,5442.9381,N,11318.4590,W,000.0,311.6,220819,017.7,E*63
01DE75,022717,00C51E,$GPRMC,150314,A,5442.9382,N,11318.4585,W,000.0,311.6,220819,017.7,E*63
01DE73,022716,00C51D,$GPRMC,150315,A,5442.9382,N,11318.4582,W,000.0,311.6,220819,017.7,E*65
01DE77,02271A,00C51F,$GPRMC,150316,A,5442.9381,N,11318.4583,W,000.0,311.6,220819,017.7,E*64
01DE78,02271C,00C520,$GPRMC,150317,A,5442.9380,N,11318.4584,W,000.0,311.6,220819,017.7,E*63
01DE75,02271B,00C51F,$GPRMC,150318,A,5442.9379,N,11318.4584,W,000.0,311.6,220819,017.7,E*6A
01DE75,02271B,00C51E,$GPRMC,150319,A,5442.9380,N,11318.4581,W,000.0,311.6,220819,017.7,E*68
01DE76,02271D,00C51E,$GPRMC,150320,A,5442.9378,N,11318.4580,W,000.0,311.6,220819,017.7,E*64
01DE73,02271B,00C51E,$GPRMC,150321,A,5442.9380,N,11318.4576,W,000.0,311.6,220819,017.7,E*6B
01DE71,022718,00C51C,$GPRMC,150322,A,5442.9378,N,11318.4575,W,000.0,311.6,220819,017.7,E*6C
01DE72,02271A,00C51D,$GPRMC,150323,A,5442.9376,N,11318.4577,W,000.0,311.6,220819,017.7,E*61
01DE74,02271D,00C51E,$GPRMC,150324,A,5442.9375,N,11318.4578,W,000.0,311.6,220819,017.7,E*6A
01DE72,02271A,00C51D,$GPRMC,150325,A,5442.9374,N,11318.4579,W,000.0,311.6,220819,017.7,E*6B
01DE70,02271A,00C51C,$GPRMC,150326,A,5442.9373,N,11318.4580,W,000.0,311.6,220819,017.7,E*69
01DE75,022722,00C51F,$GPRMC,150327,A,5442.9370,N,11318.4581,W,000.0,311.6,220819,017.7,E*6A
01DE74,02271F,00C51E,$GPRMC,150328,A,5442.9368,N,11318.4582,W,000.0,311.6,220819,017.7,E*6F
01DE71,02271C,00C51C,$GPRMC,150329,A,5442.9366,N,11318.4584,W,000.0,311.6,220819,017.7,E*66
01DE73,02271E,00C51D,$GPRMC,150330,A,5442.9364,N,11318.4585,W,000.0,311.6,220819,017.7,E*6D
01DE78,022722,00C51F,$GPRMC,150331,A,5442.9362,N,11318.4584,W,000.0,311.6,220819,017.7,E*6B
01DE77,022720,00C51E,$GPRMC,150332,A,5442.9361,N,11318.4584,W,000.0,311.6,220819,017.7,E*6B
01DE79,022724,00C520,$GPRMC,150333,A,5442.9360,N,11318.4582,W,000.0,311.6,220819,017.7,E*6D
01DE76,02271F,00C51D,$GPRMC,150334,A,5442.9360,N,11318.4581,W,000.0,311.6,220819,017.7,E*69
01DE77,02271D,00C51C,$GPRMC,150335,A,5442.9359,N,11318.4579,W,000.0,311.6,220819,017.7,E*65
01DE79,02271F,00C51D,$GPRMC,150336,A,5442.9358,N,11318.4577,W,000.0,311.6,220819,017.7,E*69
01DE7A,022720,00C51E,$GPRMC,150337,A,5442.9357,N,11318.4576,W,000.0,311.6,220819,017.7,E*66
01DE76,02271B,00C51B,$GPRMC,150338,A,5442.9357,N,11318.4574,W,000.0,311.6,220819,017.7,E*6B
01DE79,02271D,00C51C,$GPRMC,150339,A,5442.9359,N,11318.4570,W,000.0,311.6,220819,017.7,E*60
01DE7A,02271F,00C51D,$GPRMC,150340,A,5442.9357,N,11318.4570,W,000.0,311.6,220819,017.7,E*60
01DE7E,022721,00C51D,$GPRMC,150341,A,5442.9355,N,11318.4570,W,000.0,311.6,220819,017.7,E*63
01DE7E,022723,00C51E,$GPRMC,150342,A,5442.9352,N,11318.4568,W,000.0,311.6,220819,017.7,E*6E
01DE7D,022722,00C51E,$GPRMC,150343,A,5442.9351,N,11318.4568,W,000.0,311.6,220819,017.7,E*6C
01DE7C,02271F,00C51C,$GPRMC,150344,A,5442.9351,N,11318.4566,W,000.0,311.6,220819,017.7,E*65
01DE7B,02271F,00C51C,$GPRMC,150345,A,5442.9352,N,11318.4565,W,000.0,311.6,220819,017.7,E*64
01DE7D,022720,00C51D,$GPRMC,150346,A,5442.9351,N,11318.4565,W,000.0,311.6,220819,017.7,E*64
01DE7A,02271C,00C51B,$GPRMC,150347,A,5442.9347,N,11318.4568,W,000.0,311.6,220819,017.7,E*6F
01DE7B,02271C,00C51C,$GPRMC,150348,A,5442.9348,N,11318.4568,W,000.0,311.6,220819,017.7,E*6F
01DE7A,02271A,00C51B,$GPRMC,150349,A,5442.9348,N,11318.4568,W,000.0,311.6,220819,017.7,E*6E
01DE7D,02271E,00C51D,$GPRMC,150350,A,5442.9349,N,11318.4568,W,000.0,311.6,220819,017.7,E*67
01DE7E,02271E,00C51D,$GPRMC,150351,A,5442.9349,N,11318.4570,W,000.0,311.6,220819,017.7,E*6F
01DE7E,02271D,00C51D,$GPRMC,150352,A,5442.9341,N,11318.4574,W,000.0,311.6,220819,017.7,E*60
01DE82,022725,00C521,$GPRMC,150353,A,5442.9335,N,11318.4578,W,000.0,311.6,220819,017.7,E*6E
01DE7E,02271E,00C51D,$GPRMC,150354,A,5442.9328,N,11318.4582,W,000.0,311.6,220819,017.7,E*60
01DE82,022723,00C520,$GPRMC,150355,A,5442.9332,N,11318.4585,W,000.0,311.6,220819,017.7,E*6D
01DE80,02271E,00C51E,$GPRMC,150356,A,5442.9334,N,11318.4587,W,000.0,311.6,220819,017.7,E*6A
01DE80,02271E,00C51E,$GPRMC,150357,A,5442.9329,N,11318.4590,W,000.0,311.6,220819,017.7,E*61
01DE7E,02271A,00C51C,$GPRMC,150358,A,5442.9330,N,11318.4591,W,000.0,311.6,220819,017.7,E*67
01DE81,02271F,00C51F,$GPRMC,150359,A,5442.9332,N,11318.4591,W,000.0,311.6,220819,017.7,E*64
01DE80,02271B,00C51D,$GPRMC,150400,A,5442.9334,N,11318.4591,W,000.0,311.6,220819,017.7,E*69
01DE81,02271D,00C51E,$GPRMC,150401,A,5442.9335,N,11318.4591,W,000.0,311.6,220819,017.7,E*69
01DE82,02271E,00C51F,$GPRMC,150402,A,5442.9336,N,11318.4590,W,000.0,311.6,220819,017.7,E*68
01DE84,022720,00C520,$GPRMC,150403,A,5442.9338,N,11318.4589,W,000.0,311.6,220819,017.7,E*6F
01DE80,02271B,00C51E,$GPRMC,150404,A,5442.9336,N,11318.4584,W,000.0,311.6,220819,017.7,E*6B
01DE81,02271B,00C51E,$GPRMC,150405,A,5442.9335,N,11318.4579,W,000.0,311.6,220819,017.7,E*6B
01DE7F,022717,00C51D,$GPRMC,150406,A,5442.9334,N,11318.4575,W,000.0,311.6,220819,017.7,E*65
01DE7E,022715,00C51C,$GPRMC,150407,A,5442.9336,N,11318.4576,W,000.0,311.6,220819,017.7,E*65
01DE80,022717,00C51D,$GPRMC,150408,A,5442.9337,N,11318.4575,W,000.0,311.6,220819,017.7,E*68
01DE7F,022715,00C51C,$GPRMC,150409,A,5442.9340,N,11318.4575,W,000.0,311.6,220819,017.7,E*69
01DE7D,022713,00C51B,$GPRMC,150410,A,5442.9343,N,11318.4573,W,000.0,311.6,220819,017.7,E*64
01DE7C,022712,00C51A,$GPRMC,150411,A,5442.9343,N,11318.4572,W,000.0,311.6,220819,017.7,E*64
01DE7E,022713,00C51B,$GPRMC,150412,A,5442.9343,N,11318.4570,W,000.0,311.6,220819,017.7,E*65
01DE7C,022711,00C51A,$GPRMC,150413,A,5442.9343,N,11318.4568,W,000.0,311.6,220819,017.7,E*6D
01DE82,022719,00C51E,$GPRMC,150414,A,5442.9341,N,11318.4564,W,000.0,311.6,220819,017.7,E*64
01DE80,022714,00C51C,$GPRMC,150415,A,5442.9344,N,11318.4568,W,000.0,311.6,220819,017.7,E*6C
01DE81,022717,00C51C,$GPRMC,150416,A,5442.9347,N,11318.4573,W,000.0,311.6,220819,017.7,E*66
01DE7F,022716,00C51B,$GPRMC,150417,A,5442.9347,N,11318.4571,W,000.0,311.6,220819,017.7,E*65
01DE83,02271B,00C51E,$GPRMC,150418,A,5442.9347,N,11318.4570,W,000.0,311.6,220819,017.7,E*6B
01DE7D,022712,00C51B,$GPRMC,150419,A,5442.9348,N,11318.4568,W,000.0,311.6,220819,017.7,E*6C
01DE7F,022716,00C51C,$GPRMC,150420,A,5442.9348,N,11318.4567,W,000.0,311.6,220819,017.7,E*69
01DE7A,02270D,00C518,$GPRMC,150421,A,5442.9348,N,11318.4565,W,000.0,311.6,220819,017.7,E*6A
01DE82,022719,00C51D,$GPRMC,150422,A,5442.9340,N,11318.4549,W,000.0,311.6,220819,017.7,E*6F
01DE84,02271C,00C51F,$GPRMC,150423,A,5442.9332,N,11318.4534,W,000.0,311.6,220819,017.7,E*61
01DE80,022717,00C51C,$GPRMC,150424,A,5442.9331,N,11318.4531,W,000.0,311.6,220819,017.7,E*60
01DE7C,02270F,00C519,$GPRMC,150425,A,5442.9331,N,11318.4529,W,000.0,311.6,220819,017.7,E*68
01DE80,022716,00C51C,$GPRMC,150426,A,5442.9331,N,11318.4528,W,000.0,311.6,220819,017.7,E*6A
01DE7F,022712,00C518,$GPRMC,150427,A,5442.9331,N,11318.4526,W,000.0,311.6,220819,017.7,E*65
01DE7F,022711,00C517,$GPRMC,150428,A,5442.9331,N,11318.4524,W,000.0,311.6,220819,017.7,E*68
01DE83,022716,00C51A,$GPRMC,150429,A,5442.9331,N,11318.4522,W,000.0,311.6,220819,017.7,E*6F
01DE84,022717,00C519,$GPRMC,150430,A,5442.9330,N,11318.4520,W,000.0,311.6,220819,017.7,E*64
01DE80,022712,00C519,$GPRMC,150431,A,5442.9329,N,11318.4518,W,000.0,311.6,220819,017.7,E*66
01DE7F,022713,00C519,$GPRMC,150432,A,5442.9329,N,11318.4516,W,000.0,311.6,220819,017.7,E*6B
01DE7D,022713,00C51A,$GPRMC,150433,A,5442.9331,N,11318.4517,W,000.0,311.6,220819,017.7,E*62
01DE7D,022710,00C519,$GPRMC,150434,A,5442.9334,N,11318.4520,W,000.0,311.6,220819,017.7,E*64
01DE7F,022714,00C51A,$GPRMC,150435,A,5442.9336,N,11318.4522,W,000.0,311.6,220819,017.7,E*65
01DE7D,022712,00C51A,$GPRMC,150436,A,5442.9338,N,11318.4524,W,000.0,311.6,220819,017.7,E*6E
01DE86,02271D,00C51F,$GPRMC,150437,A,5442.9340,N,11318.4526,W,000.0,311.6,220819,017.7,E*62
01DE7F,022713,00C51A,$GPRMC,150438,A,5442.9342,N,11318.4528,W,000.0,311.6,220819,017.7,E*61
01DE87,02271C,00C51E,$GPRMC,150439,A,5442.9344,N,11318.4530,W,000.0,311.6,220819,017.7,E*6F
01DE80,022714,00C51B,$GPRMC,150440,A,5442.9346,N,11318.4532,W,000.0,311.6,220819,017.7,E*61
01DE83,022716,00C51C,$GPRMC,150441,A,5442.9347,N,11318.4533,W,000.0,311.6,220819,017.7,E*60
01DE80,022711,00C51A,$GPRMC,150442,A,5442.9349,N,11318.4533,W,000.0,311.6,220819,017.7,E*6D
01DE85,022719,00C51D,$GPRMC,150443,A,5442.9350,N,11318.4533,W,000.0,311.6,220819,017.7,E*64
01DE81,022713,00C51B,$GPRMC,150444,A,5442.9350,N,11318.4533,W,000.0,311.6,220819,017.7,E*63
01DE83,022716,00C51C,$GPRMC,150445,A,5442.9351,N,11318.4533,W,000.0,311.6,220819,017.7,E*63
01DE82,022715,00C51D,$GPRMC,150446,A,5442.9351,N,11318.4533,W,000.0,311.6,220819,017.7,E*60
01DE82,022714,00C51C,$GPRMC,150447,A,5442.9351,N,11318.4533,W,000.0,311.6,220819,017.7,E*61
01DE81,022712,00C51B,$GPRMC,150448,A,5442.9352,N,11318.4533,W,000.0,311.6,220819,017.7,E*6D
01DE85,022719,00C51E,$GPRMC,150449,A,5442.9353,N,11318.4534,W,000.0,311.6,220819,017.7,E*6A
01DE83,022716,00C51D,$GPRMC,150450,A,5442.9353,N,11318.4534,W,000.0,311.6,220819,017.7,E*62
01DE83,022714,00C51C,$GPRMC,150451,A,5442.9354,N,11318.4535,W,000.0,311.6,220819,017.7,E*65
01DE85,02271A,00C51E,$GPRMC,150452,A,5442.9355,N,11318.4536,W,000.0,311.6,220819,017.7,E*64
01DE86,022719,00C51E,$GPRMC,150453,A,5442.9356,N,11318.4539,W,000.0,311.6,220819,017.7,E*69
01DE85,022718,00C51E,$GPRMC,150454,A,5442.9358,N,11318.4541,W,000.0,311.6,220819,017.7,E*6F
01DE85,022716,00C51D,$GPRMC,150455,A,5442.9360,N,11318.4544,W,000.0,311.6,220819,017.7,E*60
01DE86,022717,00C51E,$GPRMC,150456,A,5442.9361,N,11318.4547,W,000.0,311.6,220819,017.7,E*61
01DE85,022715,00C51D,$GPRMC,150457,A,5442.9362,N,11318.4550,W,000.0,311.6,220819,017.7,E*65
01DE80,02270D,00C51A,$GPRMC,150458,A,5442.9364,N,11318.4554,W,000.0,311.6,220819,017.7,E*68
01DE86,022716,00C51F,$GPRMC,150459,A,5442.9366,N,11318.4559,W,000.0,311.6,220819,017.7,E*66
01DE87,022717,00C51F,$GPRMC,150500,A,5442.9368,N,11318.4563,W,000.0,311.6,220819,017.7,E*6C
01DE83,022711,00C51D,$GPRMC,150501,A,5442.9370,N,11318.4567,W,000.0,311.6,220819,017.7,E*60
01DE82,02270F,00C51C,$GPRMC,150502,A,5442.9372,N,11318.4571,W,000.0,311.6,220819,017.7,E*66
01DE88,022718,00C520,$GPRMC,150503,A,5442.9375,N,11318.4575,W,000.0,311.6,220819,017.7,E*64
01DE86,022715,00C51E,$GPRMC,150504,A,5442.9377,N,11318.4578,W,000.0,311.6,220819,017.7,E*6C
01DE86,022715,00C51E,$GPRMC,150505,A,5442.9379,N,11318.4580,W,000.0,311.6,220819,017.7,E*64
01DE86,022716,00C51E,$GPRMC,150506,A,5442.9381,N,11318.4583,W,000.0,311.6,220819,017.7,E*63
01DE85,022713,00C51D,$GPRMC,150507,A,5442.9382,N,11318.4586,W,000.0,311.6,220819,017.7,E*64
01DE85,022713,00C51D,$GPRMC,150508,A,5442.9384,N,11318.4588,W,000.0,311.6,220819,017.7,E*63
01DE86,022714,00C51E,$GPRMC,150509,A,5442.9385,N,11318.4589,W,000.0,311.6,220819,017.7,E*62
01DE84,022710,00C51C,$GPRMC,150510,A,5442.9386,N,11318.4591,W,000.0,311.6,220819,017.7,E*60
01DE82,02270E,00C51C,$GPRMC,150511,A,5442.9386,N,11318.4591,W,000.0,311.6,220819,017.7,E*61
01DE82,02270F,00C51C,$GPRMC,150512,A,5442.9388,N,11318.4593,W,000.0,311.6,220819,017.7,E*6E
01DE86,022714,00C51E,$GPRMC,150513,A,5442.9389,N,11318.4594,W,000.0,311.6,220819,017.7,E*69
01DE83,022710,00C51C,$GPRMC,150514,A,5442.9391,N,11318.4596,W,000.0,311.6,220819,017.7,E*65
01DE83,022710,00C51C,$GPRMC,150515,A,5442.9392,N,11318.4597,W,000.0,311.6,220819,017.7,E*66
01DE82,02270D,00C51B,$GPRMC,150516,A,5442.9392,N,11318.4598,W,000.0,311.6,220819,017.7,E*6A
01DE85,022711,00C51D,$GPRMC,150517,A,5442.9393,N,11318.4599,W,000.0,311.6,220819,017.7,E*6B
01DE83,02270F,00C51C,$GPRMC,150518,A,5442.9393,N,11318.4599,W,000.0,311.6,220819,017.7,E*64
01DE84,02270F,00C51C,$GPRMC,150519,A,5442.9393,N,11318.4600,W,000.0,311.6,220819,017.7,E*66
01DE89,022717,00C51F,$GPRMC,150520,A,5442.9393,N,11318.4600,W,000.0,311.6,220819,017.7,E*6C
01DE81,02270C,00C51A,$GPRMC,150521,A,5442.9393,N,11318.4601,W,000.0,311.6,220819,017.7,E*6C
01DE86,022712,00C51D,$GPRMC,150522,A,5442.9394,N,11318.4603,W,000.0,311.6,220819,017.7,E*6A
01DE83,02270E,00C51B,$GPRMC,150523,A,5442.9398,N,11318.4603,W,000.0,311.6,220819,017.7,E*67
01DE88,022714,00C51D,$GPRMC,150524,A,5442.9399,N,11318.4605,W,000.0,311.6,220819,017.7,E*67
01DE87,022713,00C51D,$GPRMC,150525,A,5442.9404,N,11318.4606,W,000.0,311.6,220819,017.7,E*66
01DE87,022712,00C51D,$GPRMC,150526,A,5442.9405,N,11318.4607,W,000.0,311.6,220819,017.7,E*65
01DE87,022710,00C51D,$GPRMC,150527,A,5442.9408,N,11318.4608,W,000.0,311.6,220819,017.7,E*66
01DE8B,022716,00C51E,$GPRMC,150528,A,5442.9414,N,11318.4608,W,000.0,311.6,220819,017.7,E*64
01DE86,022711,00C51C,$GPRMC,150529,A,5442.9415,N,11318.4610,W,000.0,311.6,220819,017.7,E*6D
01DE88,022710,00C51D,$GPRMC,150530,A,5442.9417,N,11318.4611,W,000.0,311.6,220819,017.7,E*66
01DE8B,022715,00C51F,$GPRMC,150531,A,5442.9419,N,11318.4611,W,000.0,311.6,220819,017.7,E*69
01DE8A,022713,00C51F,$GPRMC,150532,A,5442.9422,N,11318.4612,W,000.0,311.6,220819,017.7,E*61
01DE88,02270F,00C51D,$GPRMC,150533,A,5442.9424,N,11318.4613,W,000.0,311.6,220819,017.7,E*67
01DE8C,022713,00C520,$GPRMC,150534,A,5442.9427,N,11318.4613,W,000.0,311.6,220819,017.7,E*63
01DE89,02270F,00C51D,$GPRMC,150535,A,5442.9429,N,11318.4613,W,000.0,311.6,220819,017.7,E*6C
01DE8D,022714,00C520,$GPRMC,150536,A,5442.9431,N,11318.4613,W,000.0,311.6,220819,017.7,E*66
01DE8C,022712,00C51F,$GPRMC,150537,A,5442.9432,N,11318.4612,W,000.0,311.6,220819,017.7,E*65
01DE8C,022711,00C51F,$GPRMC,150538,A,5442.9434,N,11318.4612,W,000.0,311.6,220819,017.7,E*6C
01DE8A,02270F,00C51E,$GPRMC,150539,A,5442.9436,N,11318.4612,W,000.0,311.6,220819,017.7,E*6F
01DE88,02270D,00C51D,$GPRMC,150540,A,5442.9438,N,11318.4612,W,000.0,311.6,220819,017.7,E*6F
01DE8B,02270F,00C51E,$GPRMC,150541,A,5442.9439,N,11318.4612,W,000.0,311.6,220819,017.7,E*6F
01DE89,02270D,00C51E,$GPRMC,150542,A,5442.9441,N,11318.4611,W,000.0,311.6,220819,017.7,E*60
01DE8D,022713,00C520,$GPRMC,150543,A,5442.9442,N,11318.4612,W,000.0,311.6,220819,017.7,E*61
01DE8A,02270E,00C51E,$GPRMC,150544,A,5442.9443,N,11318.4612,W,000.0,311.6,220819,017.7,E*67
01DE8C,022711,00C51F,$GPRMC,150545,A,5442.9444,N,11318.4612,W,000.0,311.6,220819,017.7,E*61
01DE8A,02270D,00C51D,$GPRMC,150546,A,5442.9445,N,11318.4612,W,000.0,311.6,220819,017.7,E*63
01DE8C,022710,00C51E,$GPRMC,150547,A,5442.9446,N,11318.4612,W,000.0,311.6,220819,017.7,E*61
01DE8B,02270F,00C51E,$GPRMC,150548,A,5442.9446,N,11318.4612,W,000.0,311.6,220819,017.7,E*6E
01DE8A,02270C,00C51E,$GPRMC,150549,A,5442.9447,N,11318.4612,W,000.0,311.6,220819,017.7,E*6E
01DE89,02270B,00C51D,$GPRMC,150550,A,5442.9447,N,11318.4612,W,000.0,311.6,220819,017.7,E*66
01DE86,022708,00C51C,$GPRMC,150551,A,5442.9451,N,11318.4618,W,000.0,311.6,220819,017.7,E*6A
01DE8B,02270F,00C51F,$GPRMC,150552,A,5442.9451,N,11318.4618,W,000.0,311.6,220819,017.7,E*69
01DE89,02270B,00C51E,$GPRMC,150553,A,5442.9451,N,11318.4617,W,000.0,311.6,220819,017.7,E*67
01DE88,022708,00C51D,$GPRMC,150554,A,5442.9451,N,11318.4617,W,000.0,311.6,220819,017.7,E*60
01DE8A,02270E,00C51F,$GPRMC,150555,A,5442.9451,N,11318.4617,W,000.0,311.6,220819,017.7,E*61
01DE8A,02270E,00C51F,$GPRMC,150556,A,5442.9451,N,11318.4617,W,000.0,311.6,220819,017.7,E*62
01DE89,02270B,00C51E,$GPRMC,150557,A,5442.9451,N,11318.4617,W,000.0,311.6,220819,017.7,E*63
01DE8C,022710,00C520,$GPRMC,150558,A,5442.9451,N,11318.4618,W,000.0,311.6,220819,017.7,E*63
01DE8C,022711,00C520,$GPRMC,150559,A,5442.9451,N,11318.4618,W,000.0,311.6,220819,017.7,E*62
01DE86,022708,00C51C,$GPRMC,150600,A,5442.9451,N,11318.4618,W,000.0,311.6,220819,017.7,E*6D
01DE87,022708,00C51C,$GPRMC,150601,A,5442.9450,N,11318.4618,W,000.0,311.6,220819,017.7,E*6D
01DE89,02270B,00C51E,$GPRMC,150602,A,5442.9449,N,11318.4618,W,000.0,311.6,220819,017.7,E*66
01DE8B,02270C,00C51F,$GPRMC,150603,A,5442.9449,N,11318.4618,W,000.0,311.6,220819,017.7,E*67
01DE87,022705,00C51C,$GPRMC,150604,A,5442.9450,N,11318.4618,W,000.0,311.6,220819,017.7,E*68
01DE89,022709,00C51E,$GPRMC,150605,A,5442.9450,N,11318.4618,W,000.0,311.6,220819,017.7,E*69
01DE89,022709,00C51E,$GPRMC,150606,A,5442.9449,N,11318.4618,W,000.0,311.6,220819,017.7,E*62
01DE88,022708,00C51D,$GPRMC,150607,A,5442.9448,N,11318.4618,W,000.0,311.6,220819,017.7,E*62
01DE88,022706,00C51D,$GPRMC,150608,A,5442.9447,N,11318.4618,W,000.0,311.6,220819,017.7,E*62
01DE86,022705,00C51C,$GPRMC,150609,A,5442.9443,N,11318.4618,W,000.0,311.6,220819,017.7,E*67
01DE87,022704,00C51C,$GPRMC,150610,A,5442.9443,N,11318.4618,W,000.0,311.6,220819,017.7,E*6F
01DE87,022706,00C51C,$GPRMC,150611,A,5442.9442,N,11318.4618,W,000.0,311.6,220819,017.7,E*6F
01DE86,022705,00C51C,$GPRMC,150612,A,5442.9441,N,11318.4618,W,000.0,311.6,220819,017.7,E*6F
01DE88,022707,00C51E,$GPRMC,150613,A,5442.9439,N,11318.4619,W,000.0,311.6,220819,017.7,E*60
01DE86,022704,00C51C,$GPRMC,150614,A,5442.9441,N,11318.4617,W,000.0,311.6,220819,017.7,E*66
01DE88,022707,00C51E,$GPRMC,150615,A,5442.9440,N,11318.4618,W,000.0,311.6,220819,017.7,E*69
01DE87,022703,00C51D,$GPRMC,150616,A,5442.9438,N,11318.4618,W,000.0,311.6,220819,017.7,E*65
01DE89,022706,00C51E,$GPRMC,150617,A,5442.9436,N,11318.4619,W,000.0,311.6,220819,017.7,E*6B
01DE88,022704,00C51D,$GPRMC,150618,A,5442.9435,N,11318.4619,W,000.0,311.6,220819,017.7,E*67
01DE89,022705,00C51E,$GPRMC,150619,A,5442.9433,N,11318.4620,W,000.0,311.6,220819,017.7,E*6A
01DE89,022707,00C51F,$GPRMC,150620,A,5442.9432,N,11318.4620,W,000.0,311.6,220819,017.7,E*61
01DE84,022700,00C51B,$GPRMC,150621,A,5442.9430,N,11318.4620,W,000.0,311.6,220819,017.7,E*62
01DE85,022702,00C51D,$GPRMC,150622,A,5442.9443,N,11318.4616,W,000.0,311.6,220819,017.7,E*60
01DE86,022703,00C51E,$GPRMC,150623,A,5442.9442,N,11318.4616,W,000.0,311.6,220819,017.7,E*60
01DE86,022704,00C51E,$GPRMC,150624,A,5442.9441,N,11318.4617,W,000.0,311.6,220819,017.7,E*65
01DE86,022706,00C51E,$GPRMC,150625,A,5442.9440,N,11318.4617,W,000.0,311.6,220819,017.7,E*65
01DE85,022702,00C51E,$GPRMC,150626,A,5442.9438,N,11318.4617,W,000.0,311.6,220819,017.7,E*69
01DE82,0227FF,00C51C,$GPRMC,150627,A,5442.9437,N,11318.4618,W,000.0,311.6,220819,017.7,E*68
01DE85,022703,00C51E,$GPRMC,150628,A,5442.9436,N,11318.4618,W,000.0,311.6,220819,017.7,E*66
01DE84,022702,00C51E,$GPRMC,150629,A,5442.9435,N,11318.4618,W,000.0,311.6,220819,017.7,E*64
01DE84,022701,00C51E,$GPRMC,150630,A,5442.9434,N,11318.4619,W,000.0,311.6,220819,017.7,E*6C
01DE86,022704,00C520,$GPRMC,150631,A,5442.9433,N,11318.4619,W,000.0,311.6,220819,017.7,E*6A
01DE84,022701,00C51E,$GPRMC,150632,A,5442.9432,N,11318.4619,W,000.0,311.6,220819,017.7,E*68
01DE87,022704,00C520,$GPRMC,150633,A,5442.9431,N,11318.4619,W,000.0,311.6,220819,017.7,E*6A
01DE86,022704,00C520,$GPRMC,150634,A,5442.9430,N,11318.4620,W,000.0,311.6,220819,017.7,E*66
01DE85,022702,00C51F,$GPRMC,150635,A,5442.9429,N,11318.4620,W,000.0,311.6,220819,017.7,E*6F
01DE85,022702,00C51F,$GPRMC,150636,A,5442.9428,N,11318.4620,W,000.0,311.6,220819,017.7,E*6D
01DE86,022702,00C51F,$GPRMC,150637,A,5442.9427,N,11318.4621,W,000.0,311.6,220819,017.7,E*62
01DE87,022704,00C520,$GPRMC,150638,A,5442.9426,N,11318.4621,W,000.0,311.6,220819,017.7,E*6C
01DE87,022704,00C520,$GPRMC,150639,A,5442.9425,N,11318.4621,W,000.0,311.6,220819,017.7,E*6E
01DE87,022702,00C51F,$GPRMC,150640,A,5442.9424,N,11318.4622,W,000.0,311.6,220819,017.7,E*62
01DE87,022704,00C520,$GPRMC,150641,A,5442.9423,N,11318.4622,W,000.0,311.6,220819,017.7,E*64
01DE87,022703,00C520,$GPRMC,150642,A,5442.9422,N,11318.4622,W,000.0,311.6,220819,017.7,E*66
01DE86,022702,00C51F,$GPRMC,150643,A,5442.9421,N,11318.4623,W,000.0,311.6,220819,017.7,E*65
01DE85,022700,00C51F,$GPRMC,150644,A,5442.9420,N,11318.4623,W,000.0,311.6,220819,017.7,E*63
01DE84,0227FF,00C51E,$GPRMC,150645,A,5442.9419,N,11318.4623,W,000.0,311.6,220819,017.7,E*68
01DE83,0226FD,00C51D,$GPRMC,150646,A,5442.9418,N,11318.4623,W,000.0,311.6,220819,017.7,E*6A
01DE85,022700,00C51F,$GPRMC,150647,A,5442.9417,N,11318.4624,W,000.0,311.6,220819,017.7,E*63
01DE85,0227FF,00C51E,$GPRMC,150648,A,5442.9416,N,11318.4624,W,000.0,311.6,220819,017.7,E*6D
01DE81,0226FA,00C51C,$GPRMC,150649,A,5442.9415,N,11318.4624,W,000.0,311.6,220819,017.7,E*6F
01DE86,022700,00C51F,$GPRMC,150650,A,5442.9414,N,11318.4625,W,000.0,311.6,220819,017.7,E*67
01DE84,0226FD,00C51D,$GPRMC,150651,A,5442.9413,N,11318.4625,W,000.0,311.6,220819,017.7,E*61
01DE87,022700,00C51F,$GPRMC,150652,A,5442.9411,N,11318.4625,W,000.0,311.6,220819,017.7,E*60
01DE85,0227FE,00C51F,$GPRMC,150653,V,5442.9411,N,11318.4625,W,,,220819,017.7,E*73
01DE86,022700,00C520,$GPRMC,150654,V,5442.9411,N,11318.4625,W,,,220819,017.7,E*74
01DE86,0227FF,00C520,$GPRMC,150655,V,5442.9411,N,11318.4625,W,,,220819,017.7,E*75
01DE88,022701,00C521,$GPRMC,150656,V,5442.9411,N,11318.4625,W,,,220819,017.7,E*76
01DE87,022700,00C521,$GPRMC,150657,V,5442.9411,N,11318.4625,W,,,220819,017.7,E*77
01DE82,0226F8,00C51D,$GPRMC,150658,V,5442.9411,N,11318.4625,W,,,220819,017.7,E*78
01DE85,0226FD,00C520,$GPRMC,150659,V,5442.9411,N,11318.4625,W,,,220819,017.7,E*79
01DE84,0226F9,00C51E,$GPRMC,150700,V,5442.9411,N,11318.4625,W,,,220819,017.7,E*74
01DE83,0226F9,00C51E,$GPRMC,150701,V,5442.9411,N,11318.4625,W,,,220819,017.7,E*75
01DE82,0226F8,00C51E,$GPRMC,150702,V,5442.9411,N,11318.4625,W,,,220819,017.7,E*76
01DE82,0226F8,00C51E,$GPRMC,150703,V,5442.9411,N,11318.4625,W,,,220819,017.7,E*77
01DE82,0226F8,00C51E,$GPRMC,150704,V,5442.9411,N,11318.4625,W,,,220819,017.7,E*70
01DE81,0226F7,00C51E,$GPRMC,150705,V,5442.9411,N,11318.4625,W,,,220819,017.7,E*71
01DE80,0226F7,00C51E,$GPRMC,150706,V,5442.9411,N,11318.4625,W,,,220819,017.7,E*72
01DE81,0226F8,00C51F,$GPRMC,150707,V,5442.9411,N,11318.4625,W,,,220819,017.7,E*73
01DE7E,0226F4,00C51E,$GPRMC,150708,V,5442.9411,N,11318.4625,W,,,220819,017.7,E*7C
01DE7D,0226F3,00C51D,$GPRMC,150709,V,5442.9411,N,11318.4625,W,,,220819,017.7,E*7D
01DE80,0226F7,00C51F,$GPRMC,150710,V,5442.9411,N,11318.4625,W,,,220819,017.7,E*75
01DE7E,0226F4,00C51E,$GPRMC,150711,V,5442.9411,N,11318.4625,W,,,220819,017.7,E*74
01DE81,0226FA,00C520,$GPRMC,150712,V,5442.9411,N,11318.4625,W,,,220819,017.7,E*77
01DE7D,0226F3,00C51E,$GPRMC,150713,V,5442.9411,N,11318.4625,W,,,220819,017.7,E*76
01DE7E,0226F5,00C51E,$GPRMC,150714,V,5442.9411,N,11318.4625,W,,,220819,017.7,E*71
01DE7E,0226F6,00C51E,$GPRMC,150715,V,5442.9411,N,11318.4625,W,,,220819,017.7,E*70
01DE7C,0226F4,00C51E,$GPRMC,150716,V,5442.9411,N,11318.4625,W,,,220819,017.7,E*73
01DE7E,0226F4,00C51E,$GPRMC,150717,V,5442.9411,N,11318.4625,W,,,220819,017.7,E*72
01DE7C,0226F4,00C51E,$GPRMC,150718,V,5442.9411,N,11318.4625,W,,,220819,017.7,E*7D
01DE7E,0226F5,00C51E,$GPRMC,150719,V,5442.9411,N,11318.4625,W,,,220819,017.7,E*7C
01DE80,0226F9,00C520,$GPRMC,150720,V,5442.9411,N,11318.4625,W,,,220819,017.7,E*76
01DE7E,0226F4,00C51E,$GPRMC,150721,V,5442.9411,N,11318.4625,W,,,220819,017.7,E*77
01DE7F,0226F5,00C51F,$GPRMC,150722,V,5442.9411,N,11318.4625,W,,,220819,017.7,E*74
01DE7D,0226F3,00C51E,$GPRMC,150723,V,5442.9411,N,11318.4625,W,,,220819,017.7,E*75
01DE7E,0226F3,00C51E,$GPRMC,150724,V,5442.9411,N,11318.4625,W,,,220819,017.7,E*72
01DE7A,0226EE,00C51D,$GPRMC,150725,V,5442.9411,N,11318.4625,W,,,220819,017.7,E*73
01DE7C,0226F1,00C51D,$GPRMC,150726,V,5442.9411,N,11318.4625,W,,,220819,017.7,E*70
01DE80,0226F6,00C520,$GPRMC,150727,V,5442.9411,N,11318.4625,W,,,220819,017.7,E*71
01DE81,0226F8,00C520,$GPRMC,150728,V,5442.9411,N,11318.4625,W,,,220819,017.7,E*7E
01DE7C,0226F1,00C51D,$GPRMC,150729,V,5442.9411,N,11318.4625,W,,,220819,017.7,E*7F
01DE7D,0226F3,00C51E,$GPRMC,150730,V,5442.9411,N,11318.4625,W,,,220819,017.7,E*77
01DE7D,0226F5,00C51E,$GPRMC,150731,V,5442.9411,N,11318.4625,W,,,220819,017.7,E*76
01DE7D,0226F2,00C51D,$GPRMC,150732,V,5442.9411,N,11318.4625,W,,,220819,017.7,E*75
01DE7E,0226F3,00C51E,$GPRMC,150733,V,5442.9411,N,11318.4625,W,,,220819,017.7,E*74
01DE7D,0226F3,00C51D,$GPRMC,150734,V,5442.9411,N,11318.4625,W,,,220819,017.7,E*73
01DE7D,0226F3,00C51E,$GPRMC,150735,V,5442.9411,N,11318.4625,W,,,220819,017.7,E*72
01DE7A,0226EE,00C51B,$GPRMC,150736,V,5442.9411,N,11318.4625,W,,,220819,017.7,E*71
01DE7C,0226F0,00C51D,$GPRMC,150737,V,5442.9411,N,11318.4625,W,,,220819,017.7,E*70
01DE7E,0226F3,00C51E,$GPRMC,150738,V,5442.9411,N,11318.4625,W,,,220819,017.7,E*7F
01DE7E,0226F4,00C51F,$GPRMC,150739,V,5442.9411,N,11318.4625,W,,,220819,017.7,E*7E
01DE79,0226EE,00C51C,$GPRMC,150740,V,5442.9411,N,11318.4625,W,,,220819,017.7,E*70
01DE7C,0226EF,00C51D,$GPRMC,150741,V,5442.9411,N,11318.4625,W,,,220819,017.7,E*71
01DE80,0226F6,00C521,$GPRMC,150742,V,5442.9411,N,11318.4625,W,,,220819,017.7,E*72
01DE80,0226F5,00C520,$GPRMC,150743,V,5442.9411,N,11318.4625,W,,,220819,017.7,E*73
01DE80,0226F6,00C520,$GPRMC,150744,V,5442.9411,N,11318.4625,W,,,220819,017.7,E*74
01DE81,0226F7,00C521,$GPRMC,150745,V,5442.9411,N,11318.4625,W,,,220819,017.7,E*75
01DE7E,0226F3,00C51F,$GPRMC,150746,V,5442.9411,N,11318.4625,W,,,220819,017.7,E*76
01DE7B,0226EF,00C51E,$GPRMC,150747,V,5442.9411,N,11318.4625,W,,,220819,017.7,E*77
01DE80,0226F6,00C520,$GPRMC,150748,V,5442.9411,N,11318.4625,W,,,220819,017.7,E*78
01DE7B,0226EE,00C51D,$GPRMC,150749,V,5442.9411,N,11318.4625,W,,,220819,017.7,E*79
01DE7C,0226F0,00C51E,$GPRMC,150750,V,5442.9411,N,11318.4625,W,,,220819,017.7,E*71
01DE80,0226F5,00C520,$GPRMC,150751,V,5442.9411,N,11318.4625,W,,,220819,017.7,E*70
01DE7C,0226EF,00C51E,$GPRMC,150752,V,5442.9411,N,11318.4625,W,,,220819,017.7,E*73
01DE7F,0226F5,00C520,$GPRMC,150753,V,5442.9411,N,11318.4625,W,,,220819,017.7,E*72
01DE7F,0226F5,00C520,$GPRMC,150754,V,5442.9411,N,11318.4625,W,,,220819,017.7,E*75
01DE7E,0226F2,00C51F,$GPRMC,150755,V,5442.9411,N,11318.4625,W,,,220819,017.7,E*74
01DE7C,0226F1,00C51E,$GPRMC,150756,V,5442.9411,N,11318.4625,W,,,220819,017.7,E*77
01DE7E,0226F2,00C520,$GPRMC,150757,V,5442.9411,N,11318.4625,W,,,220819,017.7,E*76
01DE7E,0226F2,00C51F,$GPRMC,150758,V,5442.9411,N,11318.4625,W,,,220819,017.7,E*79
01DE7C,0226F0,00C51E,$GPRMC,150759,V,5442.9411,N,11318.4625,W,,,220819,017.7,E*78
01DE81,0226F6,00C521,$GPRMC,150800,V,5442.9411,N,11318.4625,W,,,220819,017.7,E*7B
01DE7C,0226F1,00C51F,$GPRMC,150801,V,5442.9411,N,11318.4625,W,,,220819,017.7,E*7A
01DE7E,0226F1,00C51F,$GPRMC,150802,V,5442.9411,N,11318.4625,W,,,220819,017.7,E*79
01DE7C,0226EF,00C51E,$GPRMC,150803,V,5442.9411,N,11318.4625,W,,,220819,017.7,E*78
01DE7D,0226F0,00C51F,$GPRMC,150804,V,5442.9411,N,11318.4625,W,,,220819,017.7,E*7F
01DE7F,0226F4,00C520,$GPRMC,150805,V,5442.9411,N,11318.4625,W,,,220819,017.7,E*7E
01DE80,0226F6,00C521,$GPRMC,150806,V,5442.9411,N,11318.4625,W,,,220819,017.7,E*7D
01DE7B,0226F0,00C51E,$GPRMC,150807,V,5442.9411,N,11318.4625,W,,,220819,017.7,E*7C
01DE7E,0226F3,00C520,$GPRMC,150808,V,5442.9411,N,11318.4625,W,,,220819,017.7,E*73
01DE7C,0226F2,00C51F,$GPRMC,150809,V,5442.9411,N,11318.4625,W,,,220819,017.7,E*72
01DE7D,0226F2,00C51E,$GPRMC,150810,V,5442.9411,N,11318.4625,W,,,220819,017.7,E*7A
01DE7D,0226F3,00C51F,$GPRMC,150811,V,5442.9411,N,11318.4625,W,,,220819,017.7,E*7B
01DE7E,0226F5,00C520,$GPRMC,150812,V,5442.9411,N,11318.4625,W,,,220819,017.7,E*78
01DE7C,0226F1,00C51D,$GPRMC,150813,V,5442.9411,N,11318.4625,W,,,220819,017.7,E*79
01DE7C,0226F0,00C51E,$GPRMC,150814,V,5442.9411,N,11318.4625,W,,,220819,017.7,E*7E
01DE7A,0226EF,00C51D,$GPRMC,150815,V,5442.9411,N,11318.4625,W,,,220819,017.7,E*7F
01DE7C,0226F1,00C51E,$GPRMC,150816,V,5442.9411,N,11318.4625,W,,,220819,017.7,E*7C
01DE7E,0226F5,00C51F,$GPRMC,150817,V,5442.9411,N,11318.4625,W,,,220819,017.7,E*7D
01DE7D,0226F4,00C51F,$GPRMC,150818,V,5442.9411,N,11318.4625,W,,,220819,017.7,E*72
01DE7C,0226F3,00C51F,$GPRMC,150819,V,5442.9411,N,11318.4625,W,,,220819,017.7,E*73
01DE7D,0226F4,00C51F,$GPRMC,150820,V,5442.9411,N,11318.4625,W,,,220819,017.7,E*79
01DE7C,0226F3,00C51F,$GPRMC,150821,V,5442.9411,N,11318.4625,W,,,220819,017.7,E*78
01DE7A,0226F1,00C51F,$GPRMC,150822,V,5442.9411,N,11318.4625,W,,,220819,017.7,E*7B
01DE79,0226F0,00C51E,$GPRMC,150823,V,5442.9411,N,11318.4625,W,,,220819,017.7,E*7A
01DE7A,0226F1,00C51F,$GPRMC,150824,V,5442.9411,N,11318.4625,W,,,220819,017.7,E*7D
01DE79,0226F0,00C51F,$GPRMC,150825,V,5442.9411,N,11318.4625,W,,,220819,017.7,E*7C
01DE79,0226F0,00C51F,$GPRMC,150826,V,5442.9411,N,11318.4625,W,,,220819,017.7,E*7F
01DE7A,0226F1,00C51F,$GPRMC,150827,V,5442.9411,N,11318.4625,W,,,220819,017.7,E*7E
01DE79,0226EF,00C520,$GPRMC,150828,V,5442.9411,N,11318.4625,W,,,220819,017.7,E*71
01DE77,0226ED,00C51E,$GPRMC,150829,V,5442.9411,N,11318.4625,W,,,220819,017.7,E*70
01DE77,0226EC,00C51E,$GPRMC,150830,V,5442.9411,N,11318.4625,W,,,220819,017.7,E*78
01DE77,0226EC,00C51E,$GPRMC,150831,V,5442.9411,N,11318.4625,W,,,220819,017.7,E*79
01DE76,0226EA,00C51D,$GPRMC,150832,V,5442.9411,N,11318.4625,W,,,220819,017.7,E*7A
01DE75,0226EA,00C51D,$GPRMC,150833,V,5442.9411,N,11318.4625,W,,,220819,017.7,E*7B
01DE78,0226EF,00C520,$GPRMC,150834,V,5442.9411,N,11318.4625,W,,,220819,017.7,E*7C
01DE76,0226EC,00C51E,$GPRMC,150835,V,5442.9411,N,11318.4625,W,,,220819,017.7,E*7D
01DE7B,0226F3,00C522,$GPRMC,150836,V,5442.9411,N,11318.4625,W,,,220819,017.7,E*7E
01DE78,0226ED,00C51F,$GPRMC,150837,V,5442.9411,N,11318.4625,W,,,220819,017.7,E*7F
01DE74,0226E8,00C51D,$GPRMC,150838,V,5442.9411,N,11318.4625,W,,,220819,017.7,E*70
01DE72,0226E6,00C51C,$GPRMC,150839,V,5442.9411,N,11318.4625,W,,,220819,017.7,E*71
01DE73,0226E7,00C51E,$GPRMC,150840,V,5442.9411,N,11318.4625,W,,,220819,017.7,E*7F
01DE71,0226E6,00C51D,$GPRMC,150841,V,5442.9411,N,11318.4625,W,,,220819,017.7,E*7E
01DE76,0226EC,00C51F,$GPRMC,150842,V,5442.9411,N,11318.4625,W,,,220819,017.7,E*7D
01DE72,0226E7,00C51D,$GPRMC,150843,V,5442.9411,N,11318.4625,W,,,220819,017.7,E*7C
01DE76,0226EC,00C520,$GPRMC,150844,V,5442.9411,N,11318.4625,W,,,220819,017.7,E*7B
01DE73,0226E7,00C51E,$GPRMC,150845,A,5442.9201,N,11318.4655,W,000.0,189.7,220819,017.7,E*6A
01DE76,0226EC,00C520,$GPRMC,150846,A,5442.9159,N,11318.4659,W,000.0,311.6,220819,017.7,E*69
01DE7A,0226F2,00C523,$GPRMC,150847,A,5442.9126,N,11318.4663,W,000.0,311.6,220819,017.7,E*69
01DE77,0226ED,00C521,$GPRMC,150848,A,5442.9103,N,11318.4664,W,000.0,311.6,220819,017.7,E*66
01DE79,0226EE,00C522,$GPRMC,150849,A,5442.9086,N,11318.4665,W,000.0,311.6,220819,017.7,E*6A
01DE77,0226ED,00C521,$GPRMC,150850,A,5442.9079,N,11318.4665,W,000.0,311.6,220819,017.7,E*62
01DE77,0226ED,00C521,$GPRMC,150851,A,5442.9073,N,11318.4665,W,000.0,311.6,220819,017.7,E*69
01DE76,0226EB,00C520,$GPRMC,150852,A,5442.9068,N,11318.4667,W,000.0,311.6,220819,017.7,E*62
01DE76,0226EB,00C520,$GPRMC,150853,A,5442.9062,N,11318.4670,W,000.0,311.6,220819,017.7,E*6F
01DE79,0226F2,00C522,$GPRMC,150854,A,5442.9056,N,11318.4671,W,000.0,311.6,220819,017.7,E*6E
01DE74,0226EB,00C520,$GPRMC,150855,A,5442.9051,N,11318.4673,W,000.0,311.6,220819,017.7,E*6A
01DE78,0226F1,00C522,$GPRMC,150856,A,5442.9047,N,11318.4674,W,000.0,311.6,220819,017.7,E*69
01DE76,0226ED,00C521,$GPRMC,150857,A,5442.9041,N,11318.4676,W,000.0,311.6,220819,017.7,E*6C
01DE79,0226F2,00C523,$GPRMC,150858,A,5442.9035,N,11318.4677,W,000.0,311.6,220819,017.7,E*61
01DE76,0226ED,00C522,$GPRMC,150859,A,5442.9030,N,11318.4679,W,000.0,311.6,220819,017.7,E*6B
01DE78,0226F0,00C523,$GPRMC,150900,A,5442.9025,N,11318.4681,W,000.0,311.6,220819,017.7,E*65
01DE77,0226ED,00C522,$GPRMC,150901,A,5442.9021,N,11318.4683,W,000.0,311.6,220819,017.7,E*62
01DE76,0226EF,00C522,$GPRMC,150902,A,5442.9018,N,11318.4685,W,000.0,311.6,220819,017.7,E*6D
01DE76,0226EC,00C521,$GPRMC,150903,A,5442.9015,N,11318.4686,W,000.0,311.6,220819,017.7,E*62
01DE74,0226EB,00C520,$GPRMC,150904,A,5442.9013,N,11318.4688,W,000.0,311.6,220819,017.7,E*6D
01DE72,0226E9,00C520,$GPRMC,150905,A,5442.9011,N,11318.4690,W,000.0,311.6,220819,017.7,E*67
01DE74,0226EB,00C521,$GPRMC,150906,A,5442.9009,N,11318.4691,W,000.0,311.6,220819,017.7,E*6C
01DE73,0226EC,00C521,$GPRMC,150907,A,5442.9008,N,11318.4692,W,000.0,311.6,220819,017.7,E*6F
01DE75,0226EF,00C522,$GPRMC,150908,A,5442.9007,N,11318.4693,W,000.0,311.6,220819,017.7,E*6E
01DE76,0226EF,00C522,$GPRMC,150909,A,5442.9007,N,11318.4694,W,000.0,311.6,220819,017.7,E*68
01DE72,0226EC,00C520,$GPRMC,150910,A,5442.9006,N,11318.4694,W,000.0,311.6,220819,017.7,E*61
01DE75,0226ED,00C522,$GPRMC,150911,A,5442.9006,N,11318.4695,W,000.0,311.6,220819,017.7,E*61
01DE74,0226ED,00C521,$GPRMC,150912,A,5442.9006,N,11318.4695,W,000.0,311.6,220819,017.7,E*62
01DE74,0226EC,00C520,$GPRMC,150913,A,5442.9006,N,11318.4696,W,000.0,311.6,220819,017.7,E*60
01DE74,0226EC,00C521,$GPRMC,150914,A,5442.9007,N,11318.4696,W,000.0,311.6,220819,017.7,E*66
01DE74,0226ED,00C521,$GPRMC,150915,A,5442.9009,N,11318.4697,W,000.0,311.6,220819,017.7,E*68
01DE72,0226EB,00C520,$GPRMC,150916,A,5442.9011,N,11318.4697,W,000.0,311.6,220819,017.7,E*62
01DE73,0226EC,00C520,$GPRMC,150917,A,5442.9013,N,11318.4697,W,000.0,311.6,220819,017.7,E*61
01DE71,0226E9,00C51F,$GPRMC,150918,A,5442.9016,N,11318.4697,W,000.0,311.6,220819,017.7,E*6B
01DE73,0226EC,00C520,$GPRMC,150919,A,5442.9019,N,11318.4697,W,000.0,311.6,220819,017.7,E*65
01DE72,0226EB,00C520,$GPRMC,150920,A,5442.9022,N,11318.4698,W,000.0,311.6,220819,017.7,E*68
01DE71,0226E9,00C51F,$GPRMC,150921,A,5442.9025,N,11318.4698,W,000.0,311.6,220819,017.7,E*6E
01DE72,0226EA,00C520,$GPRMC,150922,A,5442.9028,N,11318.4698,W,000.0,311.6,220819,017.7,E*60
01DE72,0226E9,00C520,$GPRMC,150923,A,5442.9032,N,11318.4698,W,000.0,311.6,220819,017.7,E*6A
01DE6E,0226E4,00C51F,$GPRMC,150924,A,5442.9037,N,11318.4698,W,000.0,311.6,220819,017.7,E*68
01DE6F,0226E7,00C520,$GPRMC,150925,A,5442.9041,N,11318.4698,W,000.0,311.6,220819,017.7,E*68
01DE70,0226E8,00C520,$GPRMC,150926,A,5442.9045,N,11318.4698,W,000.0,311.6,220819,017.7,E*6F
01DE6C,0226E3,00C51E,$GPRMC,150927,A,5442.9048,N,11318.4698,W,000.0,311.6,220819,017.7,E*63
01DE6D,0226E4,00C51E,$GPRMC,150928,A,5442.9051,N,11318.4698,W,000.0,311.6,220819,017.7,E*64
01DE71,0226EA,00C521,$GPRMC,150929,A,5442.9053,N,11318.4699,W,000.0,311.6,220819,017.7,E*66
01DE73,0226ED,00C522,$GPRMC,150930,A,5442.9056,N,11318.4700,W,000.0,311.6,220819,017.7,E*6A
01DE70,0226EA,00C521,$GPRMC,150931,A,5442.9058,N,11318.4700,W,000.0,311.6,220819,017.7,E*65
01DE6E,0226E6,00C51E,$GPRMC,150932,A,5442.9060,N,11318.4701,W,000.0,311.6,220819,017.7,E*6C
01DE73,0226EC,00C522,$GPRMC,150933,A,5442.9062,N,11318.4701,W,000.0,311.6,220819,017.7,E*6F
01DE6F,0226E8,00C520,$GPRMC,150934,A,5442.9064,N,11318.4702,W,000.0,311.6,220819,017.7,E*6D
01DE71,0226EB,00C521,$GPRMC,150935,A,5442.9063,N,11318.4703,W,000.0,311.6,220819,017.7,E*6A
01DE6F,0226E7,00C520,$GPRMC,150936,A,5442.9062,N,11318.4704,W,000.0,311.6,220819,017.7,E*6F
01DE6E,0226E6,00C521,$GPRMC,150937,A,5442.9061,N,11318.4705,W,000.0,311.6,220819,017.7,E*6C
01DE6E,0226E5,00C520,$GPRMC,150938,A,5442.9061,N,11318.4706,W,000.0,311.6,220819,017.7,E*60
01DE6C,0226E2,00C51E,$GPRMC,150939,A,5442.9060,N,11318.4707,W,000.0,311.6,220819,017.7,E*61
01DE70,0226E6,00C520,$GPRMC,150940,A,5442.9059,N,11318.4708,W,000.0,311.6,220819,017.7,E*6A
01DE6F,0226E6,00C520,$GPRMC,150941,A,5442.9057,N,11318.4710,W,000.0,311.6,220819,017.7,E*6C
01DE6E,0226E6,00C521,$GPRMC,150942,A,5442.9055,N,11318.4711,W,000.0,311.6,220819,017.7,E*6C
01DE71,0226EA,00C522,$GPRMC,150943,A,5442.9054,N,11318.4712,W,000.0,311.6,220819,017.7,E*6F
01DE6E,0226E5,00C520,$GPRMC,150944,A,5442.9052,N,11318.4714,W,000.0,311.6,220819,017.7,E*68
01DE6C,0226E3,00C520,$GPRMC,150945,A,5442.9050,N,11318.4715,W,000.0,311.6,220819,017.7,E*6A
01DE6E,0226E5,00C521,$GPRMC,150946,A,5442.9048,N,11318.4717,W,000.0,311.6,220819,017.7,E*62
01DE6E,0226E4,00C520,$GPRMC,150947,A,5442.9046,N,11318.4719,W,000.0,311.6,220819,017.7,E*63
01DE6D,0226E5,00C520,$GPRMC,150948,A,5442.9044,N,11318.4720,W,000.0,311.6,220819,017.7,E*64
01DE6C,0226E2,00C520,$GPRMC,150949,A,5442.9041,N,11318.4721,W,000.0,311.6,220819,017.7,E*61
01DE6F,0226E8,00C522,$GPRMC,150950,A,5442.9038,N,11318.4722,W,000.0,311.6,220819,017.7,E*64
01DE6F,0226E6,00C521,$GPRMC,150951,A,5442.9035,N,11318.4723,W,000.0,311.6,220819,017.7,E*69
01DE70,0226E8,00C522,$GPRMC,150952,A,5442.9033,N,11318.4724,W,000.0,311.6,220819,017.7,E*6B
01DE72,0226EB,00C524,$GPRMC,150953,A,5442.9030,N,11318.4725,W,000.0,311.6,220819,017.7,E*68
01DE6F,0226E6,00C522,$GPRMC,150954,A,5442.9026,N,11318.4725,W,000.0,311.6,220819,017.7,E*68
01DE72,0226EC,00C524,$GPRMC,150955,A,5442.9022,N,11318.4726,W,000.0,311.6,220819,017.7,E*6E
01DE72,0226EC,00C524,$GPRMC,150956,A,5442.9018,N,11318.4726,W,000.0,311.6,220819,017.7,E*64
01DE6C,0226E4,00C521,$GPRMC,150957,A,5442.9013,N,11318.4727,W,000.0,311.6,220819,017.7,E*6F
01DE6E,0226E7,00C522,$GPRMC,150958,A,5442.9010,N,11318.4727,W,000.0,311.6,220819,017.7,E*63
01DE70,0226EA,00C524,$GPRMC,150959,A,5442.9008,N,11318.4727,W,000.0,311.6,220819,017.7,E*6B
01DE70,0226E9,00C524,$GPRMC,151000,A,5442.9006,N,11318.4727,W,000.0,311.6,220819,017.7,E*61
01DE6C,0226E6,00C521,$GPRMC,151001,A,5442.9006,N,11318.4726,W,000.0,311.6,220819,017.7,E*61
01DE6D,0226E7,00C522,$GPRMC,151002,A,5442.9006,N,11318.4725,W,000.0,311.6,220819,017.7,E*61
01DE6F,0226E9,00C524,$GPRMC,151003,A,5442.9007,N,11318.4724,W,000.0,311.6,220819,017.7,E*60
01DE70,0226ED,00C525,$GPRMC,151004,A,5442.9009,N,11318.4723,W,000.0,311.6,220819,017.7,E*6E
01DE6C,0226E5,00C522,$GPRMC,151005,A,5442.9011,N,11318.4721,W,000.0,311.6,220819,017.7,E*64
01DE70,0226EA,00C524,$GPRMC,151006,A,5442.9013,N,11318.4720,W,000.0,311.6,220819,017.7,E*64
01DE6E,0226E9,00C523,$GPRMC,151007,A,5442.9017,N,11318.4718,W,000.0,311.6,220819,017.7,E*6A
01DE70,0226EA,00C524,$GPRMC,151008,A,5442.9021,N,11318.4717,W,000.0,311.6,220819,017.7,E*6F
01DE6C,0226E4,00C522,$GPRMC,151009,A,5442.9026,N,11318.4715,W,000.0,311.6,220819,017.7,E*6B
01DE6E,0226E8,00C523,$GPRMC,151010,A,5442.9031,N,11318.4714,W,000.0,311.6,220819,017.7,E*64
01DE6C,0226E6,00C522,$GPRMC,151011,A,5442.9037,N,11318.4712,W,000.0,311.6,220819,017.7,E*65
01DE6D,0226E6,00C522,$GPRMC,151012,A,5442.9042,N,11318.4711,W,000.0,311.6,220819,017.7,E*67
01DE6D,0226E7,00C523,$GPRMC,151013,A,5442.9047,N,11318.4711,W,000.0,311.6,220819,017.7,E*63
01DE6D,0226E8,00C523,$GPRMC,151014,A,5442.9052,N,11318.4709,W,000.0,311.6,220819,017.7,E*69
01DE6C,0226E6,00C522,$GPRMC,151015,A,5442.9057,N,11318.4708,W,000.0,311.6,220819,017.7,E*6C
01DE6F,0226EA,00C524,$GPRMC,151016,A,5442.9062,N,11318.4708,W,000.0,311.6,220819,017.7,E*69
01DE6E,0226EB,00C524,$GPRMC,151017,A,5442.9068,N,11318.4706,W,000.0,311.6,220819,017.7,E*6C
01DE6E,0226E8,00C524,$GPRMC,151018,A,5442.9075,N,11318.4704,W,000.0,311.6,220819,017.7,E*6D
01DE6D,0226E8,00C523,$GPRMC,151019,A,5442.9082,N,11318.4701,W,000.0,311.6,220819,017.7,E*61
01DE6E,0226E7,00C523,$GPRMC,151020,A,5442.9090,N,11318.4698,W,000.0,311.6,220819,017.7,E*69
01DE6B,0226E4,00C521,$GPRMC,151021,A,5442.9098,N,11318.4695,W,000.0,311.6,220819,017.7,E*6D
01DE6B,0226E3,00C521,$GPRMC,151022,A,5442.9107,N,11318.4691,W,000.0,311.6,220819,017.7,E*6D
01DE6C,0226E6,00C523,$GPRMC,151023,A,5442.9115,N,11318.4687,W,000.0,311.6,220819,017.7,E*68
01DE6A,0226E1,00C521,$GPRMC,151024,A,5442.9123,N,11318.4684,W,000.0,311.6,220819,017.7,E*69
01DE6E,0226E7,00C524,$GPRMC,151025,A,5442.9131,N,11318.4680,W,000.0,311.6,220819,017.7,E*6F
01DE68,0226DF,00C521,$GPRMC,151026,A,5442.9135,N,11318.4678,W,000.0,311.6,220819,017.7,E*6F
01DE69,0226E1,00C521,$GPRMC,151027,A,5442.9140,N,11318.4674,W,000.0,311.6,220819,017.7,E*60
01DE68,0226E0,00C521,$GPRMC,151028,A,5442.9144,N,11318.4671,W,000.0,311.6,220819,017.7,E*6E
01DE6C,0226E4,00C524,$GPRMC,151029,A,5442.9148,N,11318.4669,W,000.0,311.6,220819,017.7,E*6A
01DE6B,0226E4,00C523,$GPRMC,151030,A,5442.9150,N,11318.4666,W,000.0,311.6,220819,017.7,E*64
01DE6B,0226E4,00C523,$GPRMC,151031,A,5442.9154,N,11318.4662,W,000.0,311.6,220819,017.7,E*65
01DE6A,0226E3,00C522,$GPRMC,151032,A,5442.9157,N,11318.4658,W,000.0,311.6,220819,017.7,E*6C
01DE6C,0226E4,00C523,$GPRMC,151033,A,5442.9159,N,11318.4655,W,000.0,311.6,220819,017.7,E*6E
01DE6E,0226E8,00C525,$GPRMC,151034,A,5442.9162,N,11318.4653,W,000.0,311.6,220819,017.7,E*67
01DE6E,0226E9,00C526,$GPRMC,151035,A,5442.9165,N,11318.4650,W,000.0,311.6,220819,017.7,E*62
01DE6C,0226E7,00C525,$GPRMC,151036,A,5442.9167,N,11318.4648,W,000.0,311.6,220819,017.7,E*6A
01DE6C,0226E7,00C525,$GPRMC,151037,A,5442.9171,N,11318.4646,W,000.0,311.6,220819,017.7,E*62
01DE6C,0226E7,00C525,$GPRMC,151038,A,5442.9175,N,11318.4644,W,000.0,311.6,220819,017.7,E*6B
01DE69,0226E3,00C524,$GPRMC,151039,A,5442.9179,N,11318.4642,W,000.0,311.6,220819,017.7,E*60
01DE6D,0226EA,00C526,$GPRMC,151040,A,5442.9185,N,11318.4640,W,000.0,311.6,220819,017.7,E*6F
01DE69,0226E3,00C523,$GPRMC,151041,A,5442.9190,N,11318.4638,W,000.0,311.6,220819,017.7,E*65
01DE6A,0226E6,00C524,$GPRMC,151042,A,5442.9196,N,11318.4636,W,000.0,311.6,220819,017.7,E*6E
01DE6B,0226E6,00C525,$GPRMC,151043,A,5442.9201,N,11318.4634,W,000.0,311.6,220819,017.7,E*60
01DE6A,0226E7,00C525,$GPRMC,151044,A,5442.9207,N,11318.4632,W,000.0,311.6,220819,017.7,E*67
01DE6C,0226E7,00C525,$GPRMC,151045,A,5442.9209,N,11318.4630,W,000.0,311.6,220819,017.7,E*6A
01DE68,0226E3,00C523,$GPRMC,151046,A,5442.9211,N,11318.4628,W,000.0,311.6,220819,017.7,E*69
01DE69,0226E6,00C524,$GPRMC,151047,A,5442.9214,N,11318.4626,W,000.0,311.6,220819,017.7,E*63
