01DDBF,022565,00C518,$GPRMC,225953,A,5442.9425,N,11318.4642,W,000.0,023.7,210819,017.7,E*69
01DDBF,022567,00C518,$GPRMC,225954,A,5442.9424,N,11318.4642,W,000.0,023.7,210819,017.7,E*6F
01DDC2,02256A,00C519,$GPRMC,225955,A,5442.9422,N,11318.4641,W,000.0,023.7,210819,017.7,E*6B
01DDC0,022568,00C519,$GPRMC,225956,A,5442.9421,N,11318.4640,W,000.0,023.7,210819,017.7,E*6A
01DDC1,022567,00C519,$GPRMC,225957,A,5442.9421,N,11318.4639,W,000.0,023.7,210819,017.7,E*65
01DDC1,022566,00C519,$GPRMC,225958,A,5442.9420,N,11318.4638,W,000.0,023.7,210819,017.7,E*6A
01DDC2,022568,00C519,$GPRMC,225959,A,5442.9419,N,11318.4637,W,000.0,023.7,210819,017.7,E*6E
01DDC3,022569,00C51A,$GPRMC,230000,A,5442.9418,N,11318.4635,W,000.0,023.7,210819,017.7,E*6C
01DDC2,022567,00C519,$GPRMC,230001,A,5442.9418,N,11318.4635,W,000.0,023.7,210819,017.7,E*6D
01DDC5,02256B,00C51B,$GPRMC,230002,A,5442.9419,N,11318.4635,W,000.0,023.7,210819,017.7,E*6F
01DDBF,022563,00C517,$GPRMC,230003,A,5442.9420,N,11318.4633,W,000.0,023.7,210819,017.7,E*62
01DDC2,022567,00C519,$GPRMC,230004,A,5442.9421,N,11318.4632,W,000.0,023.7,210819,017.7,E*65
01DDC8,02256E,00C51C,$GPRMC,230005,A,5442.9422,N,11318.4631,W,000.0,023.7,210819,017.7,E*64
01DDC4,022568,00C519,$GPRMC,230006,A,5442.9424,N,11318.4631,W,000.0,023.7,210819,017.7,E*61
01DDC5,022569,00C51A,$GPRMC,230007,A,5442.9426,N,11318.4630,W,000.0,023.7,210819,017.7,E*63
01DDC4,022569,00C51A,$GPRMC,230008,A,5442.9428,N,11318.4631,W,000.0,023.7,210819,017.7,E*63
01DDC3,022566,00C519,$GPRMC,230009,A,5442.9431,N,11318.4632,W,000.0,023.7,210819,017.7,E*69
01DDC5,022569,00C51A,$GPRMC,230010,A,5442.9434,N,11318.4633,W,000.0,023.7,210819,017.7,E*65
01DDC4,022567,00C51A,$GPRMC,230011,A,5442.9435,N,11318.4633,W,000.0,023.7,210819,017.7,E*65
01DDC3,022566,00C51A,$GPRMC,230012,A,5442.9436,N,11318.4634,W,000.0,023.7,210819,017.7,E*62
01DDC5,022567,00C51A,$GPRMC,230013,A,5442.9437,N,11318.4634,W,000.0,023.7,210819,017.7,E*62
01DDC5,022567,00C51B,$GPRMC,230014,A,5442.9437,N,11318.4634,W,000.0,023.7,210819,017.7,E*65
01DDC2,022563,00C519,$GPRMC,230015,A,5442.9436,N,11318.4634,W,000.0,023.7,210819,017.7,E*65
01DDC5,022566,00C51A,$GPRMC,230016,A,5442.9435,N,11318.4634,W,000.0,023.7,210819,017.7,E*65
01DDC8,022569,00C51C,$GPRMC,230017,A,5442.9434,N,11318.4634,W,000.0,023.7,210819,017.7,E*65
01DDC2,022563,00C519,$GPRMC,230018,A,5442.9437,N,11318.4637,W,000.0,023.7,210819,017.7,E*6A
01DDC4,022564,00C519,$GPRMC,230019,A,5442.9439,N,11318.4640,W,000.0,023.7,210819,017.7,E*65
01DDC6,022568,00C51A,$GPRMC,230020,A,5442.9439,N,11318.4642,W,000.0,023.7,210819,017.7,E*6D
01DDC4,022563,00C519,$GPRMC,230021,A,5442.9435,N,11318.4640,W,000.0,023.7,210819,017.7,E*62
01DDC1,022562,00C519,$GPRMC,230022,A,5442.9433,N,11318.4639,W,000.0,023.7,210819,017.7,E*69
01DDC6,022568,00C51A,$GPRMC,230023,A,5442.9431,N,11318.4639,W,000.0,023.7,210819,017.7,E*6A
01DDC5,022566,00C51A,$GPRMC,230024,A,5442.9430,N,11318.4639,W,000.0,023.7,210819,017.7,E*6C
01DDC5,022566,00C51A,$GPRMC,230025,A,5442.9429,N,11318.4639,W,000.0,023.7,210819,017.7,E*65
01DDC7,022569,00C51B,$GPRMC,230026,A,5442.9428,N,11318.4640,W,000.0,023.7,210819,017.7,E*69
01DDC6,022569,00C51B,$GPRMC,230027,A,5442.9428,N,11318.4640,W,000.0,023.7,210819,017.7,E*68
01DDC5,022565,00C51B,$GPRMC,230028,A,5442.9428,N,11318.4641,W,000.0,023.7,210819,017.7,E*66
01DDC4,022566,00C51B,$GPRMC,230029,A,5442.9428,N,11318.4642,W,000.0,023.7,210819,017.7,E*64
01DDC3,022561,00C519,$GPRMC,230030,A,5442.9428,N,11318.4643,W,000.0,023.7,210819,017.7,E*6D
01DDC5,022564,00C51B,$GPRMC,230031,A,5442.9429,N,11318.4645,W,000.0,023.7,210819,017.7,E*6B
01DDC4,022563,00C51B,$GPRMC,230032,A,5442.9429,N,11318.4646,W,000.0,023.7,210819,017.7,E*6B
01DDC1,02255E,00C519,$GPRMC,230033,A,5442.9429,N,11318.4647,W,000.0,023.7,210819,017.7,E*6B
01DDC4,022561,00C51A,$GPRMC,230034,A,5442.9431,N,11318.4649,W,000.0,023.7,210819,017.7,E*6B
01DDC2,02255E,00C518,$GPRMC,230035,A,5442.9432,N,11318.4651,W,000.0,023.7,210819,017.7,E*60
01DDC4,022563,00C51A,$GPRMC,230036,A,5442.9432,N,11318.4652,W,000.0,023.7,210819,017.7,E*60
01DDC3,02255F,00C51A,$GPRMC,230037,A,5442.9433,N,11318.4653,W,000.0,023.7,210819,017.7,E*61
01DDC1,02255F,00C519,$GPRMC,230038,A,5442.9434,N,11318.4654,W,000.0,023.7,210819,017.7,E*6E
01DDC2,02255F,00C519,$GPRMC,230039,A,5442.9435,N,11318.4656,W,000.0,023.7,210819,017.7,E*6C
01DDC5,022564,00C51B,$GPRMC,230040,A,5442.9436,N,11318.4657,W,000.0,023.7,210819,017.7,E*60
01DDC5,022563,00C51A,$GPRMC,230041,A,5442.9437,N,11318.4659,W,000.0,023.7,210819,017.7,E*6E
01DDC5,022564,00C51B,$GPRMC,230042,A,5442.9438,N,11318.4659,W,000.0,023.7,210819,017.7,E*62
01DDC3,022562,00C51A,$GPRMC,230043,A,5442.9439,N,11318.4660,W,000.0,023.7,210819,017.7,E*68
01DDC4,022563,00C51B,$GPRMC,230044,A,5442.9439,N,11318.4660,W,000.0,023.7,210819,017.7,E*6F
01DDC4,022564,00C51A,$GPRMC,230045,A,5442.9439,N,11318.4658,W,000.0,023.7,210819,017.7,E*65
01DDC5,022564,00C51A,$GPRMC,230046,A,5442.9440,N,11318.4659,W,000.0,023.7,210819,017.7,E*69
01DDC3,022561,00C519,$GPRMC,230047,A,5442.9441,N,11318.4659,W,000.0,023.7,210819,017.7,E*69
01DDC6,022567,00C51A,$GPRMC,230048,A,5442.9439,N,11318.4656,W,000.0,023.7,210819,017.7,E*66
01DDC7,022568,00C51B,$GPRMC,230049,A,5442.9438,N,11318.4654,W,000.0,023.7,210819,017.7,E*64
01DDC2,022561,00C518,$GPRMC,230050,A,5442.9437,N,11318.4654,W,000.0,023.7,210819,017.7,E*63
01DDC5,022566,00C519,$GPRMC,230051,A,5442.9436,N,11318.4653,W,000.0,023.7,210819,017.7,E*64
01DDC8,022569,00C51B,$GPRMC,230052,A,5442.9435,N,11318.4652,W,000.0,023.7,210819,017.7,E*65
01DDC3,022563,00C518,$GPRMC,230053,A,5442.9433,N,11318.4650,W,000.0,023.7,210819,017.7,E*60
01DDC2,022561,00C518,$GPRMC,230054,A,5442.9428,N,11318.4646,W,000.0,023.7,210819,017.7,E*6A
01DDC6,022567,00C51A,$GPRMC,230055,A,5442.9427,N,11318.4645,W,000.0,023.7,210819,017.7,E*67
01DDC4,022564,00C519,$GPRMC,230056,A,5442.9425,N,11318.4645,W,000.0,023.7,210819,017.7,E*66
01DDC5,022565,00C51A,$GPRMC,230057,A,5442.9424,N,11318.4644,W,000.0,023.7,210819,017.7,E*67
01DDC5,022564,00C51A,$GPRMC,230058,A,5442.9422,N,11318.4643,W,000.0,023.7,210819,017.7,E*69
01DDC8,022569,00C51C,$GPRMC,230059,A,5442.9421,N,11318.4642,W,000.0,023.7,210819,017.7,E*6A
01DDC2,022561,00C519,$GPRMC,230100,A,5442.9419,N,11318.4641,W,000.0,023.7,210819,017.7,E*6F
01DDC4,022563,00C51A,$GPRMC,230101,A,5442.9418,N,11318.4641,W,000.0,023.7,210819,017.7,E*6F
01DDCA,02256B,00C51D,$GPRMC,230102,A,5442.9418,N,11318.4641,W,000.0,023.7,210819,017.7,E*6C
01DDC8,022568,00C51C,$GPRMC,230103,A,5442.9418,N,11318.4641,W,000.0,023.7,210819,017.7,E*6D
01DDC7,022568,00C51B,$GPRMC,230104,A,5442.9417,N,11318.4641,W,000.0,023.7,210819,017.7,E*65
01DDC6,022565,00C51A,$GPRMC,230105,A,5442.9416,N,11318.4641,W,000.0,023.7,210819,017.7,E*65
01DDC8,022569,00C51C,$GPRMC,230106,A,5442.9414,N,11318.4641,W,000.0,023.7,210819,017.7,E*64
01DDC4,022562,00C519,$GPRMC,230107,A,5442.9413,N,11318.4641,W,000.0,023.7,210819,017.7,E*62
01DDC2,022561,00C518,$GPRMC,230108,A,5442.9413,N,11318.4643,W,000.0,023.7,210819,017.7,E*6F
01DDC8,02256A,00C51C,$GPRMC,230109,A,5442.9412,N,11318.4643,W,000.0,023.7,210819,017.7,E*6F
01DDC4,022564,00C51A,$GPRMC,230110,A,5442.9411,N,11318.4643,W,000.0,023.7,210819,017.7,E*64
01DDC5,022566,00C51A,$GPRMC,230111,A,5442.9410,N,11318.4643,W,000.0,023.7,210819,017.7,E*64
01DDC6,022567,00C51B,$GPRMC,230112,A,5442.9409,N,11318.4643,W,000.0,023.7,210819,017.7,E*6F
01DDC8,022569,00C51B,$GPRMC,230113,A,5442.9409,N,11318.4642,W,000.0,023.7,210819,017.7,E*6F
01DDC5,022566,00C519,$GPRMC,230114,A,5442.9408,N,11318.4640,W,000.0,023.7,210819,017.7,E*6B
01DDC7,022568,00C51A,$GPRMC,230115,A,5442.9408,N,11318.4640,W,000.0,023.7,210819,017.7,E*6A
01DDC9,02256B,00C51B,$GPRMC,230116,A,5442.9408,N,11318.4639,W,000.0,023.7,210819,017.7,E*67
01DDCB,02256E,00C51D,$GPRMC,230117,A,5442.9409,N,11318.4638,W,000.0,023.7,210819,017.7,E*66
01DDC7,022568,00C51A,$GPRMC,230118,A,5442.9409,N,11318.4637,W,000.0,023.7,210819,017.7,E*66
01DDC9,02256B,00C51B,$GPRMC,230119,A,5442.9410,N,11318.4636,W,000.0,023.7,210819,017.7,E*6E
01DDC6,022568,00C51B,$GPRMC,230120,A,5442.9411,N,11318.4634,W,000.0,023.7,210819,017.7,E*67
01DDC8,022569,00C51B,$GPRMC,230121,A,5442.9412,N,11318.4636,W,000.0,023.7,210819,017.7,E*67
01DDCA,02256D,00C51C,$GPRMC,230122,A,5442.9412,N,11318.4638,W,000.0,023.7,210819,017.7,E*6A
01DDC5,022566,00C519,$GPRMC,230123,A,5442.9409,N,11318.4635,W,000.0,023.7,210819,017.7,E*6C
01DDC6,022566,00C519,$GPRMC,230124,A,5442.9409,N,11318.4633,W,000.0,023.7,210819,017.7,E*6D
01DDC9,02256A,00C51B,$GPRMC,230125,A,5442.9409,N,11318.4632,W,000.0,023.7,210819,017.7,E*6D
01DDC6,022567,00C51A,$GPRMC,230126,A,5442.9409,N,11318.4631,W,000.0,023.7,210819,017.7,E*6D
01DDC9,02256C,00C51C,$GPRMC,230127,A,5442.9408,N,11318.4630,W,000.0,023.7,210819,017.7,E*6C
01DDC5,022566,00C51A,$GPRMC,230128,A,5442.9409,N,11318.4630,W,000.0,023.7,210819,017.7,E*62
01DDC7,022569,00C51B,$GPRMC,230129,A,5442.9409,N,11318.4629,W,000.0,023.7,210819,017.7,E*6B
01DDC6,022566,00C51A,$GPRMC,230130,A,5442.9409,N,11318.4630,W,000.0,023.7,210819,017.7,E*6B
01DDC9,02256C,00C51D,$GPRMC,230131,A,5442.9408,N,11318.4629,W,000.0,023.7,210819,017.7,E*63
01DDC9,02256B,00C51D,$GPRMC,230132,A,5442.9406,N,11318.4628,W,000.0,023.7,210819,017.7,E*6F
01DDC5,022565,00C51A,$GPRMC,230133,A,5442.9404,N,11318.4627,W,000.0,023.7,210819,017.7,E*63
01DDC8,02256A,00C51C,$GPRMC,230134,A,5442.9403,N,11318.4627,W,000.0,023.7,210819,017.7,E*63
01DDC8,02256A,00C51C,$GPRMC,230135,A,5442.9402,N,11318.4626,W,000.0,023.7,210819,017.7,E*62
01DDC4,022563,00C519,$GPRMC,230136,A,5442.9400,N,11318.4626,W,000.0,023.7,210819,017.7,E*63
01DDC2,022560,00C518,$GPRMC,230137,A,5442.9399,N,11318.4626,W,000.0,023.7,210819,017.7,E*65
01DDC9,02256A,00C51D,$GPRMC,230138,A,5442.9398,N,11318.4626,W,000.0,023.7,210819,017.7,E*6B
01DDC6,022564,00C51A,$GPRMC,230139,A,5442.9397,N,11318.4626,W,000.0,023.7,210819,017.7,E*65
01DDC3,022562,00C51A,$GPRMC,230140,A,5442.9397,N,11318.4625,W,000.0,023.7,210819,017.7,E*68
01DDC8,022568,00C51B,$GPRMC,230141,A,5442.9397,N,11318.4623,W,000.0,023.7,210819,017.7,E*6F
01DDC6,022568,00C518,$GPRMC,230142,A,5442.9397,N,11318.4622,W,000.0,023.7,210819,017.7,E*6D
01DDBF,022560,00C515,$GPRMC,230143,A,5442.9397,N,11318.4621,W,000.0,023.7,210819,017.7,E*6F
01DDC3,022565,00C515,$GPRMC,230144,A,5442.9397,N,11318.4619,W,000.0,023.7,210819,017.7,E*63
01DDC5,022569,00C517,$GPRMC,230145,A,5442.9397,N,11318.4618,W,000.0,023.7,210819,017.7,E*63
01DDC7,02256A,00C518,$GPRMC,230146,A,5442.9397,N,11318.4618,W,000.0,023.7,210819,017.7,E*60
01DDC2,022562,00C514,$GPRMC,230147,A,5442.9397,N,11318.4616,W,000.0,023.7,210819,017.7,E*6F
01DDCA,022570,00C519,$GPRMC,230148,A,5442.9396,N,11318.4619,W,000.0,023.7,210819,017.7,E*6E
01DDC8,02256D,00C518,$GPRMC,230149,A,5442.9396,N,11318.4620,W,000.0,023.7,210819,017.7,E*65
01DDC6,02256A,00C517,$GPRMC,230150,A,5442.9395,N,11318.4621,W,000.0,023.7,210819,017.7,E*6F
01DDC7,02256C,00C518,$GPRMC,230151,A,5442.9395,N,11318.4622,W,000.0,023.7,210819,017.7,E*6D
01DDCA,022570,00C51A,$GPRMC,230152,A,5442.9396,N,11318.4623,W,000.0,023.7,210819,017.7,E*6C
01DDC9,02256F,00C519,$GPRMC,230153,A,5442.9396,N,11318.4623,W,000.0,023.7,210819,017.7,E*6D
01DDC7,02256B,00C518,$GPRMC,230154,A,5442.9390,N,11318.4623,W,000.0,023.7,210819,017.7,E*6C
01DDC7,02256B,00C518,$GPRMC,230155,A,5442.9386,N,11318.4624,W,000.0,023.7,210819,017.7,E*6D
01DDCA,02256F,00C519,$GPRMC,230156,A,5442.9383,N,11318.4625,W,000.0,023.7,210819,017.7,E*6A
01DDCB,022571,00C51A,$GPRMC,230157,A,5442.9381,N,11318.4626,W,000.0,023.7,210819,017.7,E*6A
01DDC9,02256D,00C519,$GPRMC,230158,A,5442.9379,N,11318.4627,W,000.0,023.7,210819,017.7,E*63
01DDC8,02256C,00C518,$GPRMC,230159,A,5442.9378,N,11318.4628,W,000.0,023.7,210819,017.7,E*6C
01DDCC,022571,00C51A,$GPRMC,230200,A,5442.9376,N,11318.4629,W,000.0,023.7,210819,017.7,E*6C
01DDC9,02256D,00C519,$GPRMC,230201,A,5442.9375,N,11318.4629,W,000.0,023.7,210819,017.7,E*6E
01DDCB,022571,00C51A,$GPRMC,230202,A,5442.9374,N,11318.4629,W,000.0,023.7,210819,017.7,E*6C
01DDC7,02256B,00C518,$GPRMC,230203,A,5442.9373,N,11318.4629,W,000.0,023.7,210819,017.7,E*6A
01DDCF,022576,00C51C,$GPRMC,230204,A,5442.9372,N,11318.4630,W,000.0,023.7,210819,017.7,E*64
01DDC6,02256A,00C517,$GPRMC,230205,A,5442.9372,N,11318.4630,W,000.0,023.7,210819,017.7,E*65
01DDCC,022572,00C51B,$GPRMC,230206,A,5442.9372,N,11318.4630,W,000.0,023.7,210819,017.7,E*66
01DDC8,02256B,00C519,$GPRMC,230207,A,5442.9373,N,11318.4629,W,000.0,023.7,210819,017.7,E*6E
01DDC9,02256D,00C51A,$GPRMC,230208,A,5442.9374,N,11318.4629,W,000.0,023.7,210819,017.7,E*66
01DDC5,022567,00C517,$GPRMC,230209,A,5442.9374,N,11318.4625,W,000.0,023.7,210819,017.7,E*6B
01DDC5,022568,00C517,$GPRMC,230210,A,5442.9374,N,11318.4622,W,000.0,023.7,210819,017.7,E*64
01DDC8,02256D,00C519,$GPRMC,230211,A,5442.9375,N,11318.4621,W,000.0,023.7,210819,017.7,E*67
01DDC7,02256B,00C519,$GPRMC,230212,A,5442.9375,N,11318.4622,W,000.0,023.7,210819,017.7,E*67
01DDC7,02256D,00C519,$GPRMC,230213,A,5442.9376,N,11318.4622,W,000.0,023.7,210819,017.7,E*65
01DDC9,02256F,00C51A,$GPRMC,230214,A,5442.9377,N,11318.4622,W,000.0,023.7,210819,017.7,E*63
01DDC2,022567,00C516,$GPRMC,230215,A,5442.9377,N,11318.4619,W,000.0,023.7,210819,017.7,E*6A
01DDC5,02256A,00C518,$GPRMC,230216,A,5442.9378,N,11318.4619,W,000.0,023.7,210819,017.7,E*66
01DDC3,022567,00C517,$GPRMC,230217,A,5442.9378,N,11318.4616,W,000.0,023.7,210819,017.7,E*68
01DDC5,02256A,00C518,$GPRMC,230218,A,5442.9378,N,11318.4616,W,000.0,023.7,210819,017.7,E*67
01DDC7,02256E,00C51A,$GPRMC,230219,A,5442.9379,N,11318.4617,W,000.0,023.7,210819,017.7,E*66
01DDC6,02256B,00C518,$GPRMC,230220,A,5442.9379,N,11318.4617,W,000.0,023.7,210819,017.7,E*6C
01DDC9,022571,00C51A,$GPRMC,230221,A,5442.9380,N,11318.4618,W,000.0,023.7,210819,017.7,E*64
01DDC7,02256E,00C519,$GPRMC,230222,A,5442.9381,N,11318.4617,W,000.0,023.7,210819,017.7,E*69
01DDC5,02256A,00C518,$GPRMC,230223,A,5442.9382,N,11318.4620,W,000.0,023.7,210819,017.7,E*6F
01DDC7,02256E,00C519,$GPRMC,230224,A,5442.9383,N,11318.4623,W,000.0,023.7,210819,017.7,E*6A
01DDC8,02256F,00C519,$GPRMC,230225,A,5442.9383,N,11318.4625,W,000.0,023.7,210819,017.7,E*6D
01DDC7,02256E,00C518,$GPRMC,230226,A,5442.9384,N,11318.4628,W,000.0,023.7,210819,017.7,E*64
01DDC9,022570,00C519,$GPRMC,230227,A,5442.9385,N,11318.4631,W,000.0,023.7,210819,017.7,E*6C
01DDC8,02256E,00C518,$GPRMC,230228,A,5442.9386,N,11318.4631,W,000.0,023.7,210819,017.7,E*60
01DDC7,02256E,00C518,$GPRMC,230229,A,5442.9387,N,11318.4631,W,000.0,023.7,210819,017.7,E*60
01DDC6,02256B,00C517,$GPRMC,230230,A,5442.9388,N,11318.4630,W,000.0,023.7,210819,017.7,E*66
01DDC9,02256F,00C518,$GPRMC,230231,A,5442.9389,N,11318.4631,W,000.0,023.7,210819,017.7,E*67
01DDCA,022571,00C519,$GPRMC,230232,A,5442.9390,N,11318.4632,W,000.0,023.7,210819,017.7,E*6F
01DDCA,022571,00C519,$GPRMC,230233,A,5442.9391,N,11318.4634,W,000.0,023.7,210819,017.7,E*69
01DDC7,02256D,00C517,$GPRMC,230234,A,5442.9392,N,11318.4636,W,000.0,023.7,210819,017.7,E*6F
01DDCB,022573,00C51A,$GPRMC,230235,A,5442.9393,N,11318.4637,W,000.0,023.7,210819,017.7,E*6E
01DDC8,02256E,00C518,$GPRMC,230236,A,5442.9393,N,11318.4638,W,000.0,023.7,210819,017.7,E*62
01DDC5,02256A,00C516,$GPRMC,230237,A,5442.9389,N,11318.4634,W,000.0,023.7,210819,017.7,E*64
01DDCB,022573,00C51A,$GPRMC,230238,A,5442.9388,N,11318.4633,W,000.0,023.7,210819,017.7,E*6D
01DDC9,02256F,00C519,$GPRMC,230239,A,5442.9387,N,11318.4633,W,000.0,023.7,210819,017.7,E*63
01DDC9,02256E,00C519,$GPRMC,230240,A,5442.9387,N,11318.4634,W,000.0,023.7,210819,017.7,E*6A
01DDCA,02256F,00C519,$GPRMC,230241,A,5442.9386,N,11318.4633,W,000.0,023.7,210819,017.7,E*6D
01DDCB,022570,00C51A,$GPRMC,230242,A,5442.9385,N,11318.4634,W,000.0,023.7,210819,017.7,E*6A
01DDCB,02256E,00C51A,$GPRMC,230243,A,5442.9384,N,11318.4634,W,000.0,023.7,210819,017.7,E*6A
01DDCC,022570,00C51A,$GPRMC,230244,A,5442.9383,N,11318.4635,W,000.0,023.7,210819,017.7,E*6B
01DDCB,02256E,00C519,$GPRMC,230245,A,5442.9382,N,11318.4636,W,000.0,023.7,210819,017.7,E*68
01DDCA,02256C,00C518,$GPRMC,230246,A,5442.9379,N,11318.4638,W,000.0,023.7,210819,017.7,E*61
01DDCC,022570,00C51A,$GPRMC,230247,A,5442.9377,N,11318.4640,W,000.0,023.7,210819,017.7,E*61
01DDCB,02256F,00C519,$GPRMC,230248,A,5442.9376,N,11318.4642,W,000.0,023.7,210819,017.7,E*6D
01DDCB,022571,00C51A,$GPRMC,230249,A,5442.9374,N,11318.4644,W,000.0,023.7,210819,017.7,E*68
01DDC9,02256C,00C519,$GPRMC,230250,A,5442.9374,N,11318.4645,W,000.0,023.7,210819,017.7,E*61
01DDC7,02256A,00C518,$GPRMC,230251,A,5442.9373,N,11318.4645,W,000.0,023.7,210819,017.7,E*67
01DDCA,02256D,00C518,$GPRMC,230252,A,5442.9372,N,11318.4644,W,000.0,023.7,210819,017.7,E*64
01DDCA,02256D,00C519,$GPRMC,230253,A,5442.9371,N,11318.4643,W,000.0,023.7,210819,017.7,E*61
01DDC9,02256C,00C518,$GPRMC,230254,A,5442.9371,N,11318.4643,W,000.0,023.7,210819,017.7,E*66
01DDCB,02256D,00C519,$GPRMC,230255,A,5442.9370,N,11318.4643,W,000.0,023.7,210819,017.7,E*66
01DDC9,02256C,00C519,$GPRMC,230256,A,5442.9369,N,11318.4644,W,000.0,023.7,210819,017.7,E*6A
01DDC9,02256A,00C518,$GPRMC,230257,A,5442.9368,N,11318.4644,W,000.0,023.7,210819,017.7,E*6A
01DDCA,02256C,00C519,$GPRMC,230258,A,5442.9367,N,11318.4644,W,000.0,023.7,210819,017.7,E*6A
01DDCD,022570,00C51B,$GPRMC,230259,A,5442.9367,N,11318.4642,W,000.0,023.7,210819,017.7,E*6D
01DDC9,022569,00C518,$GPRMC,230300,A,5442.9366,N,11318.4641,W,000.0,023.7,210819,017.7,E*62
01DDCA,02256A,00C519,$GPRMC,230301,A,5442.9367,N,11318.4641,W,000.0,023.7,210819,017.7,E*62
01DDC9,022569,00C519,$GPRMC,230302,A,5442.9366,N,11318.4642,W,000.0,023.7,210819,017.7,E*63
01DDCC,02256D,00C51A,$GPRMC,230303,A,5442.9367,N,11318.4643,W,000.0,023.7,210819,017.7,E*62
01DDCD,02256E,00C51B,$GPRMC,230304,A,5442.9367,N,11318.4644,W,000.0,023.7,210819,017.7,E*62
01DDCC,02256C,00C51A,$GPRMC,230305,A,5442.9368,N,11318.4645,W,000.0,023.7,210819,017.7,E*6D
01DDCD,02256F,00C51B,$GPRMC,230306,A,5442.9368,N,11318.4645,W,000.0,023.7,210819,017.7,E*6E
01DDCC,02256C,00C51A,$GPRMC,230307,A,5442.9369,N,11318.4646,W,000.0,023.7,210819,017.7,E*6D
01DDCA,022569,00C519,$GPRMC,230308,A,5442.9370,N,11318.4647,W,000.0,023.7,210819,017.7,E*6B
01DDCE,02256F,00C51B,$GPRMC,230309,A,5442.9370,N,11318.4648,W,000.0,023.7,210819,017.7,E*65
01DDCB,02256B,00C519,$GPRMC,230310,A,5442.9371,N,11318.4649,W,000.0,023.7,210819,017.7,E*6D
01DDCB,02256B,00C519,$GPRMC,230311,A,5442.9372,N,11318.4650,W,000.0,023.7,210819,017.7,E*67
01DDCD,02256E,00C51A,$GPRMC,230312,A,5442.9372,N,11318.4650,W,000.0,023.7,210819,017.7,E*64
01DDCB,02256D,00C519,$GPRMC,230313,A,5442.9373,N,11318.4651,W,000.0,023.7,210819,017.7,E*65
01DDCB,02256B,00C518,$GPRMC,230314,A,5442.9373,N,11318.4651,W,000.0,023.7,210819,017.7,E*62
01DDCD,02256E,00C519,$GPRMC,230315,A,5442.9373,N,11318.4652,W,000.0,023.7,210819,017.7,E*60
01DDCD,02256F,00C51A,$GPRMC,230316,A,5442.9374,N,11318.4653,W,000.0,023.7,210819,017.7,E*65
01DDCC,02256E,00C519,$GPRMC,230317,A,5442.9374,N,11318.4653,W,000.0,023.7,210819,017.7,E*64
01DDCF,022572,00C51B,$GPRMC,230318,A,5442.9375,N,11318.4654,W,000.0,023.7,210819,017.7,E*6D
01DDCC,02256E,00C519,$GPRMC,230319,A,5442.9376,N,11318.4654,W,000.0,023.7,210819,017.7,E*6F
01DDCD,022570,00C519,$GPRMC,230320,A,5442.9376,N,11318.4655,W,000.0,023.7,210819,017.7,E*64
01DDCE,022572,00C51B,$GPRMC,230321,A,5442.9377,N,11318.4656,W,000.0,023.7,210819,017.7,E*67
01DDCD,022570,00C519,$GPRMC,230322,A,5442.9377,N,11318.4657,W,000.0,023.7,210819,017.7,E*65
01DDCC,02256D,00C518,$GPRMC,230323,A,5442.9378,N,11318.4657,W,000.0,023.7,210819,017.7,E*6B
01DDCC,02256E,00C518,$GPRMC,230324,A,5442.9379,N,11318.4658,W,000.0,023.7,210819,017.7,E*62
01DDCD,022570,00C519,$GPRMC,230325,A,5442.9381,N,11318.4658,W,000.0,023.7,210819,017.7,E*64
01DDCD,022570,00C519,$GPRMC,230326,A,5442.9381,N,11318.4660,W,000.0,023.7,210819,017.7,E*6C
01DDCB,02256D,00C518,$GPRMC,230327,A,5442.9383,N,11318.4660,W,000.0,023.7,210819,017.7,E*6F
01DDCF,022573,00C51A,$GPRMC,230328,A,5442.9384,N,11318.4661,W,000.0,023.7,210819,017.7,E*66
01DDCD,02256F,00C518,$GPRMC,230329,A,5442.9386,N,11318.4661,W,000.0,023.7,210819,017.7,E*65
01DDCF,022572,00C51A,$GPRMC,230330,A,5442.9388,N,11318.4659,W,000.0,023.7,210819,017.7,E*68
01DDD0,022573,00C51A,$GPRMC,230331,A,5442.9389,N,11318.4660,W,000.0,023.7,210819,017.7,E*62
01DDCD,02256F,00C519,$GPRMC,230332,A,5442.9390,N,11318.4660,W,000.0,023.7,210819,017.7,E*69
01DDD0,022571,00C51A,$GPRMC,230333,A,5442.9391,N,11318.4661,W,000.0,023.7,210819,017.7,E*68
01DDCE,02256D,00C519,$GPRMC,230334,A,5442.9391,N,11318.4661,W,000.0,023.7,210819,017.7,E*6F
01DDCE,02256E,00C518,$GPRMC,230335,A,5442.9392,N,11318.4661,W,000.0,023.7,210819,017.7,E*6D
01DDCE,02256D,00C518,$GPRMC,230336,A,5442.9393,N,11318.4661,W,000.0,023.7,210819,017.7,E*6F
01DDD0,02256F,00C519,$GPRMC,230337,A,5442.9394,N,11318.4662,W,000.0,023.7,210819,017.7,E*6A
01DDCF,02256E,00C519,$GPRMC,230338,A,5442.9394,N,11318.4662,W,000.0,023.7,210819,017.7,E*65
01DDD2,022572,00C51A,$GPRMC,230339,A,5442.9395,N,11318.4663,W,000.0,023.7,210819,017.7,E*64
01DDCF,02256D,00C518,$GPRMC,230340,A,5442.9396,N,11318.4664,W,000.0,023.7,210819,017.7,E*6E
01DDD0,022570,00C51A,$GPRMC,230341,A,5442.9396,N,11318.4665,W,000.0,023.7,210819,017.7,E*6E
01DDD3,022573,00C51A,$GPRMC,230342,A,5442.9396,N,11318.4665,W,000.0,023.7,210819,017.7,E*6D
01DDD0,02256F,00C519,$GPRMC,230343,A,5442.9396,N,11318.4666,W,000.0,023.7,210819,017.7,E*6F
01DDD1,022571,00C51A,$GPRMC,230344,A,5442.9396,N,11318.4666,W,000.0,023.7,210819,017.7,E*68
01DDD2,022571,00C51B,$GPRMC,230345,A,5442.9396,N,11318.4666,W,000.0,023.7,210819,017.7,E*69
01DDD2,022572,00C51A,$GPRMC,230346,A,5442.9395,N,11318.4667,W,000.0,023.7,210819,017.7,E*68
01DDD4,022572,00C51A,$GPRMC,230347,A,5442.9395,N,11318.4667,W,000.0,023.7,210819,017.7,E*69
01DDD2,022570,00C519,$GPRMC,230348,A,5442.9395,N,11318.4667,W,000.0,023.7,210819,017.7,E*66
01DDD2,022570,00C519,$GPRMC,230349,A,5442.9395,N,11318.4667,W,000.0,023.7,210819,017.7,E*67
01DDCF,02256E,00C518,$GPRMC,230350,A,5442.9395,N,11318.4668,W,000.0,023.7,210819,017.7,E*60
01DDD4,022574,00C51B,$GPRMC,230351,A,5442.9394,N,11318.4668,W,000.0,023.7,210819,017.7,E*60
01DDD5,022574,00C51C,$GPRMC,230352,A,5442.9395,N,11318.4669,W,000.0,023.7,210819,017.7,E*63
01DDD2,02256E,00C519,$GPRMC,230353,A,5442.9394,N,11318.4669,W,000.0,023.7,210819,017.7,E*63
01DDD2,02256D,00C519,$GPRMC,230354,A,5442.9395,N,11318.4669,W,000.0,023.7,210819,017.7,E*65
01DDD7,022574,00C51C,$GPRMC,230355,A,5442.9395,N,11318.4671,W,000.0,023.7,210819,017.7,E*6D
01DDD3,02256D,00C519,$GPRMC,230356,A,5442.9395,N,11318.4672,W,000.0,023.7,210819,017.7,E*6D
01DDD4,022570,00C51A,$GPRMC,230357,A,5442.9395,N,11318.4673,W,000.0,023.7,210819,017.7,E*6D
01DDD3,02256F,00C51B,$GPRMC,230358,A,5442.9396,N,11318.4674,W,000.0,023.7,210819,017.7,E*66
01DDD5,022572,00C51B,$GPRMC,230359,A,5442.9396,N,11318.4676,W,000.0,023.7,210819,017.7,E*65
01DDD5,022573,00C51B,$GPRMC,230400,A,5442.9396,N,11318.4677,W,000.0,023.7,210819,017.7,E*6F
01DDD2,02256F,00C519,$GPRMC,230401,A,5442.9396,N,11318.4677,W,000.0,023.7,210819,017.7,E*6E
01DDD5,022572,00C51B,$GPRMC,230402,A,5442.9396,N,11318.4678,W,000.0,023.7,210819,017.7,E*62
01DDD5,022573,00C51B,$GPRMC,230403,A,5442.9398,N,11318.4676,W,000.0,023.7,210819,017.7,E*63
01DDD6,022575,00C51C,$GPRMC,230404,A,5442.9399,N,11318.4677,W,000.0,023.7,210819,017.7,E*64
01DDD4,022572,00C51B,$GPRMC,230405,A,5442.9401,N,11318.4677,W,000.0,023.7,210819,017.7,E*63
01DDD4,022571,00C51A,$GPRMC,230406,A,5442.9402,N,11318.4675,W,000.0,023.7,210819,017.7,E*61
01DDD2,02256E,00C518,$GPRMC,230407,A,5442.9404,N,11318.4674,W,000.0,023.7,210819,017.7,E*67
01DDD7,022574,00C51B,$GPRMC,230408,A,5442.9405,N,11318.4673,W,000.0,023.7,210819,017.7,E*6E
01DDD2,02256F,00C518,$GPRMC,230409,A,5442.9406,N,11318.4672,W,000.0,023.7,210819,017.7,E*6D
01DDD5,022573,00C51B,$GPRMC,230410,A,5442.9407,N,11318.4670,W,000.0,023.7,210819,017.7,E*66
01DDD4,022572,00C51B,$GPRMC,230411,A,5442.9408,N,11318.4670,W,000.0,023.7,210819,017.7,E*68
01DDD2,02256E,00C519,$GPRMC,230412,A,5442.9409,N,11318.4669,W,000.0,023.7,210819,017.7,E*62
01DDD6,022575,00C51B,$GPRMC,230413,A,5442.9409,N,11318.4668,W,000.0,023.7,210819,017.7,E*62
01DDD4,022571,00C51A,$GPRMC,230414,A,5442.9410,N,11318.4667,W,000.0,023.7,210819,017.7,E*62
01DDD5,022571,00C51B,$GPRMC,230415,A,5442.9411,N,11318.4665,W,000.0,023.7,210819,017.7,E*60
01DDD7,022575,00C51C,$GPRMC,230416,A,5442.9411,N,11318.4664,W,000.0,023.7,210819,017.7,E*62
01DDD5,022573,00C51B,$GPRMC,230417,A,5442.9412,N,11318.4664,W,000.0,023.7,210819,017.7,E*60
01DDD3,02256F,00C51A,$GPRMC,230418,A,5442.9412,N,11318.4663,W,000.0,023.7,210819,017.7,E*68
01DDD4,02256F,00C51A,$GPRMC,230419,A,5442.9413,N,11318.4662,W,000.0,023.7,210819,017.7,E*69
01DDD2,02256C,00C519,$GPRMC,230420,A,5442.9414,N,11318.4661,W,000.0,023.7,210819,017.7,E*67
01DDD5,022571,00C51C,$GPRMC,230421,A,5442.9415,N,11318.4659,W,000.0,023.7,210819,017.7,E*6C
01DDD2,02256B,00C519,$GPRMC,230422,A,5442.9416,N,11318.4660,W,000.0,023.7,210819,017.7,E*66
01DDD4,022570,00C51B,$GPRMC,230423,A,5442.9416,N,11318.4661,W,000.0,023.7,210819,017.7,E*66
01DDD5,02256F,00C51B,$GPRMC,230424,A,5442.9416,N,11318.4661,W,000.0,023.7,210819,017.7,E*61
01DDD7,022573,00C51C,$GPRMC,230425,A,5442.9417,N,11318.4661,W,000.0,023.7,210819,017.7,E*61
01DDD5,02256F,00C51B,$GPRMC,230426,A,5442.9417,N,11318.4661,W,000.0,023.7,210819,017.7,E*62
01DDD3,02256C,00C51A,$GPRMC,230427,A,5442.9417,N,11318.4661,W,000.0,023.7,210819,017.7,E*63
01DDCE,022566,00C517,$GPRMC,230428,A,5442.9418,N,11318.4660,W,000.0,023.7,210819,017.7,E*62
01DDD2,02256C,00C51A,$GPRMC,230429,A,5442.9418,N,11318.4659,W,000.0,023.7,210819,017.7,E*69
01DDD4,022571,00C51B,$GPRMC,230430,A,5442.9418,N,11318.4659,W,000.0,023.7,210819,017.7,E*61
01DDD4,022570,00C51B,$GPRMC,230431,A,5442.9418,N,11318.4659,W,000.0,023.7,210819,017.7,E*60
01DDD6,022572,00C51B,$GPRMC,230432,A,5442.9419,N,11318.4659,W,000.0,023.7,210819,017.7,E*62
01DDD5,022571,00C51B,$GPRMC,230433,A,5442.9418,N,11318.4658,W,000.0,023.7,210819,017.7,E*63
01DDD6,022572,00C51C,$GPRMC,230434,A,5442.9418,N,11318.4658,W,000.0,023.7,210819,017.7,E*64
01DDD7,022575,00C51D,$GPRMC,230435,A,5442.9417,N,11318.4657,W,000.0,023.7,210819,017.7,E*65
01DDD4,022571,00C51B,$GPRMC,230436,A,5442.9416,N,11318.4657,W,000.0,023.7,210819,017.7,E*67
01DDD6,022573,00C51C,$GPRMC,230437,A,5442.9416,N,11318.4656,W,000.0,023.7,210819,017.7,E*67
01DDD4,022570,00C51A,$GPRMC,230438,A,5442.9415,N,11318.4655,W,000.0,023.7,210819,017.7,E*68
01DDD6,022573,00C51C,$GPRMC,230439,A,5442.9414,N,11318.4654,W,000.0,023.7,210819,017.7,E*69
01DDD5,022572,00C51B,$GPRMC,230440,A,5442.9413,N,11318.4653,W,000.0,023.7,210819,017.7,E*67
01DDD7,022575,00C51C,$GPRMC,230441,A,5442.9412,N,11318.4651,W,000.0,023.7,210819,017.7,E*65
01DDD4,022571,00C51A,$GPRMC,230442,A,5442.9412,N,11318.4649,W,000.0,023.7,210819,017.7,E*6F
01DDD5,022572,00C51B,$GPRMC,230443,A,5442.9412,N,11318.4648,W,000.0,023.7,210819,017.7,E*6F
01DDD7,022575,00C51D,$GPRMC,230444,A,5442.9412,N,11318.4647,W,000.0,023.7,210819,017.7,E*67
01DDD4,022570,00C51B,$GPRMC,230445,A,5442.9411,N,11318.4647,W,000.0,023.7,210819,017.7,E*65
01DDD4,02256E,00C51A,$GPRMC,230446,A,5442.9410,N,11318.4646,W,000.0,023.7,210819,017.7,E*66
01DDD7,022574,00C51C,$GPRMC,230447,A,5442.9409,N,11318.4645,W,000.0,023.7,210819,017.7,E*6C
01DDD5,022571,00C51B,$GPRMC,230448,A,5442.9409,N,11318.4644,W,000.0,023.7,210819,017.7,E*62
01DDD6,022573,00C51C,$GPRMC,230449,A,5442.9409,N,11318.4643,W,000.0,023.7,210819,017.7,E*64
01DDD8,022576,00C51D,$GPRMC,230450,A,5442.9408,N,11318.4643,W,000.0,023.7,210819,017.7,E*6D
01DDD6,022573,00C51C,$GPRMC,230451,A,5442.9408,N,11318.4643,W,000.0,023.7,210819,017.7,E*6C
01DDD5,022571,00C51A,$GPRMC,230452,A,5442.9408,N,11318.4643,W,000.0,023.7,210819,017.7,E*6F
01DDD6,022574,00C51B,$GPRMC,230453,A,5442.9409,N,11318.4644,W,000.0,023.7,210819,017.7,E*68
01DDD6,022573,00C51A,$GPRMC,230454,A,5442.9409,N,11318.4644,W,000.0,023.7,210819,017.7,E*6F
01DDD4,022571,00C519,$GPRMC,230455,A,5442.9409,N,11318.4644,W,000.0,023.7,210819,017.7,E*6E
01DDD7,022575,00C51B,$GPRMC,230456,A,5442.9409,N,11318.4644,W,000.0,023.7,210819,017.7,E*6D
01DDD4,022571,00C519,$GPRMC,230457,A,5442.9409,N,11318.4643,W,000.0,023.7,210819,017.7,E*6B
01DDD7,022576,00C51C,$GPRMC,230458,A,5442.9409,N,11318.4643,W,000.0,023.7,210819,017.7,E*64
01DDD8,022577,00C51C,$GPRMC,230459,A,5442.9409,N,11318.4642,W,000.0,023.7,210819,017.7,E*64
01DDD9,022578,00C51C,$GPRMC,230500,A,5442.9410,N,11318.4641,W,000.0,023.7,210819,017.7,E*62
01DDD7,022577,00C51B,$GPRMC,230501,A,5442.9409,N,11318.4641,W,000.0,023.7,210819,017.7,E*6B
01DDD6,022574,00C51A,$GPRMC,230502,A,5442.9408,N,11318.4642,W,000.0,023.7,210819,017.7,E*6A
01DDD6,022575,00C51A,$GPRMC,230503,A,5442.9408,N,11318.4642,W,000.0,023.7,210819,017.7,E*6B
01DDD6,022576,00C51B,$GPRMC,230504,A,5442.9408,N,11318.4641,W,000.0,023.7,210819,017.7,E*6F
01DDD7,022576,00C51C,$GPRMC,230505,A,5442.9408,N,11318.4640,W,000.0,023.7,210819,017.7,E*6F
01DDD7,022576,00C51C,$GPRMC,230506,A,5442.9408,N,11318.4641,W,000.0,023.7,210819,017.7,E*6D
01DDD3,022570,00C519,$GPRMC,230507,A,5442.9408,N,11318.4639,W,000.0,023.7,210819,017.7,E*63
01DDD1,02256D,00C518,$GPRMC,230508,A,5442.9407,N,11318.4641,W,000.0,023.7,210819,017.7,E*6C
01DDD6,022572,00C51B,$GPRMC,230509,A,5442.9407,N,11318.4640,W,000.0,023.7,210819,017.7,E*6C
01DDCF,022566,00C517,$GPRMC,230510,A,5442.9408,N,11318.4640,W,000.0,023.7,210819,017.7,E*6B
01DDD5,02256E,00C519,$GPRMC,230511,A,5442.9407,N,11318.4642,W,000.0,023.7,210819,017.7,E*67
01DDD3,02256C,00C518,$GPRMC,230512,A,5442.9407,N,11318.4643,W,000.0,023.7,210819,017.7,E*65
01DDD4,02256C,00C519,$GPRMC,230513,A,5442.9406,N,11318.4645,W,000.0,023.7,210819,017.7,E*63
01DDD3,02256A,00C518,$GPRMC,230514,A,5442.9406,N,11318.4646,W,000.0,023.7,210819,017.7,E*67
01DDD4,02256D,00C519,$GPRMC,230515,A,5442.9406,N,11318.4646,W,000.0,023.7,210819,017.7,E*66
01DDD8,022572,00C51B,$GPRMC,230516,A,5442.9406,N,11318.4647,W,000.0,023.7,210819,017.7,E*64
01DDD5,02256E,00C519,$GPRMC,230517,A,5442.9406,N,11318.4649,W,000.0,023.7,210819,017.7,E*6B
01DDD6,02256E,00C51A,$GPRMC,230518,A,5442.9407,N,11318.4649,W,000.0,023.7,210819,017.7,E*65
01DDD5,02256D,00C519,$GPRMC,230519,A,5442.9407,N,11318.4649,W,000.0,023.7,210819,017.7,E*64
01DDD6,02256D,00C519,$GPRMC,230520,A,5442.9408,N,11318.4649,W,000.0,023.7,210819,017.7,E*61
01DDD4,02256C,00C518,$GPRMC,230521,A,5442.9409,N,11318.4648,W,000.0,023.7,210819,017.7,E*60
01DDD7,02256F,00C519,$GPRMC,230522,A,5442.9409,N,11318.4647,W,000.0,023.7,210819,017.7,E*6C
01DDD5,02256C,00C518,$GPRMC,230523,A,5442.9410,N,11318.4647,W,000.0,023.7,210819,017.7,E*65
01DDD7,02256F,00C51A,$GPRMC,230524,A,5442.9411,N,11318.4646,W,000.0,023.7,210819,017.7,E*62
01DDD8,022570,00C51A,$GPRMC,230525,A,5442.9411,N,11318.4645,W,000.0,023.7,210819,017.7,E*60
01DDD6,02256D,00C519,$GPRMC,230526,A,5442.9411,N,11318.4644,W,000.0,023.7,210819,017.7,E*62
01DDD7,022571,00C51A,$GPRMC,230527,A,5442.9412,N,11318.4643,W,000.0,023.7,210819,017.7,E*67
01DDD6,02256E,00C519,$GPRMC,230528,A,5442.9412,N,11318.4642,W,000.0,023.7,210819,017.7,E*69
01DDD5,02256F,00C519,$GPRMC,230529,A,5442.9412,N,11318.4640,W,000.0,023.7,210819,017.7,E*6A
01DDD9,022574,00C51B,$GPRMC,230530,A,5442.9413,N,11318.4639,W,000.0,023.7,210819,017.7,E*6D
01DDD5,02256E,00C518,$GPRMC,230531,A,5442.9413,N,11318.4638,W,000.0,023.7,210819,017.7,E*6D
01DDD7,022572,00C519,$GPRMC,230532,A,5442.9413,N,11318.4637,W,000.0,023.7,210819,017.7,E*61
01DDD5,02256F,00C518,$GPRMC,230533,A,5442.9413,N,11318.4636,W,000.0,023.7,210819,017.7,E*61
01DDD9,022575,00C51B,$GPRMC,230534,A,5442.9412,N,11318.4632,W,000.0,023.7,210819,017.7,E*63
01DDD9,022576,00C51B,$GPRMC,230535,A,5442.9411,N,11318.4628,W,000.0,023.7,210819,017.7,E*6A
01DDD9,022576,00C51A,$GPRMC,230536,A,5442.9411,N,11318.4624,W,000.0,023.7,210819,017.7,E*65
01DDDB,022579,00C51B,$GPRMC,230537,A,5442.9411,N,11318.4621,W,000.0,023.7,210819,017.7,E*61
01DDD8,022574,00C519,$GPRMC,230538,A,5442.9411,N,11318.4620,W,000.0,023.7,210819,017.7,E*6F
01DDD9,022575,00C51A,$GPRMC,230539,A,5442.9412,N,11318.4620,W,000.0,023.7,210819,017.7,E*6D
01DDD4,022571,00C518,$GPRMC,230540,A,5442.9413,N,11318.4619,W,000.0,023.7,210819,017.7,E*68
01DDD7,022574,00C519,$GPRMC,230541,A,5442.9413,N,11318.4619,W,000.0,023.7,210819,017.7,E*69
01DDD5,022572,00C519,$GPRMC,230542,A,5442.9414,N,11318.4620,W,000.0,023.7,210819,017.7,E*67
01DDD7,022574,00C519,$GPRMC,230543,A,5442.9415,N,11318.4620,W,000.0,023.7,210819,017.7,E*67
01DDD7,022572,00C519,$GPRMC,230544,A,5442.9416,N,11318.4620,W,000.0,023.7,210819,017.7,E*63
01DDD6,022572,00C519,$GPRMC,230545,A,5442.9417,N,11318.4620,W,000.0,023.7,210819,017.7,E*63
01DDD8,022572,00C519,$GPRMC,230546,A,5442.9418,N,11318.4621,W,000.0,023.7,210819,017.7,E*6E
01DDDA,022576,00C51B,$GPRMC,230547,A,5442.9416,N,11318.4620,W,000.0,023.7,210819,017.7,E*60
01DDD5,02256F,00C519,$GPRMC,230548,A,5442.9414,N,11318.4618,W,000.0,023.7,210819,017.7,E*66
01DDD7,022572,00C519,$GPRMC,230549,A,5442.9413,N,11318.4618,W,000.0,023.7,210819,017.7,E*60
01DDD9,022573,00C51A,$GPRMC,230550,A,5442.9411,N,11318.4617,W,000.0,023.7,210819,017.7,E*65
01DDD8,022573,00C51A,$GPRMC,230551,A,5442.9410,N,11318.4617,W,000.0,023.7,210819,017.7,E*65
01DDD9,022573,00C51A,$GPRMC,230552,A,5442.9408,N,11318.4616,W,000.0,023.7,210819,017.7,E*6E
01DDD9,022573,00C51B,$GPRMC,230553,A,5442.9405,N,11318.4614,W,000.0,023.7,210819,017.7,E*60
01DDD7,022571,00C51A,$GPRMC,230554,A,5442.9402,N,11318.4613,W,000.0,023.7,210819,017.7,E*67
01DDD5,02256F,00C519,$GPRMC,230555,A,5442.9401,N,11318.4612,W,000.0,023.7,210819,017.7,E*64
01DDD7,022571,00C51A,$GPRMC,230556,A,5442.9400,N,11318.4612,W,000.0,023.7,210819,017.7,E*66
01DDD8,022575,00C51B,$GPRMC,230557,A,5442.9398,N,11318.4612,W,000.0,023.7,210819,017.7,E*61
01DDD9,022577,00C51B,$GPRMC,230558,A,5442.9397,N,11318.4612,W,000.0,023.7,210819,017.7,E*61
01DDD8,022575,00C51A,$GPRMC,230559,A,5442.9397,N,11318.4613,W,000.0,023.7,210819,017.7,E*61
01DDD8,022575,00C51A,$GPRMC,230600,A,5442.9397,N,11318.4614,W,000.0,023.7,210819,017.7,E*69
01DDDA,02257A,00C51C,$GPRMC,230601,A,5442.9396,N,11318.4614,W,000.0,023.7,210819,017.7,E*69
01DDD8,022577,00C51B,$GPRMC,230602,A,5442.9395,N,11318.4615,W,000.0,023.7,210819,017.7,E*68
01DDD5,022573,00C519,$GPRMC,230603,A,5442.9394,N,11318.4616,W,000.0,023.7,210819,017.7,E*6B
01DDD9,022578,00C51C,$GPRMC,230604,A,5442.9393,N,11318.4617,W,000.0,023.7,210819,017.7,E*6A
01DDD9,022577,00C51B,$GPRMC,230605,A,5442.9392,N,11318.4617,W,000.0,023.7,210819,017.7,E*6A
01DDDA,02257A,00C51D,$GPRMC,230606,A,5442.9391,N,11318.4618,W,000.0,023.7,210819,017.7,E*65
01DDD8,022574,00C51A,$GPRMC,230607,A,5442.9389,N,11318.4618,W,000.0,023.7,210819,017.7,E*6D
01DDDC,02257C,00C51D,$GPRMC,230608,A,5442.9387,N,11318.4618,W,000.0,023.7,210819,017.7,E*6C
01DDDA,022578,00C51C,$GPRMC,230609,A,5442.9386,N,11318.4619,W,000.0,023.7,210819,017.7,E*6D
01DDDB,02257A,00C51D,$GPRMC,230610,A,5442.9384,N,11318.4620,W,000.0,023.7,210819,017.7,E*6D
01DDD8,022575,00C51A,$GPRMC,230611,A,5442.9383,N,11318.4621,W,000.0,023.7,210819,017.7,E*6A
01DDDE,02257D,00C51E,$GPRMC,230612,A,5442.9382,N,11318.4622,W,000.0,023.7,210819,017.7,E*6B
01DDDA,022578,00C51B,$GPRMC,230613,A,5442.9381,N,11318.4623,W,000.0,023.7,210819,017.7,E*68
01DDD9,022576,00C51B,$GPRMC,230614,A,5442.9381,N,11318.4625,W,000.0,023.7,210819,017.7,E*69
01DDDA,022578,00C51B,$GPRMC,230615,A,5442.9383,N,11318.4628,W,000.0,023.7,210819,017.7,E*67
01DDD8,022576,00C51B,$GPRMC,230616,A,5442.9385,N,11318.4630,W,000.0,023.7,210819,017.7,E*6B
01DDDA,022578,00C51B,$GPRMC,230617,A,5442.9386,N,11318.4631,W,000.0,023.7,210819,017.7,E*68
01DDDA,022578,00C51B,$GPRMC,230618,A,5442.9388,N,11318.4632,W,000.0,023.7,210819,017.7,E*6A
01DDD8,022575,00C51B,$GPRMC,230619,A,5442.9390,N,11318.4632,W,000.0,023.7,210819,017.7,E*62
01DDDD,02257C,00C51D,$GPRMC,230620,A,5442.9391,N,11318.4633,W,000.0,023.7,210819,017.7,E*68
01DDD8,022576,00C51B,$GPRMC,230621,A,5442.9393,N,11318.4634,W,000.0,023.7,210819,017.7,E*6C
01DDDA,022579,00C51B,$GPRMC,230622,A,5442.9394,N,11318.4634,W,000.0,023.7,210819,017.7,E*68
01DDDC,02257B,00C51D,$GPRMC,230623,A,5442.9393,N,11318.4634,W,000.0,023.7,210819,017.7,E*6E
01DDDB,02257A,00C51D,$GPRMC,230624,A,5442.9391,N,11318.4632,W,000.0,023.7,210819,017.7,E*6D
01DDDA,022578,00C51C,$GPRMC,230625,A,5442.9391,N,11318.4632,W,000.0,023.7,210819,017.7,E*6C
01DDD9,022577,00C51B,$GPRMC,230626,A,5442.9391,N,11318.4632,W,000.0,023.7,210819,017.7,E*6F
01DDDA,022577,00C51C,$GPRMC,230627,A,5442.9391,N,11318.4631,W,000.0,023.7,210819,017.7,E*6D
01DDD8,022575,00C51B,$GPRMC,230628,A,5442.9390,N,11318.4631,W,000.0,023.7,210819,017.7,E*63
01DDD8,022573,00C51B,$GPRMC,230629,A,5442.9387,N,11318.4629,W,000.0,023.7,210819,017.7,E*6D
01DDD7,022572,00C51A,$GPRMC,230630,A,5442.9387,N,11318.4630,W,000.0,023.7,210819,017.7,E*6D
01DDD6,022572,00C51A,$GPRMC,230631,A,5442.9387,N,11318.4629,W,000.0,023.7,210819,017.7,E*64
01DDD9,022576,00C51C,$GPRMC,230632,A,5442.9386,N,11318.4628,W,000.0,023.7,210819,017.7,E*67
01DDD7,022572,00C51A,$GPRMC,230633,A,5442.9386,N,11318.4627,W,000.0,023.7,210819,017.7,E*69
01DDD7,022571,00C519,$GPRMC,230634,A,5442.9384,N,11318.4628,W,000.0,023.7,210819,017.7,E*63
01DDD9,022574,00C51A,$GPRMC,230635,A,5442.9384,N,11318.4628,W,000.0,023.7,210819,017.7,E*62
01DDD7,022571,00C519,$GPRMC,230636,A,5442.9383,N,11318.4628,W,000.0,023.7,210819,017.7,E*66
01DDD5,022570,00C519,$GPRMC,230637,A,5442.9382,N,11318.4628,W,000.0,023.7,210819,017.7,E*66
01DDD6,022570,00C519,$GPRMC,230638,A,5442.9381,N,11318.4628,W,000.0,023.7,210819,017.7,E*6A
01DDD7,022572,00C51A,$GPRMC,230639,A,5442.9381,N,11318.4627,W,000.0,023.7,210819,017.7,E*64
01DDD9,022574,00C51B,$GPRMC,230640,A,5442.9381,N,11318.4625,W,000.0,023.7,210819,017.7,E*68
01DDD6,022571,00C519,$GPRMC,230641,A,5442.9381,N,11318.4625,W,000.0,023.7,210819,017.7,E*69
01DDDA,022577,00C51C,$GPRMC,230642,A,5442.9381,N,11318.4623,W,000.0,023.7,210819,017.7,E*6C
01DDD9,022575,00C51B,$GPRMC,230643,A,5442.9381,N,11318.4623,W,000.0,023.7,210819,017.7,E*6D
01DDD8,022572,00C51A,$GPRMC,230644,A,5442.9381,N,11318.4622,W,000.0,023.7,210819,017.7,E*6B
01DDD6,022570,00C519,$GPRMC,230645,A,5442.9379,N,11318.4624,W,000.0,023.7,210819,017.7,E*6B
01DDD8,022573,00C51B,$GPRMC,230646,A,5442.9378,N,11318.4624,W,000.0,023.7,210819,017.7,E*69
01DDD5,02256F,00C519,$GPRMC,230647,A,5442.9376,N,11318.4624,W,000.0,023.7,210819,017.7,E*66
01DDD9,022573,00C51A,$GPRMC,230648,A,5442.9374,N,11318.4625,W,000.0,023.7,210819,017.7,E*6A
01DDD6,022570,00C519,$GPRMC,230649,A,5442.9372,N,11318.4625,W,000.0,023.7,210819,017.7,E*6D
01DDD8,022573,00C51A,$GPRMC,230650,A,5442.9370,N,11318.4622,W,000.0,023.7,210819,017.7,E*60
01DDD6,022571,00C51A,$GPRMC,230651,A,5442.9366,N,11318.4623,W,000.0,023.7,210819,017.7,E*67
01DDD8,022573,00C51A,$GPRMC,230652,A,5442.9364,N,11318.4623,W,000.0,023.7,210819,017.7,E*66
01DDD7,022571,00C519,$GPRMC,230653,A,5442.9362,N,11318.4623,W,000.0,023.7,210819,017.7,E*61
01DDDA,022575,00C51B,$GPRMC,230654,A,5442.9359,N,11318.4624,W,000.0,023.7,210819,017.7,E*69
01DDDB,022575,00C51C,$GPRMC,230655,A,5442.9358,N,11318.4624,W,000.0,023.7,210819,017.7,E*69
01DDD9,022572,00C51B,$GPRMC,230656,A,5442.9356,N,11318.4624,W,000.0,023.7,210819,017.7,E*64
01DDDB,022575,00C51C,$GPRMC,230657,A,5442.9355,N,11318.4624,W,000.0,023.7,210819,017.7,E*66
01DDDC,022578,00C51D,$GPRMC,230658,A,5442.9354,N,11318.4624,W,000.0,023.7,210819,017.7,E*68
01DDDA,022574,00C51B,$GPRMC,230659,A,5442.9353,N,11318.4624,W,000.0,023.7,210819,017.7,E*6E
01DDD8,022572,00C51A,$GPRMC,230700,A,5442.9353,N,11318.4624,W,000.0,023.7,210819,017.7,E*63
01DDD8,022571,00C51B,$GPRMC,230701,A,5442.9355,N,11318.4626,W,000.0,023.7,210819,017.7,E*66
01DDD7,022570,00C51A,$GPRMC,230702,A,5442.9355,N,11318.4625,W,000.0,023.7,210819,017.7,E*66
01DDD2,02256B,00C517,$GPRMC,230703,A,5442.9356,N,11318.4625,W,000.0,023.7,210819,017.7,E*64
01DDD9,022575,00C51B,$GPRMC,230704,A,5442.9358,N,11318.4625,W,000.0,023.7,210819,017.7,E*6D
01DDD9,022577,00C51C,$GPRMC,230705,A,5442.9360,N,11318.4626,W,000.0,023.7,210819,017.7,E*64
01DDD4,02256F,00C519,$GPRMC,230706,A,5442.9361,N,11318.4626,W,000.0,023.7,210819,017.7,E*66
01DDD8,022576,00C51B,$GPRMC,230707,A,5442.9364,N,11318.4629,W,000.0,023.7,210819,017.7,E*6D
01DDD4,022570,00C518,$GPRMC,230708,A,5442.9366,N,11318.4632,W,000.0,023.7,210819,017.7,E*6A
01DDD7,022575,00C51A,$GPRMC,230709,A,5442.9366,N,11318.4633,W,000.0,023.7,210819,017.7,E*6A
01DDD9,022579,00C51C,$GPRMC,230710,A,5442.9367,N,11318.4635,W,000.0,023.7,210819,017.7,E*65
01DDD5,022574,00C519,$GPRMC,230711,A,5442.9368,N,11318.4636,W,000.0,023.7,210819,017.7,E*68
01DDD7,022576,00C519,$GPRMC,230712,A,5442.9369,N,11318.4637,W,000.0,023.7,210819,017.7,E*6B
01DDD8,022577,00C51A,$GPRMC,230713,A,5442.9368,N,11318.4638,W,000.0,023.7,210819,017.7,E*64
01DDD6,022575,00C519,$GPRMC,230714,A,5442.9367,N,11318.4638,W,000.0,023.7,210819,017.7,E*6C
01DDD8,022577,00C51A,$GPRMC,230715,A,5442.9368,N,11318.4638,W,000.0,023.7,210819,017.7,E*62
01DDDB,02257B,00C51C,$GPRMC,230716,A,5442.9368,N,11318.4638,W,000.0,023.7,210819,017.7,E*61
01DDD6,022573,00C519,$GPRMC,230717,A,5442.9364,N,11318.4637,W,000.0,023.7,210819,017.7,E*63
01DDD6,022574,00C519,$GPRMC,230718,A,5442.9362,N,11318.4637,W,000.0,023.7,210819,017.7,E*6A
01DDD8,022576,00C519,$GPRMC,230719,A,5442.9360,N,11318.4637,W,000.0,023.7,210819,017.7,E*69
01DDD9,022577,00C51A,$GPRMC,230720,A,5442.9359,N,11318.4637,W,000.0,023.7,210819,017.7,E*69
01DDD5,022573,00C518,$GPRMC,230721,A,5442.9358,N,11318.4638,W,000.0,023.7,210819,017.7,E*66
01DDDA,022578,00C51A,$GPRMC,230722,A,5442.9357,N,11318.4639,W,000.0,023.7,210819,017.7,E*6B
01DDD7,022574,00C518,$GPRMC,230723,A,5442.9358,N,11318.4639,W,000.0,023.7,210819,017.7,E*65
01DDDA,02257A,00C51B,$GPRMC,230724,A,5442.9358,N,11318.4640,W,000.0,023.7,210819,017.7,E*6C
01DDD9,022577,00C51A,$GPRMC,230725,A,5442.9359,N,11318.4640,W,000.0,023.7,210819,017.7,E*6C
01DDD8,022576,00C519,$GPRMC,230726,A,5442.9361,N,11318.4641,W,000.0,023.7,210819,017.7,E*65
01DDD7,022574,00C519,$GPRMC,230727,A,5442.9363,N,11318.4642,W,000.0,023.7,210819,017.7,E*65
01DDDB,02257A,00C51B,$GPRMC,230728,A,5442.9363,N,11318.4642,W,000.0,023.7,210819,017.7,E*6A
01DDDB,02257A,00C51B,$GPRMC,230729,A,5442.9364,N,11318.4643,W,000.0,023.7,210819,017.7,E*6D
01DDDD,02257D,00C51D,$GPRMC,230730,A,5442.9365,N,11318.4644,W,000.0,023.7,210819,017.7,E*63
01DDDA,022579,00C51B,$GPRMC,230731,A,5442.9366,N,11318.4645,W,000.0,023.7,210819,017.7,E*60
01DDDC,02257B,00C51B,$GPRMC,230732,A,5442.9367,N,11318.4647,W,000.0,023.7,210819,017.7,E*60
01DDDB,022578,00C51A,$GPRMC,230733,A,5442.9367,N,11318.4649,W,000.0,023.7,210819,017.7,E*6F
01DDDD,02257E,00C51D,$GPRMC,230734,A,5442.9367,N,11318.4651,W,000.0,023.7,210819,017.7,E*61
01DDDB,022579,00C51B,$GPRMC,230735,A,5442.9367,N,11318.4654,W,000.0,023.7,210819,017.7,E*65
01DDDD,02257D,00C51C,$GPRMC,230736,A,5442.9367,N,11318.4655,W,000.0,023.7,210819,017.7,E*67
01DDDB,02257B,00C51C,$GPRMC,230737,A,5442.9368,N,11318.4658,W,000.0,023.7,210819,017.7,E*64
01DDDC,02257B,00C51C,$GPRMC,230738,A,5442.9368,N,11318.4660,W,000.0,023.7,210819,017.7,E*60
01DDDB,02257A,00C51C,$GPRMC,230739,A,5442.9369,N,11318.4662,W,000.0,023.7,210819,017.7,E*62
01DDDB,02257A,00C51B,$GPRMC,230740,A,5442.9369,N,11318.4663,W,000.0,023.7,210819,017.7,E*6D
01DDDC,02257B,00C51C,$GPRMC,230741,A,5442.9369,N,11318.4665,W,000.0,023.7,210819,017.7,E*6A
01DDDE,02257D,00C51D,$GPRMC,230742,A,5442.9368,N,11318.4667,W,000.0,023.7,210819,017.7,E*6A
01DDDB,022579,00C51B,$GPRMC,230743,A,5442.9369,N,11318.4669,W,000.0,023.7,210819,017.7,E*64
01DDDE,02257E,00C51D,$GPRMC,230744,A,5442.9369,N,11318.4671,W,000.0,023.7,210819,017.7,E*6A
01DDDA,022577,00C51A,$GPRMC,230745,A,5442.9369,N,11318.4672,W,000.0,023.7,210819,017.7,E*68
01DDDB,022579,00C51B,$GPRMC,230746,A,5442.9369,N,11318.4674,W,000.0,023.7,210819,017.7,E*6D
01DDDC,02257A,00C51B,$GPRMC,230747,A,5442.9369,N,11318.4675,W,000.0,023.7,210819,017.7,E*6D
01DDD9,022576,00C51A,$GPRMC,230748,A,5442.9370,N,11318.4676,W,000.0,023.7,210819,017.7,E*69
01DDDD,02257B,00C51D,$GPRMC,230749,A,5442.9371,N,11318.4677,W,000.0,023.7,210819,017.7,E*68
01DDDC,02257A,00C51C,$GPRMC,230750,A,5442.9371,N,11318.4676,W,000.0,023.7,210819,017.7,E*61
01DDDB,02257A,00C51C,$GPRMC,230751,A,5442.9373,N,11318.4678,W,000.0,023.7,210819,017.7,E*6C
01DDDC,022579,00C51C,$GPRMC,230752,A,5442.9377,N,11318.4676,W,000.0,023.7,210819,017.7,E*65
01DDDC,02257B,00C51C,$GPRMC,230753,A,5442.9379,N,11318.4674,W,000.0,023.7,210819,017.7,E*68
01DDDC,022579,00C51C,$GPRMC,230754,A,5442.9383,N,11318.4672,W,000.0,023.7,210819,017.7,E*6C
01DDDA,022576,00C51A,$GPRMC,230755,A,5442.9384,N,11318.4672,W,000.0,023.7,210819,017.7,E*6A
01DDDB,022576,00C51B,$GPRMC,230756,A,5442.9389,N,11318.4670,W,000.0,023.7,210819,017.7,E*66
01DDDA,022576,00C51B,$GPRMC,230757,A,5442.9393,N,11318.4668,W,000.0,023.7,210819,017.7,E*65
01DDD8,022572,00C519,$GPRMC,230758,A,5442.9397,N,11318.4666,W,000.0,023.7,210819,017.7,E*60
01DDD9,022574,00C51A,$GPRMC,230759,A,5442.9402,N,11318.4665,W,000.0,023.7,210819,017.7,E*69
01DDDE,02257B,00C51D,$GPRMC,230800,A,5442.9402,N,11318.4667,W,000.0,023.7,210819,017.7,E*68
01DDDD,022578,00C51C,$GPRMC,230801,A,5442.9403,N,11318.4669,W,000.0,023.7,210819,017.7,E*66
01DDDC,022576,00C51B,$GPRMC,230802,A,5442.9406,N,11318.4668,W,000.0,023.7,210819,017.7,E*61
01DDDA,022574,00C51A,$GPRMC,230803,A,5442.9410,N,11318.4666,W,000.0,023.7,210819,017.7,E*69
01DDDC,022576,00C51B,$GPRMC,230804,A,5442.9413,N,11318.4666,W,000.0,023.7,210819,017.7,E*6D
01DDDE,02257A,00C51C,$GPRMC,230805,A,5442.9416,N,11318.4665,W,000.0,023.7,210819,017.7,E*6A
01DDD9,022574,00C519,$GPRMC,230806,A,5442.9418,N,11318.4665,W,000.0,023.7,210819,017.7,E*67
01DDDA,022576,00C51A,$GPRMC,230807,A,5442.9420,N,11318.4666,W,000.0,023.7,210819,017.7,E*6E
01DDDA,022576,00C51B,$GPRMC,230808,A,5442.9421,N,11318.4669,W,000.0,023.7,210819,017.7,E*6F
01DDDA,022575,00C51B,$GPRMC,230809,A,5442.9422,N,11318.4667,W,000.0,023.7,210819,017.7,E*63
01DDDF,02257D,00C51D,$GPRMC,230810,A,5442.9424,N,11318.4665,W,000.0,023.7,210819,017.7,E*6F
01DDDC,022577,00C51B,$GPRMC,230811,A,5442.9426,N,11318.4665,W,000.0,023.7,210819,017.7,E*6C
01DDDD,02257A,00C51C,$GPRMC,230812,A,5442.9427,N,11318.4666,W,000.0,023.7,210819,017.7,E*6D
01DDDB,022575,00C51A,$GPRMC,230813,A,5442.9430,N,11318.4662,W,000.0,023.7,210819,017.7,E*6E
01DDDD,022577,00C51B,$GPRMC,230814,A,5442.9431,N,11318.4663,W,000.0,023.7,210819,017.7,E*69
01DDDD,022578,00C51B,$GPRMC,230815,A,5442.9431,N,11318.4664,W,000.0,023.7,210819,017.7,E*6F
01DDE1,02257F,00C51D,$GPRMC,230816,A,5442.9432,N,11318.4665,W,000.0,023.7,210819,017.7,E*6E
01DDDD,022579,00C51B,$GPRMC,230817,A,5442.9432,N,11318.4667,W,000.0,023.7,210819,017.7,E*6D
01DDDC,022578,00C51A,$GPRMC,230818,A,5442.9432,N,11318.4664,W,000.0,023.7,210819,017.7,E*61
01DDDA,022579,00C51B,$GPRMC,230819,A,5442.9432,N,11318.4664,W,000.0,023.7,210819,017.7,E*60
01DDDB,02257A,00C51B,$GPRMC,230820,A,5442.9431,N,11318.4665,W,000.0,023.7,210819,017.7,E*68
01DDD9,022575,00C51A,$GPRMC,230821,A,5442.9431,N,11318.4665,W,000.0,023.7,210819,017.7,E*69
01DDD8,022575,00C51A,$GPRMC,230822,A,5442.9431,N,11318.4665,W,000.0,023.7,210819,017.7,E*6A
01DDDE,02257D,00C51D,$GPRMC,230823,A,5442.9428,N,11318.4666,W,000.0,023.7,210819,017.7,E*60
01DDDB,022577,00C51B,$GPRMC,230824,A,5442.9425,N,11318.4666,W,000.0,023.7,210819,017.7,E*6A
01DDDB,022578,00C51B,$GPRMC,230825,A,5442.9423,N,11318.4666,W,000.0,023.7,210819,017.7,E*6D
01DDDB,022576,00C51A,$GPRMC,230826,A,5442.9423,N,11318.4667,W,000.0,023.7,210819,017.7,E*6F
01DDDF,02257B,00C51C,$GPRMC,230827,A,5442.9423,N,11318.4667,W,000.0,023.7,210819,017.7,E*6E
01DDDE,022579,00C51B,$GPRMC,230828,A,5442.9422,N,11318.4667,W,000.0,023.7,210819,017.7,E*60
01DDE1,02257E,00C51D,$GPRMC,230829,A,5442.9422,N,11318.4668,W,000.0,023.7,210819,017.7,E*6E
01DDDF,02257B,00C51C,$GPRMC,230830,A,5442.9422,N,11318.4668,W,000.0,023.7,210819,017.7,E*66
01DDE1,02257C,00C51D,$GPRMC,230831,A,5442.9422,N,11318.4668,W,000.0,023.7,210819,017.7,E*67
01DDE2,02257F,00C51F,$GPRMC,230832,A,5442.9421,N,11318.4669,W,000.0,023.7,210819,017.7,E*66
01DDE1,02257A,00C51C,$GPRMC,230833,A,5442.9419,N,11318.4669,W,000.0,023.7,210819,017.7,E*6C
01DDE4,02257F,00C51E,$GPRMC,230834,A,5442.9419,N,11318.4665,W,000.0,023.7,210819,017.7,E*67
01DDE1,02257B,00C51C,$GPRMC,230835,A,5442.9418,N,11318.4661,W,000.0,023.7,210819,017.7,E*63
01DDE2,02257C,00C51D,$GPRMC,230836,A,5442.9417,N,11318.4661,W,000.0,023.7,210819,017.7,E*6F
01DDE2,02257C,00C51D,$GPRMC,230837,A,5442.9417,N,11318.4662,W,000.0,023.7,210819,017.7,E*6D
01DDE2,02257C,00C51D,$GPRMC,230838,A,5442.9417,N,11318.4659,W,000.0,023.7,210819,017.7,E*6A
01DDE2,02257B,00C51D,$GPRMC,230839,A,5442.9417,N,11318.4660,W,000.0,023.7,210819,017.7,E*61
01DDE0,022578,00C51B,$GPRMC,230840,A,5442.9416,N,11318.4661,W,000.0,023.7,210819,017.7,E*6F
01DDE1,02257A,00C51C,$GPRMC,230841,A,5442.9415,N,11318.4662,W,000.0,023.7,210819,017.7,E*6E
01DDE2,02257B,00C51D,$GPRMC,230842,A,5442.9415,N,11318.4662,W,000.0,023.7,210819,017.7,E*6D
01DDE2,02257A,00C51C,$GPRMC,230843,A,5442.9414,N,11318.4662,W,000.0,023.7,210819,017.7,E*6D
01DDE3,02257C,00C51D,$GPRMC,230844,A,5442.9415,N,11318.4663,W,000.0,023.7,210819,017.7,E*6A
01DDE2,02257A,00C51C,$GPRMC,230845,A,5442.9416,N,11318.4665,W,000.0,023.7,210819,017.7,E*6E
01DDE1,022579,00C51C,$GPRMC,230846,A,5442.9416,N,11318.4666,W,000.0,023.7,210819,017.7,E*6E
01DDE3,02257B,00C51D,$GPRMC,230847,A,5442.9416,N,11318.4667,W,000.0,023.7,210819,017.7,E*6E
01DDE2,02257B,00C51C,$GPRMC,230848,A,5442.9416,N,11318.4669,W,000.0,023.7,210819,017.7,E*6F
01DDE4,02257C,00C51D,$GPRMC,230849,A,5442.9416,N,11318.4669,W,000.0,023.7,210819,017.7,E*6E
01DDE1,022578,00C51C,$GPRMC,230850,A,5442.9418,N,11318.4670,W,000.0,023.7,210819,017.7,E*60
01DDE0,022577,00C51B,$GPRMC,230851,A,5442.9419,N,11318.4671,W,000.0,023.7,210819,017.7,E*61
01DDE5,02257C,00C51D,$GPRMC,230852,A,5442.9420,N,11318.4671,W,000.0,023.7,210819,017.7,E*68
01DDE4,02257C,00C51D,$GPRMC,230853,A,5442.9422,N,11318.4671,W,000.0,023.7,210819,017.7,E*6B
01DDE5,02257C,00C51D,$GPRMC,230854,A,5442.9423,N,11318.4671,W,000.0,023.7,210819,017.7,E*6D
01DDE3,02257B,00C51D,$GPRMC,230855,A,5442.9426,N,11318.4671,W,000.0,023.7,210819,017.7,E*69
01DDE4,02257A,00C51D,$GPRMC,230856,A,5442.9428,N,11318.4670,W,000.0,023.7,210819,017.7,E*65
01DDE5,02257C,00C51E,$GPRMC,230857,A,5442.9430,N,11318.4670,W,000.0,023.7,210819,017.7,E*6D
01DDE3,022579,00C51D,$GPRMC,230858,A,5442.9431,N,11318.4670,W,000.0,023.7,210819,017.7,E*63
01DDE5,02257B,00C51D,$GPRMC,230859,A,5442.9431,N,11318.4669,W,000.0,023.7,210819,017.7,E*6A
01DDE3,022578,00C51C,$GPRMC,230900,A,5442.9430,N,11318.4669,W,000.0,023.7,210819,017.7,E*66
01DDE3,022579,00C51C,$GPRMC,230901,A,5442.9431,N,11318.4669,W,000.0,023.7,210819,017.7,E*66
01DDE5,02257B,00C51D,$GPRMC,230902,A,5442.9431,N,11318.4669,W,000.0,023.7,210819,017.7,E*65
01DDE8,02257F,00C51F,$GPRMC,230903,A,5442.9432,N,11318.4669,W,000.0,023.7,210819,017.7,E*67
01DDE8,022580,00C51E,$GPRMC,230904,A,5442.9432,N,11318.4669,W,000.0,023.7,210819,017.7,E*60
01DDE5,022579,00C51C,$GPRMC,230905,A,5442.9427,N,11318.4669,W,000.0,023.7,210819,017.7,E*65
01DDE5,02257A,00C51D,$GPRMC,230906,A,5442.9425,N,11318.4670,W,000.0,023.7,210819,017.7,E*6C
01DDE4,02257A,00C51D,$GPRMC,230907,A,5442.9425,N,11318.4670,W,000.0,023.7,210819,017.7,E*6D
01DDE8,02257F,00C51F,$GPRMC,230908,A,5442.9424,N,11318.4670,W,000.0,023.7,210819,017.7,E*63
01DDE3,022577,00C51C,$GPRMC,230909,A,5442.9424,N,11318.4670,W,000.0,023.7,210819,017.7,E*62
01DDE7,02257C,00C51E,$GPRMC,230910,A,5442.9424,N,11318.4669,W,000.0,023.7,210819,017.7,E*62
01DDE6,022578,00C51D,$GPRMC,230911,A,5442.9424,N,11318.4669,W,000.0,023.7,210819,017.7,E*63
01DDE4,022577,00C51C,$GPRMC,230912,A,5442.9424,N,11318.4669,W,000.0,023.7,210819,017.7,E*60
01DDE5,022579,00C51D,$GPRMC,230913,A,5442.9424,N,11318.4669,W,000.0,023.7,210819,017.7,E*61
01DDE4,022578,00C51D,$GPRMC,230914,A,5442.9423,N,11318.4669,W,000.0,023.7,210819,017.7,E*61
01DDE3,022576,00C51B,$GPRMC,230915,A,5442.9423,N,11318.4669,W,000.0,023.7,210819,017.7,E*60
01DDE6,022579,00C51C,$GPRMC,230916,A,5442.9423,N,11318.4668,W,000.0,023.7,210819,017.7,E*62
01DDE7,02257A,00C51D,$GPRMC,230917,A,5442.9423,N,11318.4668,W,000.0,023.7,210819,017.7,E*63
01DDE5,022578,00C51C,$GPRMC,230918,A,5442.9423,N,11318.4668,W,000.0,023.7,210819,017.7,E*6C
01DDE6,02257A,00C51D,$GPRMC,230919,A,5442.9423,N,11318.4668,W,000.0,023.7,210819,017.7,E*6D
01DDE5,022579,00C51D,$GPRMC,230920,A,5442.9422,N,11318.4670,W,000.0,023.7,210819,017.7,E*6F
01DDE5,022577,00C51C,$GPRMC,230921,A,5442.9423,N,11318.4671,W,000.0,023.7,210819,017.7,E*6E
01DDE6,022578,00C51C,$GPRMC,230922,A,5442.9424,N,11318.4671,W,000.0,023.7,210819,017.7,E*6A
01DDE6,022577,00C51D,$GPRMC,230923,A,5442.9424,N,11318.4672,W,000.0,023.7,210819,017.7,E*68
01DDE8,02257A,00C51D,$GPRMC,230924,A,5442.9425,N,11318.4672,W,000.0,023.7,210819,017.7,E*6E
01DDE6,022579,00C51C,$GPRMC,230925,A,5442.9426,N,11318.4672,W,000.0,023.7,210819,017.7,E*6C
01DDE6,022578,00C51C,$GPRMC,230926,A,5442.9427,N,11318.4673,W,000.0,023.7,210819,017.7,E*6F
01DDEA,02257D,00C51E,$GPRMC,230927,A,5442.9427,N,11318.4673,W,000.0,023.7,210819,017.7,E*6E
01DDE7,022578,00C51C,$GPRMC,230928,A,5442.9428,N,11318.4673,W,000.0,023.7,210819,017.7,E*6E
01DDE7,022579,00C51C,$GPRMC,230929,A,5442.9429,N,11318.4674,W,000.0,023.7,210819,017.7,E*69
01DDE7,022577,00C51C,$GPRMC,230930,A,5442.9429,N,11318.4674,W,000.0,023.7,210819,017.7,E*61
01DDE9,02257A,00C51C,$GPRMC,230931,A,5442.9430,N,11318.4675,W,000.0,023.7,210819,017.7,E*69
01DDE6,022576,00C51B,$GPRMC,230932,A,5442.9431,N,11318.4675,W,000.0,023.7,210819,017.7,E*6B
01DDE6,022577,00C51B,$GPRMC,230933,A,5442.9426,N,11318.4675,W,000.0,023.7,210819,017.7,E*6C
01DDE9,022579,00C51C,$GPRMC,230934,A,5442.9421,N,11318.4675,W,000.0,023.7,210819,017.7,E*6C
01DDEA,02257B,00C51D,$GPRMC,230935,A,5442.9421,N,11318.4676,W,000.0,023.7,210819,017.7,E*6E
01DDE5,022575,00C519,$GPRMC,230936,A,5442.9421,N,11318.4676,W,000.0,023.7,210819,017.7,E*6D
01DDEA,02257A,00C51C,$GPRMC,230937,A,5442.9421,N,11318.4677,W,000.0,023.7,210819,017.7,E*6D
01DDE8,022577,00C51B,$GPRMC,230938,A,5442.9421,N,11318.4679,W,000.0,023.7,210819,017.7,E*6C
01DDE8,022579,00C51C,$GPRMC,230939,A,5442.9421,N,11318.4680,W,000.0,023.7,210819,017.7,E*6B
01DDEA,02257A,00C51C,$GPRMC,230940,A,5442.9421,N,11318.4682,W,000.0,023.7,210819,017.7,E*67
01DDEA,02257B,00C51D,$GPRMC,230941,A,5442.9421,N,11318.4684,W,000.0,023.7,210819,017.7,E*60
01DDEC,02257F,00C51E,$GPRMC,230942,A,5442.9422,N,11318.4685,W,000.0,023.7,210819,017.7,E*61
01DDE9,02257A,00C51C,$GPRMC,230943,A,5442.9422,N,11318.4687,W,000.0,023.7,210819,017.7,E*62
01DDE8,02257B,00C51C,$GPRMC,230944,A,5442.9422,N,11318.4688,W,000.0,023.7,210819,017.7,E*6A
01DDE6,022579,00C51B,$GPRMC,230945,A,5442.9420,N,11318.4689,W,000.0,023.7,210819,017.7,E*68
01DDEA,02257D,00C51D,$GPRMC,230946,A,5442.9417,N,11318.4690,W,000.0,023.7,210819,017.7,E*67
01DDE6,022579,00C51B,$GPRMC,230947,A,5442.9415,N,11318.4690,W,000.0,023.7,210819,017.7,E*64
01DDE7,02257A,00C51B,$GPRMC,230948,A,5442.9415,N,11318.4691,W,000.0,023.7,210819,017.7,E*6A
01DDE9,02257D,00C51C,$GPRMC,230949,A,5442.9416,N,11318.4692,W,000.0,023.7,210819,017.7,E*6B
01DDE9,02257E,00C51C,$GPRMC,230950,A,5442.9416,N,11318.4693,W,000.0,023.7,210819,017.7,E*62
01DDE7,02257A,00C51B,$GPRMC,230951,A,5442.9416,N,11318.4693,W,000.0,023.7,210819,017.7,E*63
01DDEB,022581,00C51D,$GPRMC,230952,A,5442.9416,N,11318.4694,W,000.0,023.7,210819,017.7,E*67
01DDE7,02257B,00C51A,$GPRMC,230953,A,5442.9417,N,11318.4695,W,000.0,023.7,210819,017.7,E*66
01DDEC,022580,00C51E,$GPRMC,230954,A,5442.9419,N,11318.4696,W,000.0,023.7,210819,017.7,E*6C
01DDE7,02257B,00C51A,$GPRMC,230955,A,5442.9421,N,11318.4698,W,000.0,023.7,210819,017.7,E*68
01DDED,022583,00C51E,$GPRMC,230956,A,5442.9421,N,11318.4698,W,000.0,023.7,210819,017.7,E*6B
01DDE9,02257D,00C51B,$GPRMC,230957,A,5442.9421,N,11318.4700,W,000.0,023.7,210819,017.7,E*6A
01DDED,022582,00C51E,$GPRMC,230958,A,5442.9423,N,11318.4700,W,000.0,023.7,210819,017.7,E*67
01DDE9,02257C,00C51B,$GPRMC,230959,A,5442.9424,N,11318.4701,W,000.0,023.7,210819,017.7,E*60
01DDEC,022582,00C51D,$GPRMC,231000,A,5442.9425,N,11318.4702,W,000.0,023.7,210819,017.7,E*66
01DDEB,02257F,00C51C,$GPRMC,231001,A,5442.9426,N,11318.4703,W,000.0,023.7,210819,017.7,E*65
01DDEB,02257F,00C51C,$GPRMC,231002,A,5442.9422,N,11318.4702,W,000.0,023.7,210819,017.7,E*63
01DDEA,02257D,00C51B,$GPRMC,231003,A,5442.9423,N,11318.4703,W,000.0,023.7,210819,017.7,E*62
01DDEE,022582,00C51E,$GPRMC,231004,A,5442.9423,N,11318.4703,W,000.0,023.7,210819,017.7,E*65
01DDEB,02257D,00C51B,$GPRMC,231005,A,5442.9424,N,11318.4704,W,000.0,023.7,210819,017.7,E*64
01DDEF,022583,00C51E,$GPRMC,231006,A,5442.9425,N,11318.4704,W,000.0,023.7,210819,017.7,E*66
01DDEE,022581,00C51C,$GPRMC,231007,A,5442.9426,N,11318.4705,W,000.0,023.7,210819,017.7,E*65
01DDF0,022583,00C51D,$GPRMC,231008,A,5442.9426,N,11318.4705,W,000.0,023.7,210819,017.7,E*6A
01DDEC,02257E,00C51B,$GPRMC,231009,A,5442.9434,N,11318.4708,W,000.0,023.7,210819,017.7,E*65
01DDF2,022587,00C51E,$GPRMC,231010,A,5442.9437,N,11318.4710,W,000.0,023.7,210819,017.7,E*67
01DDEF,022583,00C51D,$GPRMC,231011,A,5442.9440,N,11318.4712,W,000.0,023.7,210819,017.7,E*64
01DDF4,022587,00C51F,$GPRMC,231012,A,5442.9441,N,11318.4714,W,000.0,023.7,210819,017.7,E*60
01DDEC,02257C,00C51B,$GPRMC,231013,A,5442.9442,N,11318.4715,W,000.0,023.7,210819,017.7,E*63
01DDF1,022584,00C51E,$GPRMC,231014,A,5442.9443,N,11318.4716,W,000.0,023.7,210819,017.7,E*66
01DDEE,02257E,00C51B,$GPRMC,231015,A,5442.9443,N,11318.4716,W,000.0,023.7,210819,017.7,E*67
01DDEE,02257F,00C51B,$GPRMC,231016,A,5442.9444,N,11318.4717,W,000.0,023.7,210819,017.7,E*62
01DDEE,022580,00C51C,$GPRMC,231017,A,5442.9444,N,11318.4718,W,000.0,023.7,210819,017.7,E*6C
01DDEC,02257B,00C51A,$GPRMC,231018,A,5442.9445,N,11318.4719,W,000.0,023.7,210819,017.7,E*63
01DDEE,02257F,00C51C,$GPRMC,231019,A,5442.9445,N,11318.4720,W,000.0,023.7,210819,017.7,E*68
01DDEF,022581,00C51D,$GPRMC,231020,A,5442.9446,N,11318.4720,W,000.0,023.7,210819,017.7,E*61
01DDED,022580,00C51C,$GPRMC,231021,A,5442.9446,N,11318.4721,W,000.0,023.7,210819,017.7,E*61
01DDF1,022583,00C51E,$GPRMC,231022,A,5442.9447,N,11318.4722,W,000.0,023.7,210819,017.7,E*60
01DDED,02257F,00C51B,$GPRMC,231023,A,5442.9447,N,11318.4723,W,000.0,023.7,210819,017.7,E*60
01DDED,02257D,00C51B,$GPRMC,231024,A,5442.9448,N,11318.4724,W,000.0,023.7,210819,017.7,E*6F
01DDF4,022585,00C51F,$GPRMC,231025,A,5442.9449,N,11318.4724,W,000.0,023.7,210819,017.7,E*6F
01DDEE,02257D,00C51B,$GPRMC,231026,A,5442.9449,N,11318.4725,W,000.0,023.7,210819,017.7,E*6D
01DDF1,022581,00C51D,$GPRMC,231027,A,5442.9450,N,11318.4726,W,000.0,023.7,210819,017.7,E*67
01DDEF,02257E,00C51B,$GPRMC,231028,A,5442.9450,N,11318.4727,W,000.0,023.7,210819,017.7,E*69
01DDF4,022584,00C51E,$GPRMC,231029,A,5442.9451,N,11318.4727,W,000.0,023.7,210819,017.7,E*69
01DDEF,02257D,00C51B,$GPRMC,231030,A,5442.9451,N,11318.4728,W,000.0,023.7,210819,017.7,E*6E
01DDF3,022583,00C51E,$GPRMC,231031,A,5442.9452,N,11318.4729,W,000.0,023.7,210819,017.7,E*6D
01DDF1,022580,00C51C,$GPRMC,231032,A,5442.9452,N,11318.4730,W,000.0,023.7,210819,017.7,E*66
01DDF3,022582,00C51D,$GPRMC,231033,A,5442.9453,N,11318.4731,W,000.0,023.7,210819,017.7,E*67
01DDF1,02257F,00C51C,$GPRMC,231034,A,5442.9453,N,11318.4731,W,000.0,023.7,210819,017.7,E*60
01DDF4,022584,00C51F,$GPRMC,231035,A,5442.9454,N,11318.4732,W,000.0,023.7,210819,017.7,E*65
01DDF0,02257F,00C51C,$GPRMC,231036,A,5442.9455,N,11318.4733,W,000.0,023.7,210819,017.7,E*66
01DDF3,022582,00C51D,$GPRMC,231037,A,5442.9455,N,11318.4734,W,000.0,023.7,210819,017.7,E*60
01DDF3,022582,00C51D,$GPRMC,231038,A,5442.9456,N,11318.4735,W,000.0,023.7,210819,017.7,E*6D
01DDF3,022581,00C51D,$GPRMC,231039,A,5442.9456,N,11318.4735,W,000.0,023.7,210819,017.7,E*6C
01DDEE,02257A,00C51A,$GPRMC,231040,A,5442.9457,N,11318.4736,W,000.0,023.7,210819,017.7,E*60
01DDF3,022582,00C51E,$GPRMC,231041,A,5442.9457,N,11318.4737,W,000.0,023.7,210819,017.7,E*60
01DDF0,02257E,00C51C,$GPRMC,231042,A,5442.9458,N,11318.4738,W,000.0,023.7,210819,017.7,E*63
01DDF6,022586,00C51F,$GPRMC,231043,V,5442.9458,N,11318.4738,W,,,210819,017.7,E*73
01DDF1,02257D,00C51C,$GPRMC,231044,V,5442.9458,N,11318.4738,W,,,210819,017.7,E*74
