01DE6E,022647,00C4AB,$GPRMC,070000,A,5442.9389,N,11318.4590,W,000.0,022.4,220819,017.7,E*68
01DE6B,022643,00C4AA,$GPRMC,070001,A,5442.9388,N,11318.4586,W,000.0,022.4,220819,017.7,E*6F
01DE6C,022646,00C4AB,$GPRMC,070002,A,5442.9388,N,11318.4582,W,000.0,022.4,220819,017.7,E*68
01DE70,02264B,00C4AD,$GPRMC,070003,A,5442.9388,N,11318.4578,W,000.0,022.4,220819,017.7,E*6C
01DE6C,022647,00C4AA,$GPRMC,070004,A,5442.9388,N,11318.4574,W,000.0,022.4,220819,017.7,E*67
01DE6E,022649,00C4AB,$GPRMC,070005,A,5442.9389,N,11318.4572,W,000.0,022.4,220819,017.7,E*61
01DE6A,022643,00C4A9,$GPRMC,070006,A,5442.9391,N,11318.4574,W,000.0,022.4,220819,017.7,E*6D
01DE6A,022645,00C4AA,$GPRMC,070007,A,5442.9393,N,11318.4575,W,000.0,022.4,220819,017.7,E*6F
01DE6B,022646,00C4AA,$GPRMC,070008,A,5442.9387,N,11318.4571,W,000.0,022.4,220819,017.7,E*61
01DE67,022640,00C4A7,$GPRMC,070009,A,5442.9387,N,11318.4571,W,000.0,022.4,220819,017.7,E*60
01DE6D,022647,00C4AB,$GPRMC,070010,A,5442.9386,N,11318.4569,W,000.0,022.4,220819,017.7,E*60
01DE69,022642,00C4A8,$GPRMC,070011,A,5442.9386,N,11318.4570,W,000.0,022.4,220819,017.7,E*69
01DE6A,022645,00C4AA,$GPRMC,070012,A,5442.9386,N,11318.4570,W,000.0,022.4,220819,017.7,E*6A
01DE6A,022644,00C4A9,$GPRMC,070013,A,5442.9386,N,11318.4570,W,000.0,022.4,220819,017.7,E*6B
01DE69,022643,00C4A9,$GPRMC,070014,A,5442.9386,N,11318.4570,W,000.0,022.4,220819,017.7,E*6C
01DE6D,02264A,00C4AC,$GPRMC,070015,A,5442.9384,N,11318.4569,W,000.0,022.4,220819,017.7,E*67
01DE71,02264D,00C4AE,$GPRMC,070016,A,5442.9381,N,11318.4568,W,000.0,022.4,220819,017.7,E*60
01DE6B,022645,00C4AA,$GPRMC,070017,A,5442.9381,N,11318.4568,W,000.0,022.4,220819,017.7,E*61
01DE6F,02264B,00C4AC,$GPRMC,070018,A,5442.9380,N,11318.4570,W,000.0,022.4,220819,017.7,E*66
01DE69,022642,00C4A8,$GPRMC,070019,A,5442.9379,N,11318.4569,W,000.0,022.4,220819,017.7,E*69
01DE70,02264B,00C4AC,$GPRMC,070020,A,5442.9375,N,11318.4566,W,000.0,022.4,220819,017.7,E*60
01DE6D,02264A,00C4AB,$GPRMC,070021,A,5442.9375,N,11318.4565,W,000.0,022.4,220819,017.7,E*62
01DE6A,022644,00C4AA,$GPRMC,070022,A,5442.9375,N,11318.4565,W,000.0,022.4,220819,017.7,E*61
01DE69,022643,00C4A9,$GPRMC,070023,A,5442.9374,N,11318.4564,W,000.0,022.4,220819,017.7,E*60
01DE6E,022649,00C4AC,$GPRMC,070024,A,5442.9373,N,11318.4562,W,000.0,022.4,220819,017.7,E*66
01DE6D,022648,00C4AB,$GPRMC,070025,A,5442.9373,N,11318.4560,W,000.0,022.4,220819,017.7,E*65
01DE6A,022643,00C4A9,$GPRMC,070026,A,5442.9371,N,11318.4559,W,000.0,022.4,220819,017.7,E*6E
01DE6A,022642,00C4A9,$GPRMC,070027,A,5442.9368,N,11318.4552,W,001.0,022.4,220819,017.7,E*6D
01DE68,022641,00C4A8,$GPRMC,070028,A,5442.9367,N,11318.4548,W,001.0,022.4,220819,017.7,E*66
01DE69,022640,00C4A8,$GPRMC,070029,A,5442.9366,N,11318.4543,W,001.0,022.4,220819,017.7,E*6D
01DE6F,02264B,00C4AC,$GPRMC,070030,A,5442.9365,N,11318.4541,W,000.9,022.4,220819,017.7,E*6C
01DE6D,022646,00C4AA,$GPRMC,070031,A,5442.9363,N,11318.4537,W,000.0,022.4,220819,017.7,E*63
01DE6F,02264A,00C4AC,$GPRMC,070032,A,5442.9362,N,11318.4537,W,000.0,022.4,220819,017.7,E*61
01DE6C,022645,00C4AA,$GPRMC,070033,A,5442.9362,N,11318.4537,W,000.0,022.4,220819,017.7,E*60
01DE6E,022648,00C4AB,$GPRMC,070034,A,5442.9361,N,11318.4537,W,000.0,022.4,220819,017.7,E*64
01DE73,02264E,00C4AE,$GPRMC,070035,A,5442.9360,N,11318.4537,W,000.0,022.4,220819,017.7,E*64
01DE70,02264A,00C4AC,$GPRMC,070036,A,5442.9359,N,11318.4536,W,000.0,022.4,220819,017.7,E*6C
01DE6E,022647,00C4AB,$GPRMC,070037,A,5442.9359,N,11318.4536,W,000.0,022.4,220819,017.7,E*6D
01DE72,02264D,00C4AD,$GPRMC,070038,A,5442.9358,N,11318.4537,W,000.0,022.4,220819,017.7,E*62
01DE72,02264B,00C4AD,$GPRMC,070039,A,5442.9358,N,11318.4537,W,000.0,022.4,220819,017.7,E*63
01DE70,022649,00C4AC,$GPRMC,070040,A,5442.9359,N,11318.4539,W,000.0,022.4,220819,017.7,E*62
01DE72,02264C,00C4AD,$GPRMC,070041,A,5442.9360,N,11318.4540,W,000.0,022.4,220819,017.7,E*67
01DE70,022649,00C4AB,$GPRMC,070042,A,5442.9361,N,11318.4542,W,000.0,022.4,220819,017.7,E*67
01DE71,02264B,00C4AC,$GPRMC,070043,A,5442.9363,N,11318.4545,W,000.0,022.4,220819,017.7,E*63
01DE6F,022647,00C4AA,$GPRMC,070044,A,5442.9363,N,11318.4545,W,000.0,022.4,220819,017.7,E*64
01DE6D,022645,00C4AA,$GPRMC,070045,A,5442.9363,N,11318.4544,W,000.0,022.4,220819,017.7,E*64
01DE71,022649,00C4AC,$GPRMC,070046,A,5442.9363,N,11318.4544,W,000.0,022.4,220819,017.7,E*67
01DE71,022648,00C4AB,$GPRMC,070047,A,5442.9364,N,11318.4549,W,000.0,022.4,220819,017.7,E*6C
01DE70,022647,00C4AA,$GPRMC,070048,A,5442.9365,N,11318.4553,W,000.0,022.4,220819,017.7,E*69
01DE6E,022644,00C4AA,$GPRMC,070049,A,5442.9366,N,11318.4557,W,000.0,022.4,220819,017.7,E*6F
01DE70,022648,00C4AC,$GPRMC,070050,A,5442.9366,N,11318.4561,W,000.0,022.4,220819,017.7,E*62
01DE6F,022644,00C4AB,$GPRMC,070051,A,5442.9366,N,11318.4565,W,000.0,022.4,220819,017.7,E*67
01DE70,022645,00C4AB,$GPRMC,070052,A,5442.9370,N,11318.4571,W,000.0,022.4,220819,017.7,E*66
01DE6B,02263D,00C4A8,$GPRMC,070053,A,5442.9369,N,11318.4574,W,000.0,022.4,220819,017.7,E*6A
01DE6C,022640,00C4A9,$GPRMC,070054,A,5442.9368,N,11318.4576,W,000.0,022.4,220819,017.7,E*6E
01DE72,02264A,00C4AC,$GPRMC,070055,A,5442.9366,N,11318.4577,W,000.0,022.4,220819,017.7,E*60
01DE70,022646,00C4AB,$GPRMC,070056,A,5442.9364,N,11318.4579,W,000.0,022.4,220819,017.7,E*6F
01DE6F,022644,00C4AB,$GPRMC,070057,A,5442.9364,N,11318.4581,W,000.0,022.4,220819,017.7,E*69
01DE6E,022641,00C4AA,$GPRMC,070058,A,5442.9362,N,11318.4581,W,000.0,022.4,220819,017.7,E*60
01DE6F,022644,00C4AB,$GPRMC,070059,A,5442.9359,N,11318.4580,W,000.0,022.4,220819,017.7,E*68
01DE70,022645,00C4AC,$GPRMC,070100,A,5442.9360,N,11318.4581,W,000.0,022.4,220819,017.7,E*6E
01DE75,02264B,00C4AE,$GPRMC,070101,A,5442.9361,N,11318.4582,W,000.0,022.4,220819,017.7,E*6D
01DE70,022645,00C4AB,$GPRMC,070102,A,5442.9362,N,11318.4583,W,000.0,022.4,220819,017.7,E*6C
01DE70,022644,00C4AC,$GPRMC,070103,A,5442.9362,N,11318.4585,W,000.0,022.4,220819,017.7,E*6B
01DE6F,022642,00C4AB,$GPRMC,070104,A,5442.9362,N,11318.4586,W,000.0,022.4,220819,017.7,E*6F
01DE70,022645,00C4AC,$GPRMC,070105,A,5442.9365,N,11318.4589,W,000.0,022.4,220819,017.7,E*66
01DE6F,022642,00C4AA,$GPRMC,070106,A,5442.9368,N,11318.4592,W,000.0,022.4,220819,017.7,E*62
01DE70,022644,00C4AC,$GPRMC,070107,A,5442.9371,N,11318.4595,W,000.0,022.4,220819,017.7,E*6C
01DE73,022647,00C4AE,$GPRMC,070108,A,5442.9373,N,11318.4597,W,000.0,022.4,220819,017.7,E*63
01DE6E,022640,00C4AA,$GPRMC,070109,A,5442.9372,N,11318.4597,W,000.0,022.4,220819,017.7,E*63
01DE6E,022640,00C4AA,$GPRMC,070110,A,5442.9370,N,11318.4597,W,000.0,022.4,220819,017.7,E*69
01DE6F,022642,00C4AB,$GPRMC,070111,A,5442.9369,N,11318.4596,W,000.0,022.4,220819,017.7,E*61
01DE70,022642,00C4AB,$GPRMC,070112,A,5442.9369,N,11318.4596,W,000.0,022.4,220819,017.7,E*62
01DE6C,02263C,00C4A9,$GPRMC,070113,A,5442.9369,N,11318.4596,W,000.0,022.4,220819,017.7,E*63
01DE6E,022640,00C4AA,$GPRMC,070114,A,5442.9368,N,11318.4596,W,000.0,022.4,220819,017.7,E*65
01DE6F,022641,00C4AC,$GPRMC,070115,A,5442.9369,N,11318.4596,W,000.0,022.4,220819,017.7,E*65
01DE6D,02263E,00C4AA,$GPRMC,070116,A,5442.9369,N,11318.4597,W,000.0,022.4,220819,017.7,E*67
01DE6D,02263D,00C4AA,$GPRMC,070117,A,5442.9371,N,11318.4599,W,000.0,022.4,220819,017.7,E*61
01DE6E,022640,00C4AB,$GPRMC,070118,A,5442.9373,N,11318.4601,W,000.0,022.4,220819,017.7,E*6E
01DE6F,022642,00C4AC,$GPRMC,070119,A,5442.9376,N,11318.4603,W,000.0,022.4,220819,017.7,E*68
01DE6F,022642,00C4AC,$GPRMC,070120,A,5442.9378,N,11318.4604,W,000.0,022.4,220819,017.7,E*6B
01DE6F,022641,00C4AC,$GPRMC,070121,A,5442.9380,N,11318.4606,W,000.0,022.4,220819,017.7,E*6F
01DE72,022645,00C4AD,$GPRMC,070122,A,5442.9381,N,11318.4607,W,000.0,022.4,220819,017.7,E*6C
01DE6F,022642,00C4AB,$GPRMC,070123,A,5442.9382,N,11318.4608,W,000.0,022.4,220819,017.7,E*61
01DE72,022645,00C4AD,$GPRMC,070124,A,5442.9383,N,11318.4609,W,000.0,022.4,220819,017.7,E*66
01DE6F,022642,00C4AB,$GPRMC,070125,A,5442.9382,N,11318.4609,W,000.0,022.4,220819,017.7,E*66
01DE72,022645,00C4AD,$GPRMC,070126,A,5442.9383,N,11318.4610,W,000.0,022.4,220819,017.7,E*6C
01DE6E,022640,00C4AB,$GPRMC,070127,A,5442.9382,N,11318.4610,W,000.0,022.4,220819,017.7,E*6C
01DE6C,02263D,00C4AB,$GPRMC,070128,A,5442.9381,N,11318.4610,W,000.0,022.4,220819,017.7,E*60
01DE72,022645,00C4AE,$GPRMC,070129,A,5442.9381,N,11318.4610,W,000.0,022.4,220819,017.7,E*61
01DE70,022644,00C4AD,$GPRMC,070130,A,5442.9380,N,11318.4609,W,000.0,022.4,220819,017.7,E*60
01DE6F,022643,00C4AD,$GPRMC,070131,A,5442.9380,N,11318.4609,W,000.0,022.4,220819,017.7,E*61
01DE6E,02263F,00C4AB,$GPRMC,070132,A,5442.9379,N,11318.4609,W,000.0,022.4,220819,017.7,E*64
01DE74,022648,00C4AF,$GPRMC,070133,A,5442.9377,N,11318.4609,W,000.0,022.4,220819,017.7,E*6B
01DE6F,022641,00C4AB,$GPRMC,070134,A,5442.9377,N,11318.4609,W,000.0,022.4,220819,017.7,E*6C
01DE70,022644,00C4AC,$GPRMC,070135,A,5442.9376,N,11318.4608,W,000.0,022.4,220819,017.7,E*6D
01DE72,022646,00C4AE,$GPRMC,070136,A,5442.9375,N,11318.4608,W,000.0,022.4,220819,017.7,E*6D
01DE6E,02263F,00C4AC,$GPRMC,070137,A,5442.9375,N,11318.4609,W,000.0,022.4,220819,017.7,E*6D
01DE6E,022641,00C4AC,$GPRMC,070138,A,5442.9375,N,11318.4609,W,000.0,022.4,220819,017.7,E*62
01DE6F,022642,00C4AC,$GPRMC,070139,A,5442.9374,N,11318.4609,W,000.0,022.4,220819,017.7,E*62
01DE70,022642,00C4AD,$GPRMC,070140,A,5442.9374,N,11318.4609,W,000.0,022.4,220819,017.7,E*6C
01DE6D,022640,00C4AC,$GPRMC,070141,A,5442.9374,N,11318.4609,W,000.0,022.4,220819,017.7,E*6D
01DE6E,022640,00C4AC,$GPRMC,070142,A,5442.9375,N,11318.4610,W,000.0,022.4,220819,017.7,E*67
01DE6E,022640,00C4AC,$GPRMC,070143,A,5442.9374,N,11318.4609,W,000.0,022.4,220819,017.7,E*6F
01DE6A,02263B,00C4A9,$GPRMC,070144,A,5442.9374,N,11318.4609,W,000.0,022.4,220819,017.7,E*68
01DE71,022645,00C4AD,$GPRMC,070145,A,5442.9374,N,11318.4610,W,000.0,022.4,220819,017.7,E*61
01DE70,022644,00C4AD,$GPRMC,070146,A,5442.9376,N,11318.4611,W,000.0,022.4,220819,017.7,E*61
01DE6E,02263F,00C4AB,$GPRMC,070147,A,5442.9377,N,11318.4613,W,000.0,022.4,220819,017.7,E*63
01DE6D,022640,00C4AB,$GPRMC,070148,A,5442.9374,N,11318.4612,W,000.0,022.4,220819,017.7,E*6E
01DE70,022644,00C4AD,$GPRMC,070149,A,5442.9372,N,11318.4612,W,000.0,022.4,220819,017.7,E*69
01DE6E,022643,00C4AD,$GPRMC,070150,A,5442.9371,N,11318.4612,W,000.0,022.4,220819,017.7,E*62
01DE6D,022640,00C4AB,$GPRMC,070151,A,5442.9372,N,11318.4613,W,000.0,022.4,220819,017.7,E*61
01DE6C,022641,00C4AB,$GPRMC,070152,A,5442.9372,N,11318.4614,W,000.0,022.4,220819,017.7,E*65
01DE6D,022641,00C4AB,$GPRMC,070153,A,5442.9372,N,11318.4616,W,000.0,022.4,220819,017.7,E*66
01DE6A,02263E,00C4AA,$GPRMC,070154,A,5442.9372,N,11318.4617,W,000.0,022.4,220819,017.7,E*60
01DE6D,022642,00C4AB,$GPRMC,070155,A,5442.9372,N,11318.4620,W,000.0,022.4,220819,017.7,E*65
01DE6C,02263F,00C4AB,$GPRMC,070156,A,5442.9372,N,11318.4622,W,000.0,022.4,220819,017.7,E*64
01DE6D,022643,00C4AC,$GPRMC,070157,A,5442.9373,N,11318.4625,W,000.0,022.4,220819,017.7,E*63
01DE6E,022644,00C4AD,$GPRMC,070158,A,5442.9373,N,11318.4627,W,000.0,022.4,220819,017.7,E*6E
01DE6F,022645,00C4AC,$GPRMC,070159,A,5442.9373,N,11318.4630,W,000.0,022.4,220819,017.7,E*69
01DE6F,022647,00C4AD,$GPRMC,070200,A,5442.9374,N,11318.4633,W,000.0,022.4,220819,017.7,E*62
01DE70,022648,00C4AF,$GPRMC,070201,A,5442.9375,N,11318.4636,W,000.0,022.4,220819,017.7,E*67
01DE6D,022642,00C4AC,$GPRMC,070202,A,5442.9375,N,11318.4639,W,000.0,022.4,220819,017.7,E*6B
01DE6C,022643,00C4AC,$GPRMC,070203,A,5442.9376,N,11318.4642,W,000.0,022.4,220819,017.7,E*65
01DE6C,022642,00C4AB,$GPRMC,070204,A,5442.9377,N,11318.4644,W,000.0,022.4,220819,017.7,E*65
01DE6D,022643,00C4AC,$GPRMC,070205,A,5442.9376,N,11318.4642,W,000.0,022.4,220819,017.7,E*63
01DE6D,022644,00C4AC,$GPRMC,070206,A,5442.9375,N,11318.4639,W,000.0,022.4,220819,017.7,E*6F
01DE70,022649,00C4AE,$GPRMC,070207,A,5442.9376,N,11318.4639,W,000.0,022.4,220819,017.7,E*6D
01DE6D,022645,00C4AD,$GPRMC,070208,A,5442.9375,N,11318.4636,W,000.0,022.4,220819,017.7,E*6E
01DE6E,022646,00C4AD,$GPRMC,070209,A,5442.9373,N,11318.4633,W,000.0,022.4,220819,017.7,E*6C
01DE6E,022647,00C4AE,$GPRMC,070210,A,5442.9372,N,11318.4630,W,000.0,022.4,220819,017.7,E*66
01DE6D,022644,00C4AC,$GPRMC,070211,A,5442.9371,N,11318.4628,W,000.0,022.4,220819,017.7,E*6D
01DE71,02264B,00C4AF,$GPRMC,070212,A,5442.9365,N,11318.4624,W,000.0,022.4,220819,017.7,E*67
01DE6C,022644,00C4AC,$GPRMC,070213,A,5442.9368,N,11318.4624,W,000.0,022.4,220819,017.7,E*6B
01DE6D,022646,00C4AD,$GPRMC,070214,A,5442.9362,N,11318.4621,W,000.0,022.4,220819,017.7,E*63
01DE6D,022645,00C4AC,$GPRMC,070215,A,5442.9363,N,11318.4622,W,000.0,022.4,220819,017.7,E*60
01DE6D,022644,00C4AC,$GPRMC,070216,A,5442.9364,N,11318.4623,W,000.0,022.4,220819,017.7,E*65
01DE6E,022647,00C4AD,$GPRMC,070217,A,5442.9365,N,11318.4624,W,000.0,022.4,220819,017.7,E*62
01DE6E,022648,00C4AD,$GPRMC,070218,A,5442.9366,N,11318.4625,W,000.0,022.4,220819,017.7,E*6F
01DE71,02264A,00C4AE,$GPRMC,070219,A,5442.9367,N,11318.4625,W,000.0,022.4,220819,017.7,E*6F
01DE6C,022645,00C4AC,$GPRMC,070220,A,5442.9366,N,11318.4625,W,000.0,022.4,220819,017.7,E*64
01DE69,02263F,00C4A9,$GPRMC,070221,A,5442.9366,N,11318.4625,W,000.0,022.4,220819,017.7,E*65
01DE6B,022644,00C4AB,$GPRMC,070222,A,5442.9368,N,11318.4626,W,000.0,022.4,220819,017.7,E*6B
01DE6A,022642,00C4AA,$GPRMC,070223,A,5442.9369,N,11318.4627,W,000.0,022.4,220819,017.7,E*6A
01DE6E,022645,00C4AC,$GPRMC,070224,A,5442.9369,N,11318.4628,W,000.0,022.4,220819,017.7,E*62
01DE6B,022644,00C4AB,$GPRMC,070225,A,5442.9369,N,11318.4630,W,000.0,022.4,220819,017.7,E*6A
01DE6D,022645,00C4AC,$GPRMC,070226,A,5442.9369,N,11318.4631,W,000.0,022.4,220819,017.7,E*68
01DE6E,022647,00C4AD,$GPRMC,070227,A,5442.9370,N,11318.4632,W,000.0,022.4,220819,017.7,E*62
01DE6D,022645,00C4AB,$GPRMC,070228,A,5442.9371,N,11318.4633,W,000.0,022.4,220819,017.7,E*6D
01DE6C,022645,00C4AB,$GPRMC,070229,A,5442.9372,N,11318.4635,W,000.0,022.4,220819,017.7,E*69
01DE6E,022648,00C4AC,$GPRMC,070230,A,5442.9373,N,11318.4636,W,000.0,022.4,220819,017.7,E*63
01DE6C,022643,00C4AA,$GPRMC,070231,A,5442.9373,N,11318.4637,W,000.0,022.4,220819,017.7,E*63
01DE70,02264A,00C4AD,$GPRMC,070232,A,5442.9373,N,11318.4637,W,000.0,022.4,220819,017.7,E*60
01DE6D,022645,00C4AA,$GPRMC,070233,A,5442.9374,N,11318.4638,W,000.0,022.4,220819,017.7,E*69
01DE6C,022643,00C4AA,$GPRMC,070234,A,5442.9376,N,11318.4639,W,000.0,022.4,220819,017.7,E*6D
01DE6E,022648,00C4AC,$GPRMC,070235,A,5442.9377,N,11318.4639,W,000.0,022.4,220819,017.7,E*6D
01DE71,02264A,00C4AE,$GPRMC,070236,A,5442.9378,N,11318.4640,W,000.0,022.4,220819,017.7,E*6F
01DE6E,022648,00C4AC,$GPRMC,070237,A,5442.9379,N,11318.4641,W,000.0,022.4,220819,017.7,E*6E
01DE6E,022647,00C4AB,$GPRMC,070238,A,5442.9381,N,11318.4642,W,000.0,022.4,220819,017.7,E*65
01DE6F,022648,00C4AB,$GPRMC,070239,A,5442.9382,N,11318.4644,W,000.0,022.4,220819,017.7,E*61
01DE6E,022648,00C4AB,$GPRMC,070240,A,5442.9384,N,11318.4645,W,000.0,022.4,220819,017.7,E*68
01DE70,02264A,00C4AC,$GPRMC,070241,A,5442.9386,N,11318.4648,W,000.0,022.4,220819,017.7,E*66
01DE6E,022647,00C4AB,$GPRMC,070242,A,5442.9387,N,11318.4650,W,000.0,022.4,220819,017.7,E*6D
01DE70,022649,00C4AC,$GPRMC,070243,A,5442.9389,N,11318.4652,W,000.0,022.4,220819,017.7,E*60
01DE6F,022648,00C4AC,$GPRMC,070244,A,5442.9390,N,11318.4655,W,000.0,022.4,220819,017.7,E*68
01DE6D,022644,00C4AB,$GPRMC,070245,A,5442.9392,N,11318.4659,W,000.0,022.4,220819,017.7,E*67
01DE6F,022648,00C4AB,$GPRMC,070246,A,5442.9393,N,11318.4662,W,000.0,022.4,220819,017.7,E*6D
01DE6C,022643,00C4A9,$GPRMC,070247,A,5442.9395,N,11318.4665,W,000.0,022.4,220819,017.7,E*6D
01DE6F,022647,00C4AB,$GPRMC,070248,A,5442.9396,N,11318.4668,W,000.0,022.4,220819,017.7,E*6C
01DE70,022649,00C4AC,$GPRMC,070249,A,5442.9397,N,11318.4670,W,000.0,022.4,220819,017.7,E*65
01DE6C,022642,00C4A9,$GPRMC,070250,A,5442.9397,N,11318.4671,W,000.0,022.4,220819,017.7,E*6C
01DE6F,022646,00C4AB,$GPRMC,070251,A,5442.9400,N,11318.4669,W,000.0,022.4,220819,017.7,E*6D
01DE6F,022647,00C4AB,$GPRMC,070252,A,5442.9400,N,11318.4669,W,000.0,022.4,220819,017.7,E*6E
01DE6D,022644,00C4AA,$GPRMC,070253,A,5442.9393,N,11318.4660,W,000.0,022.4,220819,017.7,E*6B
01DE70,022648,00C4AC,$GPRMC,070254,A,5442.9394,N,11318.4661,W,000.0,022.4,220819,017.7,E*6A
01DE6D,022642,00C4AA,$GPRMC,070255,A,5442.9395,N,11318.4662,W,000.0,022.4,220819,017.7,E*69
01DE71,022648,00C4AC,$GPRMC,070256,A,5442.9396,N,11318.4663,W,000.0,022.4,220819,017.7,E*68
01DE6E,022644,00C4AA,$GPRMC,070257,A,5442.9397,N,11318.4663,W,000.0,022.4,220819,017.7,E*68
01DE73,02264C,00C4AE,$GPRMC,070258,A,5442.9398,N,11318.4664,W,000.0,022.4,220819,017.7,E*6F
01DE6C,022641,00C4AA,$GPRMC,070259,A,5442.9396,N,11318.4663,W,000.0,022.4,220819,017.7,E*67
01DE6C,022641,00C4A9,$GPRMC,070300,A,5442.9387,N,11318.4654,W,000.0,022.4,220819,017.7,E*6E
01DE6D,022642,00C4AA,$GPRMC,070301,A,5442.9377,N,11318.4646,W,000.0,022.4,220819,017.7,E*63
01DE71,022649,00C4AD,$GPRMC,070302,A,5442.9377,N,11318.4641,W,000.0,022.4,220819,017.7,E*67
01DE72,022649,00C4AD,$GPRMC,070303,A,5442.9368,N,11318.4633,W,000.0,022.4,220819,017.7,E*6D
01DE6F,022646,00C4AB,$GPRMC,070304,A,5442.9360,N,11318.4626,W,000.0,022.4,220819,017.7,E*66
01DE6F,022644,00C4AB,$GPRMC,070305,A,5442.9352,N,11318.4619,W,000.0,022.4,220819,017.7,E*6A
01DE6F,022645,00C4AB,$GPRMC,070306,A,5442.9331,N,11318.4605,W,000.0,022.4,220819,017.7,E*61
01DE6B,02263F,00C4A8,$GPRMC,070307,A,5442.9322,N,11318.4598,W,000.0,022.4,220819,017.7,E*65
01DE70,022647,00C4AC,$GPRMC,070308,A,5442.9325,N,11318.4600,W,000.0,022.4,220819,017.7,E*6F
01DE6F,022646,00C4AC,$GPRMC,070309,A,5442.9325,N,11318.4600,W,000.0,022.4,220819,017.7,E*6E
01DE6C,022640,00C4A9,$GPRMC,070310,A,5442.9321,N,11318.4598,W,000.0,022.4,220819,017.7,E*60
01DE71,022647,00C4AC,$GPRMC,070311,A,5442.9324,N,11318.4600,W,000.0,022.4,220819,017.7,E*66
01DE6E,022644,00C4AB,$GPRMC,070312,A,5442.9326,N,11318.4601,W,000.0,022.4,220819,017.7,E*66
01DE6C,022641,00C4AA,$GPRMC,070313,A,5442.9323,N,11318.4598,W,000.0,022.4,220819,017.7,E*61
01DE6D,022642,00C4AA,$GPRMC,070314,A,5442.9319,N,11318.4596,W,000.0,022.4,220819,017.7,E*61
01DE6E,022644,00C4AB,$GPRMC,070315,A,5442.9316,N,11318.4593,W,000.0,022.4,220819,017.7,E*6A
01DE6A,02263E,00C4A8,$GPRMC,070316,A,5442.9320,N,11318.4595,W,000.0,022.4,220819,017.7,E*6A
01DE6C,022641,00C4AA,$GPRMC,070317,A,5442.9322,N,11318.4597,W,000.0,022.4,220819,017.7,E*6B
01DE6F,022646,00C4AC,$GPRMC,070318,A,5442.9324,N,11318.4598,W,000.0,022.4,220819,017.7,E*6D
01DE70,022645,00C4AC,$GPRMC,070319,A,5442.9325,N,11318.4598,W,000.0,022.4,220819,017.7,E*6D
01DE6E,022644,00C4AC,$GPRMC,070320,A,5442.9327,N,11318.4598,W,000.0,022.4,220819,017.7,E*65
01DE6D,022640,00C4AB,$GPRMC,070321,A,5442.9328,N,11318.4598,W,000.0,022.4,220819,017.7,E*6B
01DE6D,022642,00C4AB,$GPRMC,070322,A,5442.9329,N,11318.4598,W,000.0,022.4,220819,017.7,E*69
01DE6C,022641,00C4AA,$GPRMC,070323,A,5442.9329,N,11318.4597,W,000.0,022.4,220819,017.7,E*67
01DE6B,02263F,00C4A9,$GPRMC,070324,A,5442.9330,N,11318.4597,W,000.0,022.4,220819,017.7,E*68
01DE6A,02263E,00C4A9,$GPRMC,070325,A,5442.9330,N,11318.4596,W,000.0,022.4,220819,017.7,E*68
01DE6A,02263E,00C4AA,$GPRMC,070326,A,5442.9333,N,11318.4597,W,000.0,022.4,220819,017.7,E*69
01DE6C,02263F,00C4AA,$GPRMC,070327,A,5442.9336,N,11318.4599,W,000.0,022.4,220819,017.7,E*63
01DE73,02264C,00C4AF,$GPRMC,070328,A,5442.9339,N,11318.4600,W,000.0,022.4,220819,017.7,E*60
01DE6D,022643,00C4AB,$GPRMC,070329,A,5442.9342,N,11318.4602,W,000.0,022.4,220819,017.7,E*6F
01DE6E,022644,00C4AC,$GPRMC,070330,A,5442.9344,N,11318.4604,W,000.0,022.4,220819,017.7,E*67
01DE6C,022641,00C4AB,$GPRMC,070331,A,5442.9346,N,11318.4605,W,000.0,022.4,220819,017.7,E*65
01DE72,022649,00C4AE,$GPRMC,070332,A,5442.9347,N,11318.4607,W,000.0,022.4,220819,017.7,E*65
01DE6F,022646,00C4AC,$GPRMC,070333,A,5442.9348,N,11318.4609,W,000.0,022.4,220819,017.7,E*65
01DE6E,022644,00C4AD,$GPRMC,070334,A,5442.9350,N,11318.4611,W,000.0,022.4,220819,017.7,E*62
01DE6F,022645,00C4AD,$GPRMC,070335,A,5442.9353,N,11318.4614,W,000.0,022.4,220819,017.7,E*65
01DE6F,022646,00C4AD,$GPRMC,070336,A,5442.9353,N,11318.4615,W,000.0,022.4,220819,017.7,E*67
01DE6C,022641,00C4AB,$GPRMC,070337,A,5442.9352,N,11318.4616,W,000.0,022.4,220819,017.7,E*64
01DE6D,022643,00C4AB,$GPRMC,070338,A,5442.9351,N,11318.4617,W,000.0,022.4,220819,017.7,E*69
01DE6C,022640,00C4AA,$GPRMC,070339,A,5442.9349,N,11318.4617,W,000.0,022.4,220819,017.7,E*61
01DE6C,022640,00C4AA,$GPRMC,070340,A,5442.9348,N,11318.4617,W,000.0,022.4,220819,017.7,E*6E
01DE71,022649,00C4AE,$GPRMC,070341,A,5442.9347,N,11318.4618,W,000.0,022.4,220819,017.7,E*6F
01DE6B,02263F,00C4AA,$GPRMC,070342,A,5442.9346,N,11318.4618,W,000.0,022.4,220819,017.7,E*6D
01DE6D,022643,00C4AB,$GPRMC,070343,A,5442.9348,N,11318.4620,W,000.0,022.4,220819,017.7,E*69
01DE72,022648,00C4AE,$GPRMC,070344,A,5442.9350,N,11318.4623,W,000.0,022.4,220819,017.7,E*64
01DE6B,02263F,00C4AA,$GPRMC,070345,A,5442.9351,N,11318.4624,W,000.0,022.4,220819,017.7,E*63
01DE71,022648,00C4AD,$GPRMC,070346,A,5442.9354,N,11318.4627,W,000.0,022.4,220819,017.7,E*66
01DE6C,022640,00C4AA,$GPRMC,070347,A,5442.9357,N,11318.4629,W,000.0,022.4,220819,017.7,E*6A
01DE72,02264A,00C4AE,$GPRMC,070348,A,5442.9359,N,11318.4631,W,000.0,022.4,220819,017.7,E*62
01DE71,022649,00C4AE,$GPRMC,070349,A,5442.9361,N,11318.4633,W,000.0,022.4,220819,017.7,E*6A
01DE6F,022645,00C4AC,$GPRMC,070350,A,5442.9363,N,11318.4634,W,000.0,022.4,220819,017.7,E*67
01DE6D,022643,00C4AB,$GPRMC,070351,A,5442.9365,N,11318.4635,W,000.0,022.4,220819,017.7,E*61
01DE6F,022645,00C4AC,$GPRMC,070352,A,5442.9366,N,11318.4635,W,000.0,022.4,220819,017.7,E*61
01DE70,022648,00C4AD,$GPRMC,070353,A,5442.9368,N,11318.4636,W,000.0,022.4,220819,017.7,E*6D
01DE6F,022647,00C4AD,$GPRMC,070354,A,5442.9369,N,11318.4635,W,000.0,022.4,220819,017.7,E*68
01DE71,022648,00C4AD,$GPRMC,070355,A,5442.9370,N,11318.4635,W,000.0,022.4,220819,017.7,E*61
01DE6E,022646,00C4AC,$GPRMC,070356,A,5442.9371,N,11318.4634,W,000.0,022.4,220819,017.7,E*62
01DE70,022647,00C4AD,$GPRMC,070357,A,5442.9372,N,11318.4634,W,000.0,022.4,220819,017.7,E*60
01DE72,02264B,00C4AE,$GPRMC,070358,A,5442.9372,N,11318.4634,W,000.0,022.4,220819,017.7,E*6F
01DE70,022648,00C4AD,$GPRMC,070359,A,5442.9373,N,11318.4634,W,000.0,022.4,220819,017.7,E*6F
01DE6F,022646,00C4AD,$GPRMC,070400,A,5442.9373,N,11318.4633,W,000.0,022.4,220819,017.7,E*63
01DE72,02264A,00C4AE,$GPRMC,070401,A,5442.9372,N,11318.4634,W,000.0,022.4,220819,017.7,E*64
01DE6F,022646,00C4AC,$GPRMC,070402,A,5442.9372,N,11318.4634,W,000.0,022.4,220819,017.7,E*67
01DE73,02264B,00C4AE,$GPRMC,070403,A,5442.9371,N,11318.4634,W,000.0,022.4,220819,017.7,E*65
01DE70,022648,00C4AD,$GPRMC,070404,A,5442.9370,N,11318.4635,W,000.0,022.4,220819,017.7,E*62
01DE71,022649,00C4AE,$GPRMC,070405,A,5442.9369,N,11318.4636,W,000.0,022.4,220819,017.7,E*68
01DE71,02264B,00C4AE,$GPRMC,070406,A,5442.9369,N,11318.4637,W,000.0,022.4,220819,017.7,E*6A
01DE6F,022648,00C4AD,$GPRMC,070407,A,5442.9368,N,11318.4638,W,000.0,022.4,220819,017.7,E*65
01DE71,02264A,00C4AE,$GPRMC,070408,A,5442.9368,N,11318.4640,W,000.0,022.4,220819,017.7,E*65
01DE6E,022646,00C4AC,$GPRMC,070409,A,5442.9368,N,11318.4642,W,000.0,022.4,220819,017.7,E*66
01DE6D,022645,00C4AB,$GPRMC,070410,A,5442.9368,N,11318.4644,W,000.0,022.4,220819,017.7,E*68
01DE70,022648,00C4AD,$GPRMC,070411,A,5442.9368,N,11318.4646,W,000.0,022.4,220819,017.7,E*6B
01DE6D,022646,00C4AB,$GPRMC,070412,A,5442.9367,N,11318.4647,W,000.0,022.4,220819,017.7,E*66
01DE6F,022647,00C4AC,$GPRMC,070413,A,5442.9367,N,11318.4648,W,000.0,022.4,220819,017.7,E*68
01DE6D,022645,00C4AB,$GPRMC,070414,A,5442.9366,N,11318.4649,W,000.0,022.4,220819,017.7,E*6F
01DE6F,022648,00C4AD,$GPRMC,070415,A,5442.9373,N,11318.4654,W,000.0,022.4,220819,017.7,E*66
01DE73,02264D,00C4AF,$GPRMC,070416,A,5442.9372,N,11318.4655,W,000.0,022.4,220819,017.7,E*65
01DE71,02264C,00C4AE,$GPRMC,070417,A,5442.9372,N,11318.4656,W,000.0,022.4,220819,017.7,E*67
01DE6F,022647,00C4AD,$GPRMC,070418,A,5442.9377,N,11318.4660,W,000.0,022.4,220819,017.7,E*68
01DE6E,022646,00C4AD,$GPRMC,070419,A,5442.9376,N,11318.4660,W,000.0,022.4,220819,017.7,E*68
01DE6F,022649,00C4AD,$GPRMC,070420,A,5442.9376,N,11318.4661,W,000.0,022.4,220819,017.7,E*63
01DE6F,022648,00C4AD,$GPRMC,070421,A,5442.9376,N,11318.4661,W,000.0,022.4,220819,017.7,E*62
01DE6F,022648,00C4AD,$GPRMC,070422,A,5442.9376,N,11318.4661,W,000.0,022.4,220819,017.7,E*61
01DE73,02264F,00C4AF,$GPRMC,070423,A,5442.9375,N,11318.4661,W,000.0,022.4,220819,017.7,E*63
01DE6D,022644,00C4AB,$GPRMC,070424,A,5442.9380,N,11318.4663,W,000.0,022.4,220819,017.7,E*6C
01DE6A,022640,00C4A9,$GPRMC,070425,A,5442.9381,N,11318.4663,W,000.0,022.4,220819,017.7,E*6C
01DE71,02264A,00C4AD,$GPRMC,070426,A,5442.9382,N,11318.4663,W,000.0,022.4,220819,017.7,E*6C
01DE6E,022647,00C4AC,$GPRMC,070427,A,5442.9383,N,11318.4663,W,000.0,022.4,220819,017.7,E*6C
01DE70,02264A,00C4AD,$GPRMC,070428,A,5442.9385,N,11318.4664,W,000.0,022.4,220819,017.7,E*62
01DE6C,022645,00C4AB,$GPRMC,070429,A,5442.9386,N,11318.4665,W,000.0,022.4,220819,017.7,E*61
01DE6D,022646,00C4AB,$GPRMC,070430,A,5442.9390,N,11318.4667,W,000.0,022.4,220819,017.7,E*6C
01DE70,022648,00C4AC,$GPRMC,070431,A,5442.9393,N,11318.4669,W,000.0,022.4,220819,017.7,E*60
01DE6D,022645,00C4AB,$GPRMC,070432,A,5442.9396,N,11318.4670,W,000.0,022.4,220819,017.7,E*6E
01DE6E,022648,00C4AD,$GPRMC,070433,A,5442.9398,N,11318.4671,W,000.0,022.4,220819,017.7,E*60
01DE6D,022646,00C4AB,$GPRMC,070434,A,5442.9398,N,11318.4671,W,000.0,022.4,220819,017.7,E*67
01DE6E,022647,00C4AB,$GPRMC,070435,A,5442.9397,N,11318.4671,W,000.0,022.4,220819,017.7,E*69
01DE6B,022642,00C4A9,$GPRMC,070436,A,5442.9397,N,11318.4670,W,000.0,022.4,220819,017.7,E*6B
01DE6A,022642,00C4A9,$GPRMC,070437,A,5442.9396,N,11318.4669,W,000.0,022.4,220819,017.7,E*63
01DE70,022649,00C4AC,$GPRMC,070438,A,5442.9395,N,11318.4668,W,000.0,022.4,220819,017.7,E*6E
01DE6B,022643,00C4A9,$GPRMC,070439,A,5442.9395,N,11318.4667,W,000.0,022.4,220819,017.7,E*60
01DE6C,022644,00C4AA,$GPRMC,070440,A,5442.9393,N,11318.4665,W,000.0,022.4,220819,017.7,E*6A
01DE6B,022644,00C4AA,$GPRMC,070441,A,5442.9392,N,11318.4664,W,000.0,022.4,220819,017.7,E*6B
01DE6C,022644,00C4AB,$GPRMC,070442,A,5442.9391,N,11318.4662,W,000.0,022.4,220819,017.7,E*6D
01DE6D,022645,00C4AB,$GPRMC,070443,A,5442.9396,N,11318.4665,W,000.0,022.4,220819,017.7,E*6C
01DE6D,022646,00C4AB,$GPRMC,070444,A,5442.9401,N,11318.4668,W,000.0,022.4,220819,017.7,E*6F
01DE6F,022649,00C4AC,$GPRMC,070445,A,5442.9406,N,11318.4670,W,000.0,022.4,220819,017.7,E*60
01DE6F,022649,00C4AC,$GPRMC,070446,A,5442.9409,N,11318.4671,W,000.0,022.4,220819,017.7,E*6D
01DE6C,022645,00C4AB,$GPRMC,070447,A,5442.9413,N,11318.4672,W,000.0,022.4,220819,017.7,E*64
01DE6D,022645,00C4AB,$GPRMC,070448,A,5442.9413,N,11318.4671,W,000.0,022.4,220819,017.7,E*68
01DE6B,022641,00C4AA,$GPRMC,070449,A,5442.9413,N,11318.4669,W,000.0,022.4,220819,017.7,E*60
01DE6D,022644,00C4AB,$GPRMC,070450,A,5442.9413,N,11318.4668,W,000.0,022.4,220819,017.7,E*69
01DE6C,022643,00C4AA,$GPRMC,070451,A,5442.9412,N,11318.4667,W,000.0,022.4,220819,017.7,E*66
01DE6E,022647,00C4AB,$GPRMC,070452,A,5442.9413,N,11318.4665,W,000.0,022.4,220819,017.7,E*66
01DE6C,022645,00C4AB,$GPRMC,070453,A,5442.9416,N,11318.4666,W,000.0,022.4,220819,017.7,E*61
01DE6B,022643,00C4AA,$GPRMC,070454,A,5442.9415,N,11318.4664,W,000.0,022.4,220819,017.7,E*67
01DE6E,022647,00C4AB,$GPRMC,070455,A,5442.9413,N,11318.4662,W,000.0,022.4,220819,017.7,E*66
01DE72,02264D,00C4AE,$GPRMC,070456,A,5442.9413,N,11318.4661,W,000.0,022.4,220819,017.7,E*66
01DE71,02264B,00C4AD,$GPRMC,070457,A,5442.9414,N,11318.4661,W,000.0,022.4,220819,017.7,E*60
01DE6D,022646,00C4AC,$GPRMC,070458,A,5442.9416,N,11318.4662,W,000.0,022.4,220819,017.7,E*6E
01DE6F,022648,00C4AC,$GPRMC,070459,A,5442.9417,N,11318.4662,W,000.0,022.4,220819,017.7,E*6E
01DE71,02264B,00C4AD,$GPRMC,070500,A,5442.9417,N,11318.4662,W,000.0,022.4,220819,017.7,E*63
01DE6E,022645,00C4AB,$GPRMC,070501,A,5442.9417,N,11318.4661,W,000.0,022.4,220819,017.7,E*61
01DE6F,022648,00C4AD,$GPRMC,070502,A,5442.9417,N,11318.4661,W,000.0,022.4,220819,017.7,E*62
01DE6F,022648,00C4AD,$GPRMC,070503,A,5442.9416,N,11318.4660,W,000.0,022.4,220819,017.7,E*63
01DE6E,022646,00C4AC,$GPRMC,070504,A,5442.9415,N,11318.4658,W,000.0,022.4,220819,017.7,E*6C
01DE6D,022645,00C4AB,$GPRMC,070505,A,5442.9414,N,11318.4657,W,000.0,022.4,220819,017.7,E*63
01DE6F,022646,00C4AC,$GPRMC,070506,A,5442.9412,N,11318.4656,W,000.0,022.4,220819,017.7,E*67
01DE73,02264E,00C4AF,$GPRMC,070507,A,5442.9411,N,11318.4655,W,000.0,022.4,220819,017.7,E*66
01DE6F,022646,00C4AD,$GPRMC,070508,A,5442.9411,N,11318.4655,W,000.0,022.4,220819,017.7,E*69
01DE6D,022645,00C4AC,$GPRMC,070509,A,5442.9410,N,11318.4654,W,000.0,022.4,220819,017.7,E*68
01DE6F,022648,00C4AD,$GPRMC,070510,A,5442.9409,N,11318.4653,W,000.0,022.4,220819,017.7,E*6F
01DE73,02264D,00C4AF,$GPRMC,070511,A,5442.9408,N,11318.4652,W,000.0,022.4,220819,017.7,E*6E
01DE6E,022647,00C4AC,$GPRMC,070512,A,5442.9406,N,11318.4651,W,000.0,022.4,220819,017.7,E*60
01DE70,022649,00C4AD,$GPRMC,070513,A,5442.9404,N,11318.4649,W,000.0,022.4,220819,017.7,E*6A
01DE6D,022645,00C4AC,$GPRMC,070514,A,5442.9401,N,11318.4647,W,000.0,022.4,220819,017.7,E*66
01DE6C,022644,00C4AB,$GPRMC,070515,A,5442.9396,N,11318.4644,W,000.0,022.4,220819,017.7,E*6D
01DE6C,022644,00C4AB,$GPRMC,070516,A,5442.9393,N,11318.4642,W,000.0,022.4,220819,017.7,E*6D
01DE70,022649,00C4AD,$GPRMC,070517,A,5442.9390,N,11318.4640,W,000.0,022.4,220819,017.7,E*6D
01DE6E,022647,00C4AD,$GPRMC,070518,A,5442.9386,N,11318.4637,W,000.0,022.4,220819,017.7,E*65
01DE6D,022646,00C4AC,$GPRMC,070519,A,5442.9383,N,11318.4635,W,000.0,022.4,220819,017.7,E*63
01DE6C,022644,00C4AB,$GPRMC,070520,A,5442.9381,N,11318.4633,W,000.0,022.4,220819,017.7,E*6D
01DE70,022648,00C4AD,$GPRMC,070521,A,5442.9378,N,11318.4631,W,000.0,022.4,220819,017.7,E*68
01DE6E,022646,00C4AC,$GPRMC,070522,A,5442.9375,N,11318.4629,W,000.0,022.4,220819,017.7,E*6F
01DE72,02264D,00C4AF,$GPRMC,070523,A,5442.9372,N,11318.4627,W,000.0,022.4,220819,017.7,E*67
01DE6E,022648,00C4AD,$GPRMC,070524,A,5442.9369,N,11318.4626,W,000.0,022.4,220819,017.7,E*6B
01DE70,02264A,00C4AD,$GPRMC,070525,A,5442.9367,N,11318.4625,W,000.0,022.4,220819,017.7,E*67
01DE69,022642,00C4A9,$GPRMC,070526,A,5442.9367,N,11318.4625,W,000.0,022.4,220819,017.7,E*64
01DE6D,022645,00C4AB,$GPRMC,070527,A,5442.9367,N,11318.4625,W,000.0,022.4,220819,017.7,E*65
01DE6E,022647,00C4AB,$GPRMC,070528,A,5442.9366,N,11318.4625,W,000.0,022.4,220819,017.7,E*6B
01DE6D,022647,00C4AB,$GPRMC,070529,A,5442.9369,N,11318.4628,W,000.0,022.4,220819,017.7,E*68
01DE6E,022648,00C4AC,$GPRMC,070530,A,5442.9370,N,11318.4629,W,000.0,022.4,220819,017.7,E*69
01DE6E,022647,00C4AC,$GPRMC,070531,A,5442.9369,N,11318.4629,W,000.0,022.4,220819,017.7,E*60
01DE6C,022645,00C4AB,$GPRMC,070532,A,5442.9369,N,11318.4630,W,000.0,022.4,220819,017.7,E*6B
01DE6D,022646,00C4AC,$GPRMC,070533,A,5442.9369,N,11318.4629,W,000.0,022.4,220819,017.7,E*62
01DE70,02264B,00C4AD,$GPRMC,070534,A,5442.9369,N,11318.4629,W,000.0,022.4,220819,017.7,E*65
01DE6D,022646,00C4AC,$GPRMC,070535,A,5442.9369,N,11318.4629,W,000.0,022.4,220819,017.7,E*64
01DE6C,022645,00C4AC,$GPRMC,070536,A,5442.9369,N,11318.4629,W,000.0,022.4,220819,017.7,E*67
01DE68,02263F,00C4A8,$GPRMC,070537,A,5442.9370,N,11318.4629,W,000.0,022.4,220819,017.7,E*6E
01DE6B,022642,00C4AA,$GPRMC,070538,A,5442.9367,N,11318.4627,W,000.0,022.4,220819,017.7,E*69
01DE6D,022644,00C4AB,$GPRMC,070539,A,5442.9367,N,11318.4627,W,000.0,022.4,220819,017.7,E*68
01DE6D,022646,00C4AB,$GPRMC,070540,A,5442.9366,N,11318.4625,W,000.0,022.4,220819,017.7,E*65
01DE6E,022647,00C4AC,$GPRMC,070541,A,5442.9366,N,11318.4626,W,000.0,022.4,220819,017.7,E*67
01DE6C,022643,00C4AA,$GPRMC,070542,A,5442.9367,N,11318.4626,W,000.0,022.4,220819,017.7,E*65
01DE6C,022644,00C4AB,$GPRMC,070543,A,5442.9368,N,11318.4627,W,000.0,022.4,220819,017.7,E*6A
01DE6D,022647,00C4AB,$GPRMC,070544,A,5442.9362,N,11318.4623,W,000.0,022.4,220819,017.7,E*63
01DE6D,022646,00C4AB,$GPRMC,070545,A,5442.9356,N,11318.4621,W,000.0,022.4,220819,017.7,E*67
01DE6B,022641,00C4A9,$GPRMC,070546,A,5442.9352,N,11318.4620,W,000.0,022.4,220819,017.7,E*61
01DE6D,022646,00C4AB,$GPRMC,070547,A,5442.9349,N,11318.4620,W,000.0,022.4,220819,017.7,E*6A
01DE6F,022647,00C4AC,$GPRMC,070548,A,5442.9346,N,11318.4620,W,000.0,022.4,220819,017.7,E*6A
01DE6F,022649,00C4AC,$GPRMC,070549,A,5442.9344,N,11318.4620,W,000.0,022.4,220819,017.7,E*69
01DE6D,022644,00C4AB,$GPRMC,070550,A,5442.9342,N,11318.4621,W,000.0,022.4,220819,017.7,E*66
01DE6E,022648,00C4AC,$GPRMC,070551,A,5442.9341,N,11318.4623,W,000.0,022.4,220819,017.7,E*66
01DE71,02264B,00C4AE,$GPRMC,070552,A,5442.9341,N,11318.4625,W,000.0,022.4,220819,017.7,E*63
01DE6E,022648,00C4AC,$GPRMC,070553,A,5442.9341,N,11318.4627,W,000.0,022.4,220819,017.7,E*60
01DE6E,022646,00C4AB,$GPRMC,070554,A,5442.9342,N,11318.4630,W,000.0,022.4,220819,017.7,E*62
01DE6F,022648,00C4AC,$GPRMC,070555,A,5442.9342,N,11318.4632,W,000.0,022.4,220819,017.7,E*61
01DE6D,022645,00C4AB,$GPRMC,070556,A,5442.9341,N,11318.4631,W,000.0,022.4,220819,017.7,E*62
01DE6A,022641,00C4A9,$GPRMC,070557,A,5442.9341,N,11318.4631,W,000.0,022.4,220819,017.7,E*63
01DE6B,022642,00C4AA,$GPRMC,070558,A,5442.9341,N,11318.4630,W,000.0,022.4,220819,017.7,E*6D
01DE71,02264C,00C4AE,$GPRMC,070559,A,5442.9344,N,11318.4632,W,000.0,022.4,220819,017.7,E*6B
01DE6D,022644,00C4AB,$GPRMC,070600,A,5442.9345,N,11318.4631,W,000.0,022.4,220819,017.7,E*66
01DE6C,022645,00C4AB,$GPRMC,070601,A,5442.9345,N,11318.4630,W,000.0,022.4,220819,017.7,E*66
01DE71,02264A,00C4AE,$GPRMC,070602,A,5442.9348,N,11318.4632,W,000.0,022.4,220819,017.7,E*6A
01DE6E,022648,00C4AC,$GPRMC,070603,A,5442.9348,N,11318.4631,W,000.0,022.4,220819,017.7,E*68
01DE70,022649,00C4AD,$GPRMC,070604,A,5442.9347,N,11318.4631,W,000.0,022.4,220819,017.7,E*60
01DE73,02264E,00C4AE,$GPRMC,070605,A,5442.9349,N,11318.4632,W,000.0,022.4,220819,017.7,E*6C
01DE6C,022645,00C4AB,$GPRMC,070606,A,5442.9351,N,11318.4633,W,000.0,022.4,220819,017.7,E*67
01DE71,02264A,00C4AE,$GPRMC,070607,A,5442.9353,N,11318.4634,W,000.0,022.4,220819,017.7,E*63
01DE6D,022645,00C4AB,$GPRMC,070608,A,5442.9354,N,11318.4632,W,000.0,022.4,220819,017.7,E*6D
01DE6F,022649,00C4AC,$GPRMC,070609,A,5442.9353,N,11318.4630,W,000.0,022.4,220819,017.7,E*69
01DE6C,022644,00C4AA,$GPRMC,070610,A,5442.9353,N,11318.4628,W,000.0,022.4,220819,017.7,E*68
01DE6F,022648,00C4AC,$GPRMC,070611,A,5442.9353,N,11318.4626,W,000.0,022.4,220819,017.7,E*67
01DE73,02264D,00C4AE,$GPRMC,070612,A,5442.9354,N,11318.4625,W,000.0,022.4,220819,017.7,E*60
01DE71,02264C,00C4AE,$GPRMC,070613,A,5442.9355,N,11318.4624,W,000.0,022.4,220819,017.7,E*61
01DE71,02264C,00C4AE,$GPRMC,070614,A,5442.9356,N,11318.4623,W,000.0,022.4,220819,017.7,E*62
01DE6E,022648,00C4AC,$GPRMC,070615,A,5442.9358,N,11318.4622,W,000.0,022.4,220819,017.7,E*6C
01DE6D,022646,00C4AB,$GPRMC,070616,A,5442.9359,N,11318.4621,W,000.0,022.4,220819,017.7,E*6D
01DE6F,02264A,00C4AD,$GPRMC,070617,A,5442.9361,N,11318.4620,W,000.0,022.4,220819,017.7,E*66
01DE6B,022643,00C4AB,$GPRMC,070618,A,5442.9362,N,11318.4619,W,000.0,022.4,220819,017.7,E*60
01DE6D,022647,00C4AB,$GPRMC,070619,A,5442.9363,N,11318.4618,W,000.0,022.4,220819,017.7,E*61
01DE6F,02264A,00C4AD,$GPRMC,070620,A,5442.9364,N,11318.4618,W,000.0,022.4,220819,017.7,E*6C
01DE6C,022645,00C4AB,$GPRMC,070621,A,5442.9365,N,11318.4618,W,000.0,022.4,220819,017.7,E*6C
01DE6D,022648,00C4AC,$GPRMC,070622,A,5442.9366,N,11318.4618,W,000.0,022.4,220819,017.7,E*6C
01DE6D,022647,00C4AB,$GPRMC,070623,A,5442.9367,N,11318.4619,W,000.0,022.4,220819,017.7,E*6D
01DE6D,022648,00C4AC,$GPRMC,070624,A,5442.9366,N,11318.4615,W,000.0,022.4,220819,017.7,E*67
01DE6A,022644,00C4AA,$GPRMC,070625,A,5442.9366,N,11318.4613,W,000.0,022.4,220819,017.7,E*60
01DE6C,022646,00C4AB,$GPRMC,070626,A,5442.9366,N,11318.4613,W,000.0,022.4,220819,017.7,E*63
01DE6D,022646,00C4AB,$GPRMC,070627,A,5442.9366,N,11318.4614,W,000.0,022.4,220819,017.7,E*65
01DE6D,022648,00C4AB,$GPRMC,070628,A,5442.9366,N,11318.4614,W,000.0,022.4,220819,017.7,E*6A
01DE6B,022644,00C4AA,$GPRMC,070629,A,5442.9365,N,11318.4614,W,000.0,022.4,220819,017.7,E*68
01DE6E,022648,00C4AD,$GPRMC,070630,A,5442.9364,N,11318.4614,W,000.0,022.4,220819,017.7,E*61
01DE6A,022643,00C4AA,$GPRMC,070631,A,5442.9363,N,11318.4614,W,000.0,022.4,220819,017.7,E*67
01DE6C,022645,00C4AB,$GPRMC,070632,A,5442.9359,N,11318.4615,W,000.0,022.4,220819,017.7,E*6C
01DE6A,022644,00C4AA,$GPRMC,070633,A,5442.9355,N,11318.4615,W,000.0,022.4,220819,017.7,E*61
01DE6E,022648,00C4AC,$GPRMC,070634,A,5442.9354,N,11318.4614,W,000.0,022.4,220819,017.7,E*66
01DE6E,022648,00C4AB,$GPRMC,070635,A,5442.9352,N,11318.4613,W,000.0,022.4,220819,017.7,E*66
01DE6C,022644,00C4AA,$GPRMC,070636,A,5442.9349,N,11318.4612,W,000.0,022.4,220819,017.7,E*6E
01DE6A,022643,00C4AA,$GPRMC,070637,A,5442.9345,N,11318.4612,W,000.0,022.4,220819,017.7,E*63
01DE6E,02264A,00C4AC,$GPRMC,070638,A,5442.9342,N,11318.4611,W,000.0,022.4,220819,017.7,E*68
01DE6D,022646,00C4AB,$GPRMC,070639,A,5442.9339,N,11318.4610,W,000.0,022.4,220819,017.7,E*64
01DE6F,02264C,00C4AE,$GPRMC,070640,A,5442.9336,N,11318.4609,W,000.0,022.4,220819,017.7,E*6D
01DE6E,022648,00C4AC,$GPRMC,070641,A,5442.9334,N,11318.4609,W,000.0,022.4,220819,017.7,E*6E
01DE6D,022648,00C4AB,$GPRMC,070642,A,5442.9332,N,11318.4608,W,000.0,022.4,220819,017.7,E*6A
01DE6B,022643,00C4AA,$GPRMC,070643,A,5442.9330,N,11318.4607,W,000.0,022.4,220819,017.7,E*66
01DE6E,022649,00C4AD,$GPRMC,070644,A,5442.9329,N,11318.4605,W,000.0,022.4,220819,017.7,E*6B
01DE6F,022648,00C4AC,$GPRMC,070645,A,5442.9327,N,11318.4604,W,000.0,022.4,220819,017.7,E*65
01DE6C,022647,00C4AB,$GPRMC,070646,A,5442.9325,N,11318.4602,W,000.0,022.4,220819,017.7,E*62
01DE6E,022646,00C4AC,$GPRMC,070647,A,5442.9324,N,11318.4601,W,000.0,022.4,220819,017.7,E*61
01DE6F,022649,00C4AD,$GPRMC,070648,A,5442.9324,N,11318.4600,W,000.0,022.4,220819,017.7,E*6F
01DE6C,022645,00C4AB,$GPRMC,070649,A,5442.9323,N,11318.4600,W,000.0,022.4,220819,017.7,E*69
01DE6E,022647,00C4AC,$GPRMC,070650,A,5442.9324,N,11318.4599,W,000.0,022.4,220819,017.7,E*65
01DE6D,022647,00C4AC,$GPRMC,070651,A,5442.9324,N,11318.4600,W,000.0,022.4,220819,017.7,E*67
01DE6E,022646,00C4AC,$GPRMC,070652,A,5442.9324,N,11318.4600,W,000.0,022.4,220819,017.7,E*64
01DE6A,022640,00C4A9,$GPRMC,070653,A,5442.9325,N,11318.4601,W,000.0,022.4,220819,017.7,E*65
01DE6D,022645,00C4AB,$GPRMC,070654,A,5442.9327,N,11318.4604,W,000.0,022.4,220819,017.7,E*65
01DE6E,022647,00C4AB,$GPRMC,070655,A,5442.9329,N,11318.4606,W,000.0,022.4,220819,017.7,E*68
01DE6F,022649,00C4AC,$GPRMC,070656,A,5442.9332,N,11318.4609,W,000.0,022.4,220819,017.7,E*6E
01DE6F,022649,00C4AC,$GPRMC,070657,A,5442.9334,N,11318.4612,W,000.0,022.4,220819,017.7,E*63
01DE6E,022647,00C4AC,$GPRMC,070658,A,5442.9337,N,11318.4615,W,000.0,022.4,220819,017.7,E*68
01DE70,02264A,00C4AD,$GPRMC,070659,A,5442.9340,N,11318.4617,W,000.0,022.4,220819,017.7,E*6B
01DE6E,022648,00C4AC,$GPRMC,070700,A,5442.9342,N,11318.4619,W,000.0,022.4,220819,017.7,E*6A
01DE6B,022643,00C4AA,$GPRMC,070701,A,5442.9342,N,11318.4619,W,000.0,022.4,220819,017.7,E*6B
01DE6A,022642,00C4AA,$GPRMC,070702,A,5442.9344,N,11318.4620,W,000.0,022.4,220819,017.7,E*64
01DE6D,022646,00C4AB,$GPRMC,070703,A,5442.9346,N,11318.4621,W,000.0,022.4,220819,017.7,E*66
01DE6C,022643,00C4AA,$GPRMC,070704,A,5442.9347,N,11318.4621,W,000.0,022.4,220819,017.7,E*60
01DE6F,022648,00C4AC,$GPRMC,070705,A,5442.9349,N,11318.4621,W,000.0,022.4,220819,017.7,E*6F
01DE6F,022649,00C4AC,$GPRMC,070706,A,5442.9350,N,11318.4621,W,000.0,022.4,220819,017.7,E*64
01DE70,02264B,00C4AD,$GPRMC,070707,A,5442.9351,N,11318.4620,W,000.0,022.4,220819,017.7,E*65
01DE6D,022646,00C4AC,$GPRMC,070708,A,5442.9348,N,11318.4618,W,000.0,022.4,220819,017.7,E*69
01DE71,02264C,00C4AE,$GPRMC,070709,A,5442.9350,N,11318.4618,W,000.0,022.4,220819,017.7,E*61
01DE72,02264C,00C4AE,$GPRMC,070710,A,5442.9351,N,11318.4618,W,000.0,022.4,220819,017.7,E*68
01DE6F,02264A,00C4AE,$GPRMC,070711,A,5442.9351,N,11318.4618,W,000.0,022.4,220819,017.7,E*69
01DE71,02264C,00C4AE,$GPRMC,070712,A,5442.9351,N,11318.4618,W,000.0,022.4,220819,017.7,E*6A
01DE75,022651,00C4B0,$GPRMC,070713,A,5442.9351,N,11318.4617,W,000.0,022.4,220819,017.7,E*64
01DE72,02264D,00C4AF,$GPRMC,070714,A,5442.9351,N,11318.4618,W,000.0,022.4,220819,017.7,E*6C
01DE6E,022648,00C4AD,$GPRMC,070715,A,5442.9352,N,11318.4618,W,000.0,022.4,220819,017.7,E*6E
01DE71,02264D,00C4AE,$GPRMC,070716,A,5442.9353,N,11318.4619,W,000.0,022.4,220819,017.7,E*6D
01DE71,02264C,00C4AD,$GPRMC,070717,A,5442.9355,N,11318.4619,W,000.0,022.4,220819,017.7,E*6A
01DE70,02264A,00C4AD,$GPRMC,070718,A,5442.9356,N,11318.4620,W,000.0,022.4,220819,017.7,E*6C
01DE6F,022648,00C4AC,$GPRMC,070719,A,5442.9358,N,11318.4622,W,000.0,022.4,220819,017.7,E*61
01DE70,022649,00C4AD,$GPRMC,070720,A,5442.9360,N,11318.4623,W,000.0,022.4,220819,017.7,E*61
01DE6E,022648,00C4AC,$GPRMC,070721,A,5442.9361,N,11318.4625,W,000.0,022.4,220819,017.7,E*67
01DE73,02264F,00C4AF,$GPRMC,070722,A,5442.9362,N,11318.4627,W,000.0,022.4,220819,017.7,E*65
01DE6E,022649,00C4AD,$GPRMC,070723,A,5442.9363,N,11318.4629,W,000.0,022.4,220819,017.7,E*6B
01DE71,02264D,00C4AE,$GPRMC,070724,A,5442.9363,N,11318.4631,W,000.0,022.4,220819,017.7,E*65
01DE73,022651,00C4B0,$GPRMC,070725,A,5442.9363,N,11318.4633,W,000.0,022.4,220819,017.7,E*66
01DE71,02264C,00C4AE,$GPRMC,070726,A,5442.9364,N,11318.4636,W,000.0,022.4,220819,017.7,E*67
01DE74,022652,00C4B0,$GPRMC,070727,A,5442.9365,N,11318.4638,W,000.0,022.4,220819,017.7,E*69
01DE73,022650,00C4B0,$GPRMC,070728,A,5442.9366,N,11318.4640,W,000.0,022.4,220819,017.7,E*6A
01DE71,02264E,00C4AF,$GPRMC,070729,A,5442.9367,N,11318.4640,W,000.0,022.4,220819,017.7,E*6A
01DE72,02264F,00C4AF,$GPRMC,070730,A,5442.9368,N,11318.4641,W,000.0,022.4,220819,017.7,E*6C
01DE72,02264E,00C4AF,$GPRMC,070731,A,5442.9370,N,11318.4641,W,000.0,022.4,220819,017.7,E*64
01DE71,02264D,00C4AF,$GPRMC,070732,A,5442.9372,N,11318.4640,W,000.0,022.4,220819,017.7,E*64
01DE70,02264D,00C4AF,$GPRMC,070733,A,5442.9374,N,11318.4639,W,000.0,022.4,220819,017.7,E*6D
01DE70,02264C,00C4AE,$GPRMC,070734,A,5442.9375,N,11318.4638,W,000.0,022.4,220819,017.7,E*6A
01DE73,022650,00C4B0,$GPRMC,070735,A,5442.9377,N,11318.4636,W,000.0,022.4,220819,017.7,E*67
01DE72,02264E,00C4AF,$GPRMC,070736,A,5442.9378,N,11318.4635,W,000.0,022.4,220819,017.7,E*68
01DE71,02264D,00C4AE,$GPRMC,070737,A,5442.9379,N,11318.4634,W,000.0,022.4,220819,017.7,E*69
01DE73,022650,00C4B0,$GPRMC,070738,A,5442.9380,N,11318.4633,W,000.0,022.4,220819,017.7,E*67
01DE71,02264F,00C4AF,$GPRMC,070739,A,5442.9381,N,11318.4632,W,000.0,022.4,220819,017.7,E*66
01DE6F,02264A,00C4AD,$GPRMC,070740,A,5442.9381,N,11318.4632,W,000.0,022.4,220819,017.7,E*68
01DE6B,022645,00C4AB,$GPRMC,070741,A,5442.9381,N,11318.4631,W,000.0,022.4,220819,017.7,E*6A
01DE71,02264F,00C4AF,$GPRMC,070742,A,5442.9382,N,11318.4631,W,000.0,022.4,220819,017.7,E*6A
01DE6E,022648,00C4AD,$GPRMC,070743,A,5442.9383,N,11318.4631,W,000.0,022.4,220819,017.7,E*6A
01DE71,02264E,00C4AF,$GPRMC,070744,A,5442.9384,N,11318.4631,W,000.0,022.4,220819,017.7,E*6A
01DE70,02264C,00C4AE,$GPRMC,070745,A,5442.9384,N,11318.4630,W,000.0,022.4,220819,017.7,E*6A
01DE70,02264E,00C4AE,$GPRMC,070746,A,5442.9385,N,11318.4630,W,000.0,022.4,220819,017.7,E*68
01DE6D,022648,00C4AD,$GPRMC,070747,A,5442.9386,N,11318.4629,W,000.0,022.4,220819,017.7,E*62
01DE6E,022649,00C4AD,$GPRMC,070748,A,5442.9388,N,11318.4629,W,000.0,022.4,220819,017.7,E*63
01DE6C,022648,00C4AC,$GPRMC,070749,A,5442.9389,N,11318.4628,W,000.0,022.4,220819,017.7,E*62
01DE70,02264C,00C4AE,$GPRMC,070750,A,5442.9390,N,11318.4627,W,000.0,022.4,220819,017.7,E*6D
01DE6C,022649,00C4AD,$GPRMC,070751,A,5442.9391,N,11318.4626,W,000.0,022.4,220819,017.7,E*6C
01DE6C,022648,00C4AC,$GPRMC,070752,A,5442.9392,N,11318.4624,W,000.0,022.4,220819,017.7,E*6E
01DE6F,02264B,00C4AE,$GPRMC,070753,A,5442.9392,N,11318.4623,W,000.0,022.4,220819,017.7,E*68
01DE6D,022647,00C4AD,$GPRMC,070754,A,5442.9393,N,11318.4622,W,000.0,022.4,220819,017.7,E*6F
01DE6A,022645,00C4AB,$GPRMC,070755,A,5442.9395,N,11318.4621,W,000.0,022.4,220819,017.7,E*6B
01DE6B,022647,00C4AC,$GPRMC,070756,A,5442.9395,N,11318.4620,W,000.0,022.4,220819,017.7,E*69
01DE6E,02264B,00C4AD,$GPRMC,070757,A,5442.9397,N,11318.4620,W,000.0,022.4,220819,017.7,E*6A
01DE70,02264E,00C4AF,$GPRMC,070758,A,5442.9398,N,11318.4619,W,000.0,022.4,220819,017.7,E*60
01DE71,02264F,00C4B0,$GPRMC,070759,A,5442.9400,N,11318.4619,W,000.0,022.4,220819,017.7,E*67
01DE6F,02264D,00C4AF,$GPRMC,070800,A,5442.9402,N,11318.4619,W,000.0,022.4,220819,017.7,E*66
01DE71,022650,00C4AF,$GPRMC,070801,A,5442.9404,N,11318.4620,W,000.0,022.4,220819,017.7,E*6B
01DE70,02264C,00C4AE,$GPRMC,070802,A,5442.9406,N,11318.4621,W,000.0,022.4,220819,017.7,E*6B
01DE72,022651,00C4AF,$GPRMC,070803,A,5442.9408,N,11318.4623,W,000.0,022.4,220819,017.7,E*66
01DE6F,02264D,00C4AE,$GPRMC,070804,A,5442.9411,N,11318.4624,W,000.0,022.4,220819,017.7,E*6E
01DE6E,02264C,00C4AE,$GPRMC,070805,A,5442.9413,N,11318.4626,W,000.0,022.4,220819,017.7,E*6F
01DE6F,02264B,00C4AE,$GPRMC,070806,A,5442.9414,N,11318.4628,W,000.0,022.4,220819,017.7,E*65
01DE6E,02264A,00C4AD,$GPRMC,070807,A,5442.9416,N,11318.4631,W,000.0,022.4,220819,017.7,E*6E
01DE70,02264E,00C4AF,$GPRMC,070808,A,5442.9418,N,11318.4633,W,000.0,022.4,220819,017.7,E*6D
01DE70,02264D,00C4AE,$GPRMC,070809,A,5442.9420,N,11318.4638,W,000.0,022.4,220819,017.7,E*6C
01DE70,02264D,00C4AE,$GPRMC,070810,A,5442.9422,N,11318.4640,W,000.0,022.4,220819,017.7,E*69
01DE70,02264C,00C4AE,$GPRMC,070811,A,5442.9425,N,11318.4642,W,000.0,022.4,220819,017.7,E*6D
01DE70,02264D,00C4AD,$GPRMC,070812,A,5442.9428,N,11318.4644,W,000.0,022.4,220819,017.7,E*65
01DE6F,02264B,00C4AD,$GPRMC,070813,A,5442.9428,N,11318.4648,W,000.0,022.4,220819,017.7,E*68
01DE73,022650,00C4B0,$GPRMC,070814,A,5442.9430,N,11318.4649,W,000.0,022.4,220819,017.7,E*67
01DE71,02264E,00C4AF,$GPRMC,070815,A,5442.9432,N,11318.4650,W,000.0,022.4,220819,017.7,E*6C
01DE73,022651,00C4B0,$GPRMC,070816,A,5442.9434,N,11318.4652,W,000.0,022.4,220819,017.7,E*6B
01DE71,02264F,00C4AF,$GPRMC,070817,A,5442.9436,N,11318.4652,W,000.0,022.4,220819,017.7,E*68
01DE74,022652,00C4B1,$GPRMC,070818,A,5442.9438,N,11318.4653,W,000.0,022.4,220819,017.7,E*68
01DE73,022652,00C4B0,$GPRMC,070819,A,5442.9437,N,11318.4655,W,000.0,022.4,220819,017.7,E*60
01DE70,02264D,00C4AF,$GPRMC,070820,A,5442.9438,N,11318.4658,W,000.0,022.4,220819,017.7,E*68
01DE6E,02264A,00C4AD,$GPRMC,070821,A,5442.9441,N,11318.4655,W,000.0,022.4,220819,017.7,E*6A
01DE6E,02264A,00C4AD,$GPRMC,070822,A,5442.9440,N,11318.4657,W,000.0,022.4,220819,017.7,E*6A
01DE70,02264C,00C4AE,$GPRMC,070823,A,5442.9439,N,11318.4658,W,000.0,022.4,220819,017.7,E*6A
01DE71,02264E,00C4AF,$GPRMC,070824,A,5442.9437,N,11318.4660,W,000.0,022.4,220819,017.7,E*68
01DE71,02264D,00C4AE,$GPRMC,070825,A,5442.9440,N,11318.4658,W,000.0,022.4,220819,017.7,E*62
01DE6F,02264A,00C4AD,$GPRMC,070826,A,5442.9444,N,11318.4656,W,000.0,022.4,220819,017.7,E*6B
01DE70,02264C,00C4AE,$GPRMC,070827,A,5442.9449,N,11318.4653,W,000.0,022.4,220819,017.7,E*62
01DE70,02264C,00C4AE,$GPRMC,070828,A,5442.9454,N,11318.4651,W,000.0,022.4,220819,017.7,E*63
01DE6E,022649,00C4AC,$GPRMC,070829,A,5442.9459,N,11318.4648,W,000.0,022.4,220819,017.7,E*67
01DE6E,022649,00C4AD,$GPRMC,070830,A,5442.9462,N,11318.4647,W,000.0,022.4,220819,017.7,E*68
01DE6F,02264C,00C4AE,$GPRMC,070831,A,5442.9465,N,11318.4647,W,000.0,022.4,220819,017.7,E*6E
01DE72,02264E,00C4AE,$GPRMC,070832,A,5442.9467,N,11318.4647,W,000.0,022.4,220819,017.7,E*6F
01DE71,02264C,00C4AE,$GPRMC,070833,A,5442.9469,N,11318.4646,W,000.0,022.4,220819,017.7,E*61
01DE72,022651,00C4AF,$GPRMC,070834,A,5442.9470,N,11318.4646,W,000.0,022.4,220819,017.7,E*6E
01DE6E,022648,00C4AC,$GPRMC,070835,A,5442.9470,N,11318.4647,W,000.0,022.4,220819,017.7,E*6E
01DE6F,02264B,00C4AE,$GPRMC,070836,A,5442.9470,N,11318.4647,W,000.0,022.4,220819,017.7,E*6D
01DE74,022651,00C4B0,$GPRMC,070837,A,5442.9469,N,11318.4648,W,000.0,022.4,220819,017.7,E*6B
01DE6E,022648,00C4AD,$GPRMC,070838,A,5442.9469,N,11318.4648,W,000.0,022.4,220819,017.7,E*64
01DE73,022650,00C4AF,$GPRMC,070839,A,5442.9469,N,11318.4648,W,000.0,022.4,220819,017.7,E*65
01DE6F,02264B,00C4AD,$GPRMC,070840,A,5442.9469,N,11318.4649,W,000.0,022.4,220819,017.7,E*6A
01DE73,022650,00C4B0,$GPRMC,070841,A,5442.9468,N,11318.4649,W,000.0,022.4,220819,017.7,E*6A
01DE71,02264C,00C4AE,$GPRMC,070842,A,5442.9468,N,11318.4650,W,000.0,022.4,220819,017.7,E*61
01DE70,02264B,00C4AE,$GPRMC,070843,A,5442.9468,N,11318.4650,W,000.0,022.4,220819,017.7,E*60
01DE6F,02264C,00C4AE,$GPRMC,070844,A,5442.9467,N,11318.4651,W,000.0,022.4,220819,017.7,E*69
01DE71,02264D,00C4AE,$GPRMC,070845,A,5442.9467,N,11318.4651,W,000.0,022.4,220819,017.7,E*68
01DE73,022650,00C4B0,$GPRMC,070846,A,5442.9467,N,11318.4651,W,000.0,022.4,220819,017.7,E*6B
01DE6F,02264B,00C4AD,$GPRMC,070847,A,5442.9467,N,11318.4652,W,000.0,022.4,220819,017.7,E*69
01DE6F,02264A,00C4AD,$GPRMC,070848,A,5442.9466,N,11318.4652,W,000.0,022.4,220819,017.7,E*67
01DE74,022653,00C4B0,$GPRMC,070849,A,5442.9466,N,11318.4653,W,000.0,022.4,220819,017.7,E*67
01DE73,02264F,00C4AF,$GPRMC,070850,A,5442.9466,N,11318.4653,W,000.0,022.4,220819,017.7,E*6F
01DE72,02264F,00C4AE,$GPRMC,070851,A,5442.9466,N,11318.4654,W,000.0,022.4,220819,017.7,E*69
01DE70,02264D,00C4AE,$GPRMC,070852,A,5442.9465,N,11318.4654,W,000.0,022.4,220819,017.7,E*69
01DE6F,02264B,00C4AE,$GPRMC,070853,A,5442.9465,N,11318.4655,W,000.0,022.4,220819,017.7,E*69
01DE72,022650,00C4AF,$GPRMC,070854,A,5442.9465,N,11318.4655,W,000.0,022.4,220819,017.7,E*6E
01DE6F,02264B,00C4AD,$GPRMC,070855,A,5442.9464,N,11318.4655,W,000.0,022.4,220819,017.7,E*6E
01DE70,02264E,00C4AE,$GPRMC,070856,A,5442.9464,N,11318.4656,W,000.0,022.4,220819,017.7,E*6E
01DE71,02264D,00C4AE,$GPRMC,070857,A,5442.9464,N,11318.4656,W,000.0,022.4,220819,017.7,E*6F
01DE74,022653,00C4B0,$GPRMC,070858,A,5442.9464,N,11318.4657,W,000.0,022.4,220819,017.7,E*61
01DE72,022650,00C4AF,$GPRMC,070859,A,5442.9463,N,11318.4657,W,000.0,022.4,220819,017.7,E*67
01DE71,02264F,00C4AF,$GPRMC,070900,A,5442.9463,N,11318.4658,W,000.0,022.4,220819,017.7,E*65
01DE72,02264F,00C4AF,$GPRMC,070901,A,5442.9463,N,11318.4658,W,000.0,022.4,220819,017.7,E*64
01DE71,02264E,00C4AE,$GPRMC,070902,A,5442.9462,N,11318.4658,W,000.0,022.4,220819,017.7,E*66
01DE69,022642,00C4A9,$GPRMC,070903,A,5442.9462,N,11318.4659,W,000.0,022.4,220819,017.7,E*66
01DE6D,022648,00C4AC,$GPRMC,070904,A,5442.9462,N,11318.4659,W,000.0,022.4,220819,017.7,E*61
01DE70,02264C,00C4AE,$GPRMC,070905,V,5442.9462,N,11318.4659,W,,,220819,017.7,E*73
01DE6C,022646,00C4AC,$GPRMC,070906,V,5442.9462,N,11318.4659,W,,,220819,017.7,E*70
01DE6C,022647,00C4AC,$GPRMC,070907,V,5442.9462,N,11318.4659,W,,,220819,017.7,E*71
01DE6F,02264A,00C4AD,$GPRMC,070908,V,5442.9462,N,11318.4659,W,,,220819,017.7,E*7E
01DE70,02264C,00C4AD,$GPRMC,070909,V,5442.9462,N,11318.4659,W,,,220819,017.7,E*7F
01DE6E,02264A,00C4AD,$GPRMC,070910,V,5442.9462,N,11318.4659,W,,,220819,017.7,E*77
01DE6E,02264A,00C4AD,$GPRMC,070911,V,5442.9462,N,11318.4659,W,,,220819,017.7,E*76
01DE72,02264F,00C4AF,$GPRMC,070912,V,5442.9462,N,11318.4659,W,,,220819,017.7,E*75
01DE70,02264C,00C4AE,$GPRMC,070913,V,5442.9462,N,11318.4659,W,,,220819,017.7,E*74
01DE70,02264B,00C4AE,$GPRMC,070914,V,5442.9462,N,11318.4659,W,,,220819,017.7,E*73
01DE6D,022648,00C4AC,$GPRMC,070915,V,5442.9462,N,11318.4659,W,,,220819,017.7,E*72
01DE6F,02264A,00C4AD,$GPRMC,070916,V,5442.9462,N,11318.4659,W,,,220819,017.7,E*71
01DE6A,022643,00C4AA,$GPRMC,070917,V,5442.9462,N,11318.4659,W,,,220819,017.7,E*70
01DE69,022643,00C4A9,$GPRMC,070918,V,5442.9462,N,11318.4659,W,,,220819,017.7,E*7F
01DE6C,022646,00C4AB,$GPRMC,070919,V,5442.9462,N,11318.4659,W,,,220819,017.7,E*7E
01DE69,022641,00C4A9,$GPRMC,070920,V,5442.9462,N,11318.4659,W,,,220819,017.7,E*74
01DE6E,022649,00C4AC,$GPRMC,070921,V,5442.9462,N,11318.4659,W,,,220819,017.7,E*75
01DE6B,022645,00C4AA,$GPRMC,070922,V,5442.9462,N,11318.4659,W,,,220819,017.7,E*76
01DE69,022642,00C4A9,$GPRMC,070923,V,5442.9462,N,11318.4659,W,,,220819,017.7,E*77
01DE70,02264D,00C4AE,$GPRMC,070924,V,5442.9462,N,11318.4659,W,,,220819,017.7,E*70
01DE6C,022647,00C4AC,$GPRMC,070925,V,5442.9462,N,11318.4659,W,,,220819,017.7,E*71
01DE6C,022645,00C4AB,$GPRMC,070926,V,5442.9462,N,11318.4659,W,,,220819,017.7,E*72
01DE70,02264B,00C4AE,$GPRMC,070927,V,5442.9462,N,11318.4659,W,,,220819,017.7,E*73
01DE6E,022649,00C4AC,$GPRMC,070928,V,5442.9462,N,11318.4659,W,,,220819,017.7,E*7C
01DE6B,022645,00C4AA,$GPRMC,070929,V,5442.9462,N,11318.4659,W,,,220819,017.7,E*7D
01DE6C,022645,00C4AA,$GPRMC,070930,V,5442.9462,N,11318.4659,W,,,220819,017.7,E*75
01DE6F,02264A,00C4AC,$GPRMC,070931,V,5442.9462,N,11318.4659,W,,,220819,017.7,E*74
01DE6B,022645,00C4AA,$GPRMC,070932,A,5442.9512,N,11318.4690,W,000.0,221.4,220819,017.7,E*66
01DE73,02264F,00C4AF,$GPRMC,070933,A,5442.9505,N,11318.4694,W,000.0,022.4,220819,017.7,E*64
01DE6E,022649,00C4AC,$GPRMC,070934,A,5442.9489,N,11318.4687,W,000.0,022.4,220819,017.7,E*64
01DE70,02264C,00C4AD,$GPRMC,070935,A,5442.9479,N,11318.4687,W,000.0,022.4,220819,017.7,E*6A
01DE6B,022645,00C4AA,$GPRMC,070936,A,5442.9466,N,11318.4679,W,000.0,022.4,220819,017.7,E*66
01DE72,022650,00C4AF,$GPRMC,070937,A,5442.9465,N,11318.4695,W,000.0,022.4,220819,017.7,E*66
01DE6B,022646,00C4AA,$GPRMC,070938,A,5442.9467,N,11318.4707,W,000.0,022.4,220819,017.7,E*61
01DE6C,022647,00C4AB,$GPRMC,070939,A,5442.9453,N,11318.4689,W,000.0,022.4,220819,017.7,E*60
01DE6B,022645,00C4AB,$GPRMC,070940,A,5442.9443,N,11318.4680,W,000.0,022.4,220819,017.7,E*66
01DE6A,022643,00C4AA,$GPRMC,070941,A,5442.9438,N,11318.4679,W,000.0,022.4,220819,017.7,E*6D
01DE6C,022647,00C4AB,$GPRMC,070942,A,5442.9435,N,11318.4679,W,000.0,022.4,220819,017.7,E*63
01DE6B,022645,00C4AB,$GPRMC,070943,A,5442.9432,N,11318.4681,W,000.0,022.4,220819,017.7,E*62
01DE69,022642,00C4A9,$GPRMC,070944,A,5442.9434,N,11318.4684,W,000.0,022.4,220819,017.7,E*66
01DE6E,022649,00C4AB,$GPRMC,070945,A,5442.9435,N,11318.4686,W,000.0,022.4,220819,017.7,E*64
01DE6B,022646,00C4AA,$GPRMC,070946,A,5442.9435,N,11318.4686,W,000.0,022.4,220819,017.7,E*67
01DE6F,02264B,00C4AD,$GPRMC,070947,A,5442.9436,N,11318.4688,W,000.0,022.4,220819,017.7,E*6B
01DE6C,022646,00C4AB,$GPRMC,070948,A,5442.9436,N,11318.4688,W,000.0,022.4,220819,017.7,E*64
01DE6E,02264A,00C4AD,$GPRMC,070949,A,5442.9436,N,11318.4688,W,000.0,022.4,220819,017.7,E*65
01DE6C,022645,00C4AA,$GPRMC,070950,A,5442.9435,N,11318.4688,W,000.0,022.4,220819,017.7,E*6E
01DE6F,02264B,00C4AD,$GPRMC,070951,A,5442.9435,N,11318.4689,W,000.0,022.4,220819,017.7,E*6E
01DE6D,022647,00C4AB,$GPRMC,070952,A,5442.9435,N,11318.4689,W,000.0,022.4,220819,017.7,E*6D
01DE70,02264C,00C4AD,$GPRMC,070953,A,5442.9434,N,11318.4688,W,000.0,022.4,220819,017.7,E*6C
01DE6C,022647,00C4AB,$GPRMC,070954,A,5442.9434,N,11318.4688,W,000.0,022.4,220819,017.7,E*6B
01DE6F,02264A,00C4AC,$GPRMC,070955,A,5442.9433,N,11318.4688,W,000.0,022.4,220819,017.7,E*6D
01DE6E,022646,00C4AC,$GPRMC,070956,A,5442.9433,N,11318.4688,W,000.0,022.4,220819,017.7,E*6E
01DE6C,022645,00C4AA,$GPRMC,070957,A,5442.9433,N,11318.4687,W,000.0,022.4,220819,017.7,E*60
01DE6B,022643,00C4A9,$GPRMC,070958,A,5442.9432,N,11318.4687,W,000.0,022.4,220819,017.7,E*6E
01DE70,02264A,00C4AC,$GPRMC,070959,A,5442.9432,N,11318.4686,W,000.0,022.4,220819,017.7,E*6E
01DE6A,022642,00C4A9,$GPRMC,071000,A,5442.9429,N,11318.4682,W,000.0,022.4,220819,017.7,E*64
01DE6C,022643,00C4AA,$GPRMC,071001,A,5442.9427,N,11318.4677,W,000.0,022.4,220819,017.7,E*61
01DE6A,022643,00C4A9,$GPRMC,071002,A,5442.9425,N,11318.4673,W,000.0,022.4,220819,017.7,E*64
01DE6C,022645,00C4AA,$GPRMC,071003,A,5442.9422,N,11318.4669,W,000.0,022.4,220819,017.7,E*69
01DE6C,022644,00C4AA,$GPRMC,071004,A,5442.9419,N,11318.4665,W,000.0,022.4,220819,017.7,E*6A
01DE6C,022645,00C4AA,$GPRMC,071005,A,5442.9416,N,11318.4660,W,000.0,022.4,220819,017.7,E*61
01DE6C,022645,00C4AA,$GPRMC,071006,A,5442.9413,N,11318.4657,W,000.0,022.4,220819,017.7,E*63
01DE6A,022642,00C4A9,$GPRMC,071007,A,5442.9411,N,11318.4654,W,000.0,022.4,220819,017.7,E*63
01DE6D,022647,00C4AA,$GPRMC,071008,A,5442.9412,N,11318.4660,W,000.0,022.4,220819,017.7,E*68
01DE6D,022647,00C4AB,$GPRMC,071009,A,5442.9410,N,11318.4658,W,000.0,022.4,220819,017.7,E*60
01DE6E,022649,00C4AB,$GPRMC,071010,A,5442.9407,N,11318.4655,W,000.0,022.4,220819,017.7,E*63
01DE6B,022644,00C4A9,$GPRMC,071011,A,5442.9405,N,11318.4654,W,000.0,022.4,220819,017.7,E*61
01DE6A,022644,00C4A9,$GPRMC,071012,A,5442.9404,N,11318.4653,W,000.0,022.4,220819,017.7,E*64
01DE67,02263E,00C4A6,$GPRMC,071013,A,5442.9402,N,11318.4652,W,000.0,022.4,220819,017.7,E*62
01DE6D,022647,00C4AA,$GPRMC,071014,A,5442.9401,N,11318.4651,W,000.0,022.4,220819,017.7,E*65
01DE6C,022646,00C4AA,$GPRMC,071015,A,5442.9400,N,11318.4651,W,000.0,022.4,220819,017.7,E*65
01DE6A,022642,00C4A8,$GPRMC,071016,A,5442.9399,N,11318.4650,W,000.0,022.4,220819,017.7,E*60
01DE6F,022649,00C4AC,$GPRMC,071017,A,5442.9399,N,11318.4649,W,000.0,022.4,220819,017.7,E*69
01DE69,022642,00C4A8,$GPRMC,071018,A,5442.9398,N,11318.4647,W,000.0,022.4,220819,017.7,E*69
01DE6D,022647,00C4AA,$GPRMC,071019,A,5442.9398,N,11318.4646,W,000.0,022.4,220819,017.7,E*69
01DE6E,022647,00C4AA,$GPRMC,071020,A,5442.9397,N,11318.4644,W,000.0,022.4,220819,017.7,E*6E
01DE6A,022642,00C4A8,$GPRMC,071021,A,5442.9397,N,11318.4641,W,000.0,022.4,220819,017.7,E*6A
01DE6D,022647,00C4AA,$GPRMC,071022,A,5442.9397,N,11318.4639,W,000.0,022.4,220819,017.7,E*66
01DE6D,022647,00C4AA,$GPRMC,071023,A,5442.9397,N,11318.4638,W,000.0,022.4,220819,017.7,E*66
01DE6F,022648,00C4AC,$GPRMC,071024,A,5442.9394,N,11318.4628,W,000.0,022.4,220819,017.7,E*63
01DE69,022642,00C4A8,$GPRMC,071025,A,5442.9394,N,11318.4627,W,000.0,022.4,220819,017.7,E*6D
01DE6F,022649,00C4AB,$GPRMC,071026,A,5442.9395,N,11318.4625,W,000.0,022.4,220819,017.7,E*6D
01DE6A,022641,00C4A8,$GPRMC,071027,A,5442.9396,N,11318.4624,W,000.0,022.4,220819,017.7,E*6E
01DE6F,022648,00C4AB,$GPRMC,071028,A,5442.9397,N,11318.4624,W,000.0,022.4,220819,017.7,E*60
01DE6F,022648,00C4AB,$GPRMC,071029,A,5442.9398,N,11318.4624,W,000.0,022.4,220819,017.7,E*6E
01DE6D,022646,00C4AA,$GPRMC,071030,A,5442.9399,N,11318.4625,W,000.0,022.4,220819,017.7,E*66
01DE6D,022644,00C4AA,$GPRMC,071031,A,5442.9401,N,11318.4626,W,000.0,022.4,220819,017.7,E*62
01DE6D,022645,00C4AA,$GPRMC,071032,A,5442.9402,N,11318.4629,W,000.0,022.4,220819,017.7,E*6D
01DE69,022640,00C4A7,$GPRMC,071033,A,5442.9404,N,11318.4632,W,000.0,022.4,220819,017.7,E*60
01DE6E,022646,00C4AA,$GPRMC,071034,A,5442.9405,N,11318.4636,W,000.0,022.4,220819,017.7,E*62
01DE6B,022643,00C4A9,$GPRMC,071035,A,5442.9406,N,11318.4639,W,000.0,022.4,220819,017.7,E*6F
01DE6E,022647,00C4AA,$GPRMC,071036,A,5442.9408,N,11318.4643,W,000.0,022.4,220819,017.7,E*6F
01DE6D,022646,00C4A9,$GPRMC,071037,A,5442.9409,N,11318.4647,W,000.0,022.4,220819,017.7,E*6B
01DE6E,022646,00C4AA,$GPRMC,071038,A,5442.9410,N,11318.4651,W,000.0,022.4,220819,017.7,E*6B
01DE6E,022646,00C4A9,$GPRMC,071039,A,5442.9411,N,11318.4656,W,000.0,022.4,220819,017.7,E*6C
01DE71,02264A,00C4AB,$GPRMC,071040,A,5442.9411,N,11318.4660,W,000.0,022.4,220819,017.7,E*67
01DE6D,022646,00C4A9,$GPRMC,071041,A,5442.9412,N,11318.4665,W,000.0,022.4,220819,017.7,E*60
01DE6B,022643,00C4A9,$GPRMC,071042,A,5442.9407,N,11318.4659,W,000.0,022.4,220819,017.7,E*68
01DE6C,022644,00C4A9,$GPRMC,071043,A,5442.9407,N,11318.4662,W,000.0,022.4,220819,017.7,E*61
01DE6E,022645,00C4AA,$GPRMC,071044,A,5442.9407,N,11318.4664,W,000.0,022.4,220819,017.7,E*60
01DE6C,022642,00C4A9,$GPRMC,071045,A,5442.9408,N,11318.4666,W,000.0,022.4,220819,017.7,E*6C
01DE6E,022648,00C4AA,$GPRMC,071046,A,5442.9408,N,11318.4666,W,000.0,022.4,220819,017.7,E*6F
01DE6A,02263F,00C4A7,$GPRMC,071047,A,5442.9408,N,11318.4666,W,000.0,022.4,220819,017.7,E*6E
01DE6B,022642,00C4A8,$GPRMC,071048,A,5442.9408,N,11318.4666,W,000.0,022.4,220819,017.7,E*61
01DE69,022640,00C4A7,$GPRMC,071049,A,5442.9408,N,11318.4667,W,000.0,022.4,220819,017.7,E*61
01DE6C,022644,00C4A8,$GPRMC,071050,A,5442.9408,N,11318.4667,W,000.0,022.4,220819,017.7,E*69
01DE6E,022647,00C4A9,$GPRMC,071051,A,5442.9409,N,11318.4667,W,000.0,022.4,220819,017.7,E*69
01DE6F,022649,00C4AB,$GPRMC,071052,A,5442.9409,N,11318.4665,W,000.0,022.4,220819,017.7,E*68
01DE6B,022640,00C4A8,$GPRMC,071053,A,5442.9409,N,11318.4666,W,000.0,022.4,220819,017.7,E*6A
01DE6C,022644,00C4A9,$GPRMC,071054,A,5442.9409,N,11318.4666,W,000.0,022.4,220819,017.7,E*6D
