01DE39,022617,00C4A6,$GPRMC,055950,A,5442.9407,N,11318.4586,W,000.0,022.4,220819,017.7,E*65
01DE3A,02261A,00C4A8,$GPRMC,055951,A,5442.9406,N,11318.4585,W,000.0,022.4,220819,017.7,E*66
01DE3D,02261E,00C4A9,$GPRMC,055952,A,5442.9406,N,11318.4584,W,000.0,022.4,220819,017.7,E*64
01DE39,022619,00C4A7,$GPRMC,055953,A,5442.9405,N,11318.4582,W,000.0,022.4,220819,017.7,E*60
01DE3A,02261A,00C4A8,$GPRMC,055954,A,5442.9404,N,11318.4581,W,000.0,022.4,220819,017.7,E*65
01DE3A,02261A,00C4A7,$GPRMC,055955,A,5442.9403,N,11318.4579,W,000.0,022.4,220819,017.7,E*64
01DE3A,022619,00C4A7,$GPRMC,055956,A,5442.9402,N,11318.4577,W,000.0,022.4,220819,017.7,E*68
01DE39,022618,00C4A7,$GPRMC,055957,A,5442.9401,N,11318.4575,W,000.0,022.4,220819,017.7,E*68
01DE3B,02261C,00C4A8,$GPRMC,055958,A,5442.9400,N,11318.4573,W,000.0,022.4,220819,017.7,E*60
01DE3A,02261A,00C4A7,$GPRMC,055959,A,5442.9400,N,11318.4573,W,000.0,022.4,220819,017.7,E*61
01DE39,022618,00C4A7,$GPRMC,060000,A,5442.9399,N,11318.4572,W,000.0,022.4,220819,017.7,E*64
01DE3A,022619,00C4A7,$GPRMC,060001,A,5442.9398,N,11318.4571,W,000.0,022.4,220819,017.7,E*67
01DE3B,02261B,00C4A7,$GPRMC,060002,A,5442.9398,N,11318.4570,W,000.0,022.4,220819,017.7,E*65
01DE3D,022620,00C4A9,$GPRMC,060003,A,5442.9397,N,11318.4570,W,000.0,022.4,220819,017.7,E*6B
01DE3A,02261A,00C4A7,$GPRMC,060004,A,5442.9397,N,11318.4569,W,000.0,022.4,220819,017.7,E*64
01DE3C,02261D,00C4A9,$GPRMC,060005,A,5442.9397,N,11318.4569,W,000.0,022.4,220819,017.7,E*65
01DE3C,02261B,00C4A8,$GPRMC,060006,A,5442.9397,N,11318.4570,W,000.0,022.4,220819,017.7,E*6E
01DE3F,022621,00C4AA,$GPRMC,060007,A,5442.9396,N,11318.4571,W,000.0,022.4,220819,017.7,E*6F
01DE3D,02261F,00C4A9,$GPRMC,060008,A,5442.9396,N,11318.4568,W,000.0,022.4,220819,017.7,E*68
01DE3C,02261C,00C4A8,$GPRMC,060009,A,5442.9395,N,11318.4567,W,000.0,022.4,220819,017.7,E*65
01DE3A,022619,00C4A7,$GPRMC,060010,A,5442.9394,N,11318.4567,W,000.0,022.4,220819,017.7,E*6C
01DE3B,02261B,00C4A7,$GPRMC,060011,A,5442.9393,N,11318.4565,W,000.0,022.4,220819,017.7,E*68
01DE3A,02261A,00C4A7,$GPRMC,060012,A,5442.9391,N,11318.4563,W,000.0,022.4,220819,017.7,E*6F
01DE38,022618,00C4A6,$GPRMC,060013,A,5442.9389,N,11318.4560,W,000.0,022.4,220819,017.7,E*64
01DE3B,02261B,00C4A8,$GPRMC,060014,A,5442.9388,N,11318.4558,W,000.0,022.4,220819,017.7,E*69
01DE3E,022620,00C4AA,$GPRMC,060015,A,5442.9390,N,11318.4558,W,000.0,022.4,220819,017.7,E*61
01DE3B,02261A,00C4A7,$GPRMC,060016,A,5442.9390,N,11318.4558,W,000.0,022.4,220819,017.7,E*62
01DE3E,022620,00C4AA,$GPRMC,060017,A,5442.9391,N,11318.4559,W,000.0,022.4,220819,017.7,E*63
01DE3D,02261F,00C4A9,$GPRMC,060018,A,5442.9391,N,11318.4560,W,000.0,022.4,220819,017.7,E*66
01DE3F,022622,00C4AA,$GPRMC,060019,A,5442.9392,N,11318.4560,W,000.0,022.4,220819,017.7,E*64
01DE3A,022619,00C4A6,$GPRMC,060020,A,5442.9394,N,11318.4562,W,000.0,022.4,220819,017.7,E*6A
01DE3B,02261D,00C4A8,$GPRMC,060021,A,5442.9394,N,11318.4563,W,000.0,022.4,220819,017.7,E*6A
01DE3F,022622,00C4AA,$GPRMC,060022,A,5442.9394,N,11318.4563,W,000.0,022.4,220819,017.7,E*69
01DE3D,02261E,00C4A9,$GPRMC,060023,A,5442.9395,N,11318.4563,W,000.0,022.4,220819,017.7,E*69
01DE37,022617,00C4A5,$GPRMC,060024,A,5442.9396,N,11318.4563,W,000.0,022.4,220819,017.7,E*6D
01DE3D,022620,00C4A9,$GPRMC,060025,A,5442.9399,N,11318.4565,W,000.0,022.4,220819,017.7,E*65
01DE3A,02261B,00C4A7,$GPRMC,060026,A,5442.9402,N,11318.4567,W,000.0,022.4,220819,017.7,E*61
01DE3A,02261A,00C4A7,$GPRMC,060027,A,5442.9405,N,11318.4570,W,000.0,022.4,220819,017.7,E*61
01DE3A,02261A,00C4A7,$GPRMC,060028,A,5442.9406,N,11318.4573,W,000.0,022.4,220819,017.7,E*6E
01DE3B,02261C,00C4A7,$GPRMC,060029,A,5442.9405,N,11318.4573,W,000.0,022.4,220819,017.7,E*6C
01DE3A,02261B,00C4A7,$GPRMC,060030,A,5442.9408,N,11318.4577,W,000.0,022.4,220819,017.7,E*6D
01DE39,022619,00C4A7,$GPRMC,060031,A,5442.9411,N,11318.4580,W,000.0,022.4,220819,017.7,E*6C
01DE38,022617,00C4A5,$GPRMC,060032,A,5442.9410,N,11318.4580,W,000.0,022.4,220819,017.7,E*6E
01DE3C,02261D,00C4A8,$GPRMC,060033,A,5442.9413,N,11318.4584,W,000.0,022.4,220819,017.7,E*68
01DE39,022619,00C4A6,$GPRMC,060034,A,5442.9415,N,11318.4586,W,000.0,022.4,220819,017.7,E*6B
01DE3D,02261F,00C4A8,$GPRMC,060035,A,5442.9418,N,11318.4589,W,000.0,022.4,220819,017.7,E*68
01DE39,022619,00C4A6,$GPRMC,060036,A,5442.9419,N,11318.4590,W,000.0,022.4,220819,017.7,E*62
01DE3B,02261B,00C4A7,$GPRMC,060037,A,5442.9421,N,11318.4592,W,000.0,022.4,220819,017.7,E*6A
01DE3B,02261C,00C4A7,$GPRMC,060038,A,5442.9425,N,11318.4592,W,000.0,022.4,220819,017.7,E*61
01DE3A,02261A,00C4A6,$GPRMC,060039,A,5442.9427,N,11318.4593,W,000.0,022.4,220819,017.7,E*63
01DE3E,02261E,00C4A8,$GPRMC,060040,A,5442.9429,N,11318.4594,W,000.0,022.4,220819,017.7,E*64
01DE3D,02261E,00C4A8,$GPRMC,060041,A,5442.9431,N,11318.4596,W,000.0,022.4,220819,017.7,E*6E
01DE3D,02261D,00C4A8,$GPRMC,060042,A,5442.9433,N,11318.4596,W,000.0,022.4,220819,017.7,E*6F
01DE3D,02261D,00C4A8,$GPRMC,060043,A,5442.9435,N,11318.4597,W,000.0,022.4,220819,017.7,E*69
01DE3F,022621,00C4AA,$GPRMC,060044,A,5442.9438,N,11318.4600,W,000.0,022.4,220819,017.7,E*6E
01DE38,022616,00C4A5,$GPRMC,060045,A,5442.9440,N,11318.4603,W,000.0,022.4,220819,017.7,E*63
01DE3A,02261A,00C4A6,$GPRMC,060046,A,5442.9443,N,11318.4606,W,000.0,022.4,220819,017.7,E*66
01DE3B,02261B,00C4A7,$GPRMC,060047,A,5442.9443,N,11318.4608,W,000.0,022.4,220819,017.7,E*69
01DE3C,02261B,00C4A7,$GPRMC,060048,A,5442.9445,N,11318.4612,W,000.0,022.4,220819,017.7,E*6B
01DE3A,022619,00C4A6,$GPRMC,060049,A,5442.9446,N,11318.4617,W,000.0,022.4,220819,017.7,E*6C
01DE3D,02261C,00C4A7,$GPRMC,060050,A,5442.9449,N,11318.4621,W,000.0,022.4,220819,017.7,E*6E
01DE39,022618,00C4A5,$GPRMC,060051,A,5442.9451,N,11318.4624,W,000.0,022.4,220819,017.7,E*63
01DE41,022623,00C4AA,$GPRMC,060052,A,5442.9452,N,11318.4627,W,000.0,022.4,220819,017.7,E*60
01DE3E,022620,00C4A9,$GPRMC,060053,A,5442.9454,N,11318.4629,W,000.0,022.4,220819,017.7,E*69
01DE40,022621,00C4AA,$GPRMC,060054,A,5442.9456,N,11318.4630,W,000.0,022.4,220819,017.7,E*64
01DE3A,022619,00C4A6,$GPRMC,060055,A,5442.9458,N,11318.4632,W,000.0,022.4,220819,017.7,E*69
01DE3D,02261D,00C4A8,$GPRMC,060056,A,5442.9460,N,11318.4634,W,000.0,022.4,220819,017.7,E*67
01DE3D,02261D,00C4A8,$GPRMC,060057,A,5442.9463,N,11318.4634,W,000.0,022.4,220819,017.7,E*65
01DE3B,02261A,00C4A6,$GPRMC,060058,A,5442.9464,N,11318.4636,W,000.0,022.4,220819,017.7,E*6F
01DE3C,02261A,00C4A6,$GPRMC,060059,A,5442.9465,N,11318.4639,W,000.0,022.4,220819,017.7,E*60
01DE41,022622,00C4AA,$GPRMC,060100,A,5442.9466,N,11318.4641,W,000.0,022.4,220819,017.7,E*61
01DE3D,02261D,00C4A8,$GPRMC,060101,A,5442.9467,N,11318.4642,W,000.0,022.4,220819,017.7,E*62
01DE3D,02261C,00C4A7,$GPRMC,060102,A,5442.9466,N,11318.4647,W,000.0,022.4,220819,017.7,E*65
01DE3B,02261A,00C4A6,$GPRMC,060103,A,5442.9466,N,11318.4649,W,000.0,022.4,220819,017.7,E*6A
01DE3B,02261B,00C4A7,$GPRMC,060104,A,5442.9467,N,11318.4656,W,000.0,022.4,220819,017.7,E*62
01DE3E,02261D,00C4A8,$GPRMC,060105,A,5442.9466,N,11318.4657,W,000.0,022.4,220819,017.7,E*63
01DE3D,02261E,00C4A8,$GPRMC,060106,A,5442.9466,N,11318.4658,W,000.0,022.4,220819,017.7,E*6F
01DE40,022621,00C4A9,$GPRMC,060107,A,5442.9466,N,11318.4659,W,000.0,022.4,220819,017.7,E*6F
01DE3D,02261D,00C4A8,$GPRMC,060108,A,5442.9465,N,11318.4660,W,000.0,022.4,220819,017.7,E*69
01DE3A,022618,00C4A5,$GPRMC,060109,A,5442.9463,N,11318.4660,W,000.0,022.4,220819,017.7,E*6E
01DE3C,02261B,00C4A7,$GPRMC,060110,A,5442.9464,N,11318.4661,W,000.0,022.4,220819,017.7,E*60
01DE3F,022621,00C4A9,$GPRMC,060111,A,5442.9463,N,11318.4662,W,000.0,022.4,220819,017.7,E*65
01DE3A,022618,00C4A6,$GPRMC,060112,A,5442.9464,N,11318.4662,W,000.0,022.4,220819,017.7,E*61
01DE3F,022620,00C4A9,$GPRMC,060113,A,5442.9465,N,11318.4662,W,000.0,022.4,220819,017.7,E*61
01DE40,022622,00C4A9,$GPRMC,060114,A,5442.9466,N,11318.4662,W,000.0,022.4,220819,017.7,E*65
01DE3D,02261E,00C4A8,$GPRMC,060115,A,5442.9467,N,11318.4662,W,000.0,022.4,220819,017.7,E*65
01DE3D,02261C,00C4A7,$GPRMC,060116,A,5442.9468,N,11318.4661,W,000.0,022.4,220819,017.7,E*6A
01DE3C,02261D,00C4A7,$GPRMC,060117,A,5442.9468,N,11318.4661,W,000.0,022.4,220819,017.7,E*6B
01DE3D,02261D,00C4A8,$GPRMC,060118,A,5442.9467,N,11318.4663,W,000.0,022.4,220819,017.7,E*69
01DE3C,02261C,00C4A7,$GPRMC,060119,A,5442.9467,N,11318.4667,W,000.0,022.4,220819,017.7,E*6C
01DE3D,02261D,00C4A8,$GPRMC,060120,A,5442.9465,N,11318.4671,W,000.0,022.4,220819,017.7,E*63
01DE3E,022620,00C4A8,$GPRMC,060121,A,5442.9464,N,11318.4673,W,000.0,022.4,220819,017.7,E*61
01DE3C,02261B,00C4A6,$GPRMC,060122,A,5442.9464,N,11318.4672,W,000.0,022.4,220819,017.7,E*63
01DE3B,02261B,00C4A6,$GPRMC,060123,A,5442.9465,N,11318.4672,W,000.0,022.4,220819,017.7,E*63
01DE3F,022621,00C4A9,$GPRMC,060124,A,5442.9465,N,11318.4670,W,000.0,022.4,220819,017.7,E*66
01DE3E,02261F,00C4A8,$GPRMC,060125,A,5442.9466,N,11318.4667,W,000.0,022.4,220819,017.7,E*62
01DE3A,02261A,00C4A7,$GPRMC,060126,A,5442.9467,N,11318.4666,W,000.0,022.4,220819,017.7,E*61
01DE3F,022621,00C4A9,$GPRMC,060127,A,5442.9468,N,11318.4665,W,000.0,022.4,220819,017.7,E*6C
01DE3E,02261E,00C4A8,$GPRMC,060128,A,5442.9468,N,11318.4664,W,000.0,022.4,220819,017.7,E*62
01DE3F,022621,00C4A8,$GPRMC,060129,A,5442.9468,N,11318.4664,W,000.0,022.4,220819,017.7,E*63
01DE3D,02261E,00C4A8,$GPRMC,060130,A,5442.9468,N,11318.4665,W,000.0,022.4,220819,017.7,E*6A
01DE3E,02261E,00C4A8,$GPRMC,060131,A,5442.9467,N,11318.4666,W,000.0,022.4,220819,017.7,E*67
01DE3F,022620,00C4A8,$GPRMC,060132,A,5442.9466,N,11318.4668,W,000.0,022.4,220819,017.7,E*6B
01DE3E,02261E,00C4A7,$GPRMC,060133,A,5442.9464,N,11318.4670,W,000.0,022.4,220819,017.7,E*61
01DE3C,02261D,00C4A7,$GPRMC,060134,A,5442.9462,N,11318.4671,W,000.0,022.4,220819,017.7,E*61
01DE3C,02261B,00C4A6,$GPRMC,060135,A,5442.9461,N,11318.4671,W,000.0,022.4,220819,017.7,E*63
01DE40,022620,00C4A8,$GPRMC,060136,A,5442.9460,N,11318.4672,W,000.0,022.4,220819,017.7,E*62
01DE3E,02261E,00C4A7,$GPRMC,060137,A,5442.9458,N,11318.4673,W,000.0,022.4,220819,017.7,E*69
01DE3C,02261B,00C4A6,$GPRMC,060138,A,5442.9457,N,11318.4674,W,000.0,022.4,220819,017.7,E*6E
01DE3F,022620,00C4A8,$GPRMC,060139,A,5442.9455,N,11318.4673,W,000.0,022.4,220819,017.7,E*6A
01DE3F,02261F,00C4A8,$GPRMC,060140,A,5442.9455,N,11318.4674,W,000.0,022.4,220819,017.7,E*63
01DE3C,02261A,00C4A6,$GPRMC,060141,A,5442.9454,N,11318.4673,W,000.0,022.4,220819,017.7,E*64
01DE3C,02261C,00C4A6,$GPRMC,060142,A,5442.9453,N,11318.4671,W,000.0,022.4,220819,017.7,E*62
01DE3E,02261D,00C4A7,$GPRMC,060143,A,5442.9452,N,11318.4670,W,000.0,022.4,220819,017.7,E*63
01DE41,022623,00C4A9,$GPRMC,060144,A,5442.9451,N,11318.4670,W,000.0,022.4,220819,017.7,E*67
01DE3E,02261D,00C4A8,$GPRMC,060145,A,5442.9450,N,11318.4670,W,000.0,022.4,220819,017.7,E*67
01DE41,022623,00C4A9,$GPRMC,060146,A,5442.9448,N,11318.4669,W,000.0,022.4,220819,017.7,E*65
01DE41,022624,00C4A9,$GPRMC,060147,A,5442.9447,N,11318.4669,W,000.0,022.4,220819,017.7,E*6B
01DE3E,02261F,00C4A8,$GPRMC,060148,A,5442.9445,N,11318.4668,W,000.0,022.4,220819,017.7,E*67
01DE3E,02261F,00C4A7,$GPRMC,060149,A,5442.9443,N,11318.4667,W,000.0,022.4,220819,017.7,E*6F
01DE3F,02261F,00C4A8,$GPRMC,060150,A,5442.9441,N,11318.4666,W,000.0,022.4,220819,017.7,E*64
01DE3D,02261C,00C4A6,$GPRMC,060151,A,5442.9439,N,11318.4664,W,000.0,022.4,220819,017.7,E*68
01DE41,022621,00C4A8,$GPRMC,060152,A,5442.9438,N,11318.4664,W,000.0,022.4,220819,017.7,E*6A
01DE3C,02261B,00C4A6,$GPRMC,060153,A,5442.9437,N,11318.4664,W,000.0,022.4,220819,017.7,E*64
01DE40,02261F,00C4A9,$GPRMC,060154,A,5442.9436,N,11318.4664,W,000.0,022.4,220819,017.7,E*62
01DE3C,02261C,00C4A7,$GPRMC,060155,A,5442.9434,N,11318.4663,W,000.0,022.4,220819,017.7,E*66
01DE3E,02261E,00C4A8,$GPRMC,060156,A,5442.9432,N,11318.4662,W,000.0,022.4,220819,017.7,E*62
01DE3F,022620,00C4A8,$GPRMC,060157,A,5442.9430,N,11318.4661,W,000.0,022.4,220819,017.7,E*62
01DE3F,02261F,00C4A7,$GPRMC,060158,A,5442.9428,N,11318.4659,W,000.0,022.4,220819,017.7,E*6F
01DE3B,02261B,00C4A6,$GPRMC,060159,A,5442.9427,N,11318.4658,W,000.0,022.4,220819,017.7,E*60
01DE3B,02261A,00C4A5,$GPRMC,060200,A,5442.9426,N,11318.4656,W,000.0,022.4,220819,017.7,E*60
01DE3E,02261E,00C4A7,$GPRMC,060201,A,5442.9425,N,11318.4654,W,000.0,022.4,220819,017.7,E*60
01DE39,022617,00C4A4,$GPRMC,060202,A,5442.9425,N,11318.4652,W,000.0,022.4,220819,017.7,E*65
01DE3E,02261F,00C4A8,$GPRMC,060203,A,5442.9424,N,11318.4651,W,000.0,022.4,220819,017.7,E*66
01DE3D,02261B,00C4A6,$GPRMC,060204,A,5442.9424,N,11318.4649,W,000.0,022.4,220819,017.7,E*68
01DE42,022623,00C4A9,$GPRMC,060205,A,5442.9424,N,11318.4648,W,000.0,022.4,220819,017.7,E*68
01DE3E,02261E,00C4A8,$GPRMC,060206,A,5442.9423,N,11318.4648,W,000.0,022.4,220819,017.7,E*6C
01DE3E,02261E,00C4A8,$GPRMC,060207,A,5442.9423,N,11318.4646,W,000.0,022.4,220819,017.7,E*63
01DE3F,022620,00C4A8,$GPRMC,060208,A,5442.9424,N,11318.4644,W,000.0,022.4,220819,017.7,E*69
01DE39,022617,00C4A4,$GPRMC,060209,A,5442.9425,N,11318.4644,W,000.0,022.4,220819,017.7,E*69
01DE3E,02261D,00C4A7,$GPRMC,060210,A,5442.9426,N,11318.4643,W,000.0,022.4,220819,017.7,E*65
01DE3E,02261E,00C4A8,$GPRMC,060211,A,5442.9427,N,11318.4643,W,000.0,022.4,220819,017.7,E*65
01DE3E,02261E,00C4A7,$GPRMC,060212,A,5442.9428,N,11318.4642,W,000.0,022.4,220819,017.7,E*68
01DE3D,02261D,00C4A7,$GPRMC,060213,A,5442.9428,N,11318.4642,W,000.0,022.4,220819,017.7,E*69
01DE40,022620,00C4A8,$GPRMC,060214,A,5442.9429,N,11318.4643,W,000.0,022.4,220819,017.7,E*6E
01DE3E,02261F,00C4A9,$GPRMC,060215,A,5442.9430,N,11318.4644,W,000.0,022.4,220819,017.7,E*60
01DE40,02261F,00C4A8,$GPRMC,060216,A,5442.9431,N,11318.4645,W,000.0,022.4,220819,017.7,E*63
01DE41,022621,00C4A9,$GPRMC,060217,A,5442.9432,N,11318.4646,W,000.0,022.4,220819,017.7,E*62
01DE3E,02261D,00C4A8,$GPRMC,060218,A,5442.9433,N,11318.4647,W,000.0,022.4,220819,017.7,E*6D
01DE42,022623,00C4AA,$GPRMC,060219,A,5442.9434,N,11318.4649,W,000.0,022.4,220819,017.7,E*65
01DE3C,02261B,00C4A6,$GPRMC,060220,A,5442.9435,N,11318.4650,W,000.0,022.4,220819,017.7,E*66
01DE3D,02261B,00C4A6,$GPRMC,060221,A,5442.9436,N,11318.4651,W,000.0,022.4,220819,017.7,E*65
01DE42,022623,00C4AA,$GPRMC,060222,A,5442.9437,N,11318.4651,W,000.0,022.4,220819,017.7,E*67
01DE3F,02261F,00C4A8,$GPRMC,060223,A,5442.9438,N,11318.4652,W,000.0,022.4,220819,017.7,E*6A
01DE43,022623,00C4AA,$GPRMC,060224,A,5442.9439,N,11318.4653,W,000.0,022.4,220819,017.7,E*6D
01DE40,022621,00C4A9,$GPRMC,060225,A,5442.9440,N,11318.4653,W,000.0,022.4,220819,017.7,E*62
01DE41,022620,00C4A9,$GPRMC,060226,A,5442.9441,N,11318.4654,W,000.0,022.4,220819,017.7,E*67
01DE3D,02261B,00C4A6,$GPRMC,060227,A,5442.9442,N,11318.4656,W,000.0,022.4,220819,017.7,E*67
01DE41,022621,00C4A9,$GPRMC,060228,A,5442.9442,N,11318.4657,W,000.0,022.4,220819,017.7,E*69
01DE3F,02261D,00C4A7,$GPRMC,060229,A,5442.9444,N,11318.4659,W,000.0,022.4,220819,017.7,E*60
01DE41,022620,00C4A9,$GPRMC,060230,A,5442.9445,N,11318.4660,W,000.0,022.4,220819,017.7,E*63
01DE40,022621,00C4A9,$GPRMC,060231,A,5442.9446,N,11318.4661,W,000.0,022.4,220819,017.7,E*60
01DE41,022620,00C4A9,$GPRMC,060232,A,5442.9446,N,11318.4662,W,000.0,022.4,220819,017.7,E*60
01DE3F,02261F,00C4A8,$GPRMC,060233,A,5442.9447,N,11318.4662,W,000.0,022.4,220819,017.7,E*60
01DE40,02261E,00C4A8,$GPRMC,060234,A,5442.9448,N,11318.4665,W,000.0,022.4,220819,017.7,E*6F
01DE41,022620,00C4A8,$GPRMC,060235,A,5442.9448,N,11318.4666,W,000.0,022.4,220819,017.7,E*6D
01DE42,022622,00C4A9,$GPRMC,060236,A,5442.9448,N,11318.4666,W,000.0,022.4,220819,017.7,E*6E
01DE41,022621,00C4A9,$GPRMC,060237,A,5442.9447,N,11318.4667,W,000.0,022.4,220819,017.7,E*61
01DE3F,02261E,00C4A7,$GPRMC,060238,A,5442.9447,N,11318.4666,W,000.0,022.4,220819,017.7,E*6F
01DE3D,02261C,00C4A7,$GPRMC,060239,A,5442.9447,N,11318.4666,W,000.0,022.4,220819,017.7,E*6E
01DE40,02261F,00C4A8,$GPRMC,060240,A,5442.9446,N,11318.4666,W,000.0,022.4,220819,017.7,E*61
01DE3D,02261A,00C4A5,$GPRMC,060241,A,5442.9445,N,11318.4665,W,000.0,022.4,220819,017.7,E*60
01DE44,022626,00C4AA,$GPRMC,060242,A,5442.9445,N,11318.4664,W,000.0,022.4,220819,017.7,E*62
01DE3D,02261A,00C4A5,$GPRMC,060243,A,5442.9444,N,11318.4663,W,000.0,022.4,220819,017.7,E*65
01DE45,022627,00C4AB,$GPRMC,060244,A,5442.9444,N,11318.4662,W,000.0,022.4,220819,017.7,E*63
01DE41,022621,00C4A9,$GPRMC,060245,A,5442.9444,N,11318.4660,W,000.0,022.4,220819,017.7,E*60
01DE41,022621,00C4A9,$GPRMC,060246,A,5442.9446,N,11318.4658,W,000.0,022.4,220819,017.7,E*6A
01DE3F,02261F,00C4A7,$GPRMC,060247,A,5442.9448,N,11318.4656,W,000.0,022.4,220819,017.7,E*6B
01DE41,022621,00C4A8,$GPRMC,060248,A,5442.9448,N,11318.4655,W,000.0,022.4,220819,017.7,E*67
01DE40,02261E,00C4A8,$GPRMC,060249,A,5442.9447,N,11318.4654,W,000.0,022.4,220819,017.7,E*68
01DE43,022623,00C4A9,$GPRMC,060250,A,5442.9446,N,11318.4654,W,000.0,022.4,220819,017.7,E*61
01DE41,022621,00C4A8,$GPRMC,060251,A,5442.9446,N,11318.4653,W,000.0,022.4,220819,017.7,E*67
01DE41,022621,00C4A8,$GPRMC,060252,A,5442.9445,N,11318.4653,W,000.0,022.4,220819,017.7,E*67
01DE40,022620,00C4A7,$GPRMC,060253,A,5442.9444,N,11318.4653,W,000.0,022.4,220819,017.7,E*67
01DE43,022624,00C4A9,$GPRMC,060254,A,5442.9443,N,11318.4652,W,000.0,022.4,220819,017.7,E*66
01DE3F,02261D,00C4A6,$GPRMC,060255,A,5442.9443,N,11318.4652,W,000.0,022.4,220819,017.7,E*67
01DE41,022621,00C4A8,$GPRMC,060256,A,5442.9443,N,11318.4651,W,000.0,022.4,220819,017.7,E*67
01DE40,02261E,00C4A7,$GPRMC,060257,A,5442.9443,N,11318.4651,W,000.0,022.4,220819,017.7,E*66
01DE41,022620,00C4A8,$GPRMC,060258,A,5442.9443,N,11318.4651,W,000.0,022.4,220819,017.7,E*69
01DE41,022620,00C4A8,$GPRMC,060259,A,5442.9443,N,11318.4650,W,000.0,022.4,220819,017.7,E*69
01DE41,022620,00C4A8,$GPRMC,060300,A,5442.9443,N,11318.4650,W,000.0,022.4,220819,017.7,E*64
01DE3F,02261F,00C4A7,$GPRMC,060301,A,5442.9443,N,11318.4649,W,000.0,022.4,220819,017.7,E*6D
01DE41,022621,00C4A8,$GPRMC,060302,A,5442.9443,N,11318.4649,W,000.0,022.4,220819,017.7,E*6E
01DE3D,02261B,00C4A6,$GPRMC,060303,A,5442.9444,N,11318.4648,W,000.0,022.4,220819,017.7,E*69
01DE42,022622,00C4A8,$GPRMC,060304,A,5442.9444,N,11318.4647,W,000.0,022.4,220819,017.7,E*61
01DE40,02261F,00C4A7,$GPRMC,060305,A,5442.9445,N,11318.4646,W,000.0,022.4,220819,017.7,E*60
01DE41,022623,00C4A8,$GPRMC,060306,A,5442.9445,N,11318.4645,W,000.0,022.4,220819,017.7,E*60
01DE42,022623,00C4A9,$GPRMC,060307,A,5442.9446,N,11318.4645,W,000.0,022.4,220819,017.7,E*62
01DE43,022626,00C4AA,$GPRMC,060308,A,5442.9447,N,11318.4645,W,000.0,022.4,220819,017.7,E*6C
01DE3E,02261D,00C4A6,$GPRMC,060309,A,5442.9448,N,11318.4645,W,000.0,022.4,220819,017.7,E*62
01DE41,022621,00C4A8,$GPRMC,060310,A,5442.9448,N,11318.4645,W,000.0,022.4,220819,017.7,E*6A
01DE41,022621,00C4A8,$GPRMC,060311,A,5442.9448,N,11318.4645,W,000.0,022.4,220819,017.7,E*6B
01DE41,022621,00C4A8,$GPRMC,060312,A,5442.9448,N,11318.4646,W,000.0,022.4,220819,017.7,E*6B
01DE40,022620,00C4A7,$GPRMC,060313,A,5442.9448,N,11318.4648,W,000.0,022.4,220819,017.7,E*64
01DE3E,02261C,00C4A6,$GPRMC,060314,A,5442.9448,N,11318.4649,W,000.0,022.4,220819,017.7,E*62
01DE3D,02261C,00C4A6,$GPRMC,060315,A,5442.9447,N,11318.4650,W,000.0,022.4,220819,017.7,E*64
01DE3D,02261C,00C4A6,$GPRMC,060316,A,5442.9447,N,11318.4651,W,000.0,022.4,220819,017.7,E*66
01DE3E,02261D,00C4A6,$GPRMC,060317,A,5442.9447,N,11318.4653,W,000.0,022.4,220819,017.7,E*65
01DE3F,022620,00C4A7,$GPRMC,060318,A,5442.9447,N,11318.4653,W,000.0,022.4,220819,017.7,E*6A
01DE41,022621,00C4A8,$GPRMC,060319,A,5442.9447,N,11318.4654,W,000.0,022.4,220819,017.7,E*6C
01DE3F,02261F,00C4A6,$GPRMC,060320,A,5442.9448,N,11318.4655,W,000.0,022.4,220819,017.7,E*68
01DE3E,02261D,00C4A6,$GPRMC,060321,A,5442.9447,N,11318.4655,W,000.0,022.4,220819,017.7,E*66
01DE3E,02261C,00C4A5,$GPRMC,060322,A,5442.9446,N,11318.4656,W,000.0,022.4,220819,017.7,E*67
01DE40,022620,00C4A7,$GPRMC,060323,A,5442.9448,N,11318.4656,W,000.0,022.4,220819,017.7,E*68
01DE3E,02261D,00C4A6,$GPRMC,060324,A,5442.9447,N,11318.4657,W,000.0,022.4,220819,017.7,E*61
01DE41,022620,00C4A8,$GPRMC,060325,A,5442.9446,N,11318.4657,W,000.0,022.4,220819,017.7,E*61
01DE3D,02261B,00C4A5,$GPRMC,060326,A,5442.9446,N,11318.4658,W,000.0,022.4,220819,017.7,E*6D
01DE40,022620,00C4A8,$GPRMC,060327,A,5442.9446,N,11318.4659,W,000.0,022.4,220819,017.7,E*6D
01DE43,022625,00C4AA,$GPRMC,060328,A,5442.9446,N,11318.4659,W,000.0,022.4,220819,017.7,E*62
01DE3F,022620,00C4A7,$GPRMC,060329,A,5442.9446,N,11318.4660,W,000.0,022.4,220819,017.7,E*69
01DE42,022623,00C4A9,$GPRMC,060330,A,5442.9445,N,11318.4659,W,000.0,022.4,220819,017.7,E*68
01DE42,022623,00C4A9,$GPRMC,060331,A,5442.9444,N,11318.4658,W,000.0,022.4,220819,017.7,E*69
01DE40,022620,00C4A7,$GPRMC,060332,A,5442.9444,N,11318.4656,W,000.0,022.4,220819,017.7,E*64
01DE3C,02261C,00C4A5,$GPRMC,060333,A,5442.9444,N,11318.4653,W,000.0,022.4,220819,017.7,E*60
01DE41,022621,00C4A8,$GPRMC,060334,A,5442.9446,N,11318.4652,W,000.0,022.4,220819,017.7,E*64
01DE3E,02261E,00C4A6,$GPRMC,060335,A,5442.9447,N,11318.4652,W,000.0,022.4,220819,017.7,E*64
01DE41,022621,00C4A7,$GPRMC,060336,A,5442.9449,N,11318.4652,W,000.0,022.4,220819,017.7,E*69
01DE42,022622,00C4A8,$GPRMC,060337,A,5442.9451,N,11318.4652,W,000.0,022.4,220819,017.7,E*61
01DE3F,02261E,00C4A6,$GPRMC,060338,A,5442.9453,N,11318.4652,W,000.0,022.4,220819,017.7,E*6C
01DE40,02261F,00C4A7,$GPRMC,060339,A,5442.9455,N,11318.4652,W,000.0,022.4,220819,017.7,E*6B
01DE41,022622,00C4A8,$GPRMC,060340,A,5442.9454,N,11318.4653,W,000.0,022.4,220819,017.7,E*65
01DE41,022621,00C4A8,$GPRMC,060341,A,5442.9456,N,11318.4653,W,000.0,022.4,220819,017.7,E*66
01DE44,022623,00C4A9,$GPRMC,060342,A,5442.9458,N,11318.4653,W,000.0,022.4,220819,017.7,E*6B
01DE40,02261F,00C4A8,$GPRMC,060343,A,5442.9460,N,11318.4654,W,000.0,022.4,220819,017.7,E*66
01DE40,022620,00C4A7,$GPRMC,060344,A,5442.9461,N,11318.4654,W,000.0,022.4,220819,017.7,E*60
01DE3F,02261D,00C4A6,$GPRMC,060345,A,5442.9463,N,11318.4655,W,000.0,022.4,220819,017.7,E*62
01DE41,022622,00C4A8,$GPRMC,060346,A,5442.9465,N,11318.4655,W,000.0,022.4,220819,017.7,E*67
01DE3F,02261E,00C4A7,$GPRMC,060347,A,5442.9465,N,11318.4657,W,000.0,022.4,220819,017.7,E*64
01DE3F,02261F,00C4A7,$GPRMC,060348,A,5442.9466,N,11318.4658,W,000.0,022.4,220819,017.7,E*67
01DE40,022620,00C4A7,$GPRMC,060349,A,5442.9466,N,11318.4659,W,000.0,022.4,220819,017.7,E*67
01DE40,02261F,00C4A7,$GPRMC,060350,A,5442.9466,N,11318.4661,W,000.0,022.4,220819,017.7,E*64
01DE3D,02261C,00C4A5,$GPRMC,060351,A,5442.9466,N,11318.4662,W,000.0,022.4,220819,017.7,E*66
01DE3E,02261E,00C4A6,$GPRMC,060352,A,5442.9465,N,11318.4663,W,000.0,022.4,220819,017.7,E*67
01DE40,022620,00C4A7,$GPRMC,060353,A,5442.9465,N,11318.4664,W,000.0,022.4,220819,017.7,E*61
01DE40,02261F,00C4A7,$GPRMC,060354,A,5442.9466,N,11318.4664,W,000.0,022.4,220819,017.7,E*65
01DE3F,02261E,00C4A7,$GPRMC,060355,A,5442.9466,N,11318.4664,W,000.0,022.4,220819,017.7,E*64
01DE41,022621,00C4A8,$GPRMC,060356,A,5442.9468,N,11318.4664,W,000.0,022.4,220819,017.7,E*69
01DE3C,02261A,00C4A5,$GPRMC,060357,A,5442.9468,N,11318.4664,W,000.0,022.4,220819,017.7,E*68
01DE3F,02261E,00C4A6,$GPRMC,060358,A,5442.9467,N,11318.4665,W,000.0,022.4,220819,017.7,E*69
01DE3F,022620,00C4A7,$GPRMC,060359,A,5442.9467,N,11318.4665,W,000.0,022.4,220819,017.7,E*68
01DE40,02261F,00C4A7,$GPRMC,060400,A,5442.9467,N,11318.4664,W,000.0,022.4,220819,017.7,E*62
01DE3D,02261A,00C4A6,$GPRMC,060401,A,5442.9467,N,11318.4664,W,000.0,022.4,220819,017.7,E*63
01DE42,022622,00C4A9,$GPRMC,060402,A,5442.9470,N,11318.4662,W,000.0,022.4,220819,017.7,E*60
01DE3C,02261B,00C4A5,$GPRMC,060403,A,5442.9470,N,11318.4663,W,000.0,022.4,220819,017.7,E*60
01DE3C,022617,00C4A5,$GPRMC,060404,A,5442.9469,N,11318.4664,W,000.0,022.4,220819,017.7,E*68
01DE3C,02261A,00C4A5,$GPRMC,060405,A,5442.9469,N,11318.4665,W,000.0,022.4,220819,017.7,E*68
01DE43,022621,00C4A8,$GPRMC,060406,A,5442.9468,N,11318.4665,W,000.0,022.4,220819,017.7,E*6A
01DE3E,02261C,00C4A6,$GPRMC,060407,A,5442.9467,N,11318.4666,W,000.0,022.4,220819,017.7,E*67
01DE3F,02261C,00C4A6,$GPRMC,060408,A,5442.9467,N,11318.4665,W,000.0,022.4,220819,017.7,E*6B
01DE41,02261F,00C4A7,$GPRMC,060409,A,5442.9466,N,11318.4667,W,000.0,022.4,220819,017.7,E*69
01DE3F,02261D,00C4A7,$GPRMC,060410,A,5442.9466,N,11318.4668,W,000.0,022.4,220819,017.7,E*6E
01DE3F,02261D,00C4A6,$GPRMC,060411,A,5442.9465,N,11318.4669,W,000.0,022.4,220819,017.7,E*6D
01DE40,02261E,00C4A7,$GPRMC,060412,A,5442.9465,N,11318.4670,W,000.0,022.4,220819,017.7,E*66
01DE42,022621,00C4A8,$GPRMC,060413,A,5442.9464,N,11318.4671,W,000.0,022.4,220819,017.7,E*67
01DE41,02261F,00C4A7,$GPRMC,060414,A,5442.9463,N,11318.4672,W,000.0,022.4,220819,017.7,E*64
01DE42,022620,00C4A8,$GPRMC,060415,A,5442.9463,N,11318.4673,W,000.0,022.4,220819,017.7,E*64
01DE43,022622,00C4A9,$GPRMC,060416,A,5442.9462,N,11318.4674,W,000.0,022.4,220819,017.7,E*61
01DE41,02261F,00C4A7,$GPRMC,060417,A,5442.9462,N,11318.4675,W,000.0,022.4,220819,017.7,E*61
01DE43,022622,00C4A8,$GPRMC,060418,A,5442.9464,N,11318.4675,W,000.0,022.4,220819,017.7,E*68
01DE41,022620,00C4A8,$GPRMC,060419,A,5442.9465,N,11318.4675,W,000.0,022.4,220819,017.7,E*68
01DE3A,022614,00C4A3,$GPRMC,060420,A,5442.9464,N,11318.4676,W,000.0,022.4,220819,017.7,E*60
01DE41,02261D,00C4A7,$GPRMC,060421,A,5442.9463,N,11318.4675,W,000.0,022.4,220819,017.7,E*65
01DE3F,02261C,00C4A6,$GPRMC,060422,A,5442.9464,N,11318.4675,W,000.0,022.4,220819,017.7,E*61
01DE42,022621,00C4A8,$GPRMC,060423,A,5442.9465,N,11318.4676,W,000.0,022.4,220819,017.7,E*62
01DE42,02261F,00C4A7,$GPRMC,060424,A,5442.9466,N,11318.4676,W,000.0,022.4,220819,017.7,E*66
01DE44,022623,00C4A8,$GPRMC,060425,A,5442.9467,N,11318.4677,W,000.0,022.4,220819,017.7,E*67
01DE40,02261C,00C4A6,$GPRMC,060426,A,5442.9467,N,11318.4678,W,000.0,022.4,220819,017.7,E*6B
01DE43,022621,00C4A8,$GPRMC,060427,A,5442.9466,N,11318.4678,W,000.0,022.4,220819,017.7,E*6B
01DE40,02261D,00C4A6,$GPRMC,060428,A,5442.9466,N,11318.4680,W,000.0,022.4,220819,017.7,E*63
01DE42,022620,00C4A7,$GPRMC,060429,A,5442.9466,N,11318.4680,W,000.0,022.4,220819,017.7,E*62
01DE41,02261E,00C4A7,$GPRMC,060430,A,5442.9468,N,11318.4680,W,000.0,022.4,220819,017.7,E*64
01DE40,02261E,00C4A7,$GPRMC,060431,A,5442.9470,N,11318.4681,W,000.0,022.4,220819,017.7,E*6D
01DE40,02261C,00C4A6,$GPRMC,060432,A,5442.9472,N,11318.4681,W,000.0,022.4,220819,017.7,E*6C
01DE42,02261F,00C4A7,$GPRMC,060433,A,5442.9473,N,11318.4680,W,000.0,022.4,220819,017.7,E*6D
01DE40,02261C,00C4A6,$GPRMC,060434,A,5442.9474,N,11318.4680,W,000.0,022.4,220819,017.7,E*6D
01DE41,02261E,00C4A7,$GPRMC,060435,A,5442.9474,N,11318.4680,W,000.0,022.4,220819,017.7,E*6C
01DE41,02261D,00C4A6,$GPRMC,060436,A,5442.9475,N,11318.4681,W,000.0,022.4,220819,017.7,E*6F
01DE3E,022619,00C4A5,$GPRMC,060437,A,5442.9474,N,11318.4683,W,000.0,022.4,220819,017.7,E*6D
01DE43,022622,00C4A8,$GPRMC,060438,A,5442.9474,N,11318.4683,W,000.0,022.4,220819,017.7,E*62
01DE44,022621,00C4A7,$GPRMC,060439,A,5442.9473,N,11318.4683,W,000.0,022.4,220819,017.7,E*64
01DE3E,022619,00C4A4,$GPRMC,060440,A,5442.9473,N,11318.4683,W,000.0,022.4,220819,017.7,E*6A
01DE42,02261E,00C4A6,$GPRMC,060441,A,5442.9473,N,11318.4682,W,000.0,022.4,220819,017.7,E*6A
01DE42,02261F,00C4A7,$GPRMC,060442,A,5442.9473,N,11318.4682,W,000.0,022.4,220819,017.7,E*69
01DE3D,022617,00C4A4,$GPRMC,060443,A,5442.9474,N,11318.4682,W,000.0,022.4,220819,017.7,E*6F
01DE44,022623,00C4A8,$GPRMC,060444,A,5442.9473,N,11318.4683,W,000.0,022.4,220819,017.7,E*6E
01DE3E,022618,00C4A4,$GPRMC,060445,A,5442.9469,N,11318.4684,W,000.0,022.4,220819,017.7,E*63
01DE3D,022617,00C4A3,$GPRMC,060446,A,5442.9472,N,11318.4683,W,000.0,022.4,220819,017.7,E*6D
01DE43,022620,00C4A7,$GPRMC,060447,A,5442.9473,N,11318.4683,W,000.0,022.4,220819,017.7,E*6D
01DE44,022621,00C4A8,$GPRMC,060448,A,5442.9475,N,11318.4680,W,000.0,022.4,220819,017.7,E*67
01DE41,02261D,00C4A6,$GPRMC,060449,A,5442.9477,N,11318.4679,W,000.0,022.4,220819,017.7,E*62
01DE43,022620,00C4A7,$GPRMC,060450,A,5442.9478,N,11318.4678,W,000.0,022.4,220819,017.7,E*64
01DE3E,022619,00C4A4,$GPRMC,060451,A,5442.9480,N,11318.4676,W,000.0,022.4,220819,017.7,E*6C
01DE43,02261F,00C4A6,$GPRMC,060452,A,5442.9476,N,11318.4675,W,000.0,022.4,220819,017.7,E*65
01DE47,022625,00C4A9,$GPRMC,060453,A,5442.9479,N,11318.4673,W,000.0,022.4,220819,017.7,E*6D
01DE42,022620,00C4A7,$GPRMC,060454,A,5442.9482,N,11318.4671,W,000.0,022.4,220819,017.7,E*6C
01DE42,02261E,00C4A6,$GPRMC,060455,A,5442.9485,N,11318.4669,W,000.0,022.4,220819,017.7,E*63
01DE44,022623,00C4A8,$GPRMC,060456,A,5442.9487,N,11318.4666,W,000.0,022.4,220819,017.7,E*6D
01DE41,02261E,00C4A6,$GPRMC,060457,A,5442.9490,N,11318.4664,W,000.0,022.4,220819,017.7,E*68
01DE42,02261F,00C4A6,$GPRMC,060458,A,5442.9493,N,11318.4661,W,000.0,022.4,220819,017.7,E*61
01DE3F,02261C,00C4A5,$GPRMC,060459,A,5442.9495,N,11318.4659,W,000.0,022.4,220819,017.7,E*6D
01DE41,02261E,00C4A6,$GPRMC,060500,A,5442.9498,N,11318.4657,W,000.0,022.4,220819,017.7,E*63
01DE3E,022618,00C4A4,$GPRMC,060501,A,5442.9498,N,11318.4659,W,000.0,022.4,220819,017.7,E*6C
01DE41,02261E,00C4A6,$GPRMC,060502,A,5442.9499,N,11318.4658,W,000.0,022.4,220819,017.7,E*6F
01DE44,022622,00C4A8,$GPRMC,060503,A,5442.9498,N,11318.4657,W,000.0,022.4,220819,017.7,E*60
01DE42,02261E,00C4A7,$GPRMC,060504,A,5442.9498,N,11318.4657,W,000.0,022.4,220819,017.7,E*67
01DE40,02261B,00C4A5,$GPRMC,060505,A,5442.9498,N,11318.4656,W,000.0,022.4,220819,017.7,E*67
01DE41,02261D,00C4A6,$GPRMC,060506,A,5442.9496,N,11318.4656,W,000.0,022.4,220819,017.7,E*6A
01DE42,02261D,00C4A6,$GPRMC,060507,A,5442.9495,N,11318.4656,W,000.0,022.4,220819,017.7,E*68
01DE46,022623,00C4A9,$GPRMC,060508,A,5442.9493,N,11318.4656,W,000.0,022.4,220819,017.7,E*61
01DE46,022623,00C4A9,$GPRMC,060509,A,5442.9492,N,11318.4657,W,000.0,022.4,220819,017.7,E*60
01DE45,022622,00C4A8,$GPRMC,060510,A,5442.9490,N,11318.4658,W,000.0,022.4,220819,017.7,E*65
01DE44,022620,00C4A7,$GPRMC,060511,A,5442.9488,N,11318.4659,W,000.0,022.4,220819,017.7,E*6C
01DE47,022626,00C4AA,$GPRMC,060512,A,5442.9486,N,11318.4661,W,000.0,022.4,220819,017.7,E*6A
01DE44,022622,00C4A8,$GPRMC,060513,A,5442.9484,N,11318.4662,W,000.0,022.4,220819,017.7,E*6A
01DE45,022622,00C4A8,$GPRMC,060514,A,5442.9482,N,11318.4663,W,000.0,022.4,220819,017.7,E*6A
01DE43,02261F,00C4A7,$GPRMC,060515,A,5442.9480,N,11318.4665,W,000.0,022.4,220819,017.7,E*6F
01DE41,02261C,00C4A5,$GPRMC,060516,A,5442.9477,N,11318.4666,W,000.0,022.4,220819,017.7,E*67
01DE42,02261E,00C4A6,$GPRMC,060517,A,5442.9474,N,11318.4667,W,000.0,022.4,220819,017.7,E*64
01DE3F,02261A,00C4A4,$GPRMC,060518,A,5442.9475,N,11318.4667,W,000.0,022.4,220819,017.7,E*6A
01DE43,022621,00C4A7,$GPRMC,060519,A,5442.9473,N,11318.4668,W,000.0,022.4,220819,017.7,E*62
01DE41,02261D,00C4A6,$GPRMC,060520,A,5442.9471,N,11318.4667,W,000.0,022.4,220819,017.7,E*65
01DE42,02261E,00C4A7,$GPRMC,060521,A,5442.9470,N,11318.4667,W,000.0,022.4,220819,017.7,E*65
01DE44,022621,00C4A8,$GPRMC,060522,A,5442.9468,N,11318.4667,W,000.0,022.4,220819,017.7,E*6F
01DE41,02261D,00C4A6,$GPRMC,060523,A,5442.9466,N,11318.4667,W,000.0,022.4,220819,017.7,E*60
01DE43,022620,00C4A7,$GPRMC,060524,A,5442.9465,N,11318.4668,W,000.0,022.4,220819,017.7,E*6B
01DE42,02261E,00C4A7,$GPRMC,060525,A,5442.9464,N,11318.4668,W,000.0,022.4,220819,017.7,E*6B
01DE43,022620,00C4A7,$GPRMC,060526,A,5442.9466,N,11318.4667,W,000.0,022.4,220819,017.7,E*65
01DE41,02261D,00C4A6,$GPRMC,060527,A,5442.9465,N,11318.4666,W,000.0,022.4,220819,017.7,E*66
01DE3F,02261B,00C4A5,$GPRMC,060528,A,5442.9464,N,11318.4665,W,000.0,022.4,220819,017.7,E*6B
01DE42,02261C,00C4A6,$GPRMC,060529,A,5442.9463,N,11318.4664,W,000.0,022.4,220819,017.7,E*6C
01DE41,02261D,00C4A6,$GPRMC,060530,A,5442.9462,N,11318.4663,W,000.0,022.4,220819,017.7,E*62
01DE40,02261B,00C4A5,$GPRMC,060531,A,5442.9461,N,11318.4661,W,000.0,022.4,220819,017.7,E*62
01DE40,02261B,00C4A5,$GPRMC,060532,A,5442.9460,N,11318.4659,W,000.0,022.4,220819,017.7,E*6B
01DE41,02261B,00C4A6,$GPRMC,060533,A,5442.9459,N,11318.4658,W,000.0,022.4,220819,017.7,E*61
01DE3F,022619,00C4A5,$GPRMC,060534,A,5442.9459,N,11318.4657,W,000.0,022.4,220819,017.7,E*69
01DE41,02261E,00C4A6,$GPRMC,060535,A,5442.9458,N,11318.4656,W,000.0,022.4,220819,017.7,E*68
01DE3F,02261A,00C4A4,$GPRMC,060536,A,5442.9457,N,11318.4656,W,000.0,022.4,220819,017.7,E*64
01DE41,02261C,00C4A6,$GPRMC,060537,A,5442.9463,N,11318.4654,W,000.0,022.4,220819,017.7,E*60
01DE3D,022618,00C4A4,$GPRMC,060538,A,5442.9460,N,11318.4656,W,000.0,022.4,220819,017.7,E*6E
01DE40,02261B,00C4A5,$GPRMC,060539,A,5442.9457,N,11318.4657,W,000.0,022.4,220819,017.7,E*6A
01DE40,02261C,00C4A6,$GPRMC,060540,A,5442.9459,N,11318.4658,W,000.0,022.4,220819,017.7,E*65
01DE42,02261E,00C4A6,$GPRMC,060541,A,5442.9462,N,11318.4658,W,000.0,022.4,220819,017.7,E*6C
01DE40,02261B,00C4A5,$GPRMC,060542,A,5442.9465,N,11318.4657,W,000.0,022.4,220819,017.7,E*67
01DE41,02261D,00C4A5,$GPRMC,060543,A,5442.9464,N,11318.4658,W,000.0,022.4,220819,017.7,E*68
01DE3F,022617,00C4A4,$GPRMC,060544,A,5442.9463,N,11318.4659,W,000.0,022.4,220819,017.7,E*69
01DE45,022623,00C4A8,$GPRMC,060545,A,5442.9462,N,11318.4660,W,000.0,022.4,220819,017.7,E*63
01DE43,022620,00C4A7,$GPRMC,060546,A,5442.9462,N,11318.4661,W,000.0,022.4,220819,017.7,E*61
01DE44,022620,00C4A7,$GPRMC,060547,A,5442.9461,N,11318.4662,W,000.0,022.4,220819,017.7,E*60
01DE42,02261E,00C4A6,$GPRMC,060548,A,5442.9460,N,11318.4664,W,000.0,022.4,220819,017.7,E*68
01DE42,02261E,00C4A6,$GPRMC,060549,A,5442.9459,N,11318.4666,W,000.0,022.4,220819,017.7,E*61
01DE44,022621,00C4A7,$GPRMC,060550,A,5442.9459,N,11318.4668,W,000.0,022.4,220819,017.7,E*67
01DE45,022622,00C4A8,$GPRMC,060551,A,5442.9458,N,11318.4669,W,000.0,022.4,220819,017.7,E*66
01DE46,022623,00C4A8,$GPRMC,060552,A,5442.9457,N,11318.4670,W,000.0,022.4,220819,017.7,E*62
01DE45,022622,00C4A8,$GPRMC,060553,A,5442.9456,N,11318.4671,W,000.0,022.4,220819,017.7,E*63
01DE43,02261F,00C4A7,$GPRMC,060554,A,5442.9456,N,11318.4672,W,000.0,022.4,220819,017.7,E*67
01DE43,02261F,00C4A6,$GPRMC,060555,A,5442.9456,N,11318.4673,W,000.0,022.4,220819,017.7,E*67
01DE47,022623,00C4A8,$GPRMC,060556,A,5442.9456,N,11318.4674,W,000.0,022.4,220819,017.7,E*63
01DE42,02261E,00C4A5,$GPRMC,060557,A,5442.9455,N,11318.4675,W,000.0,022.4,220819,017.7,E*60
01DE47,022624,00C4A9,$GPRMC,060558,A,5442.9455,N,11318.4675,W,000.0,022.4,220819,017.7,E*6F
01DE44,022620,00C4A7,$GPRMC,060559,A,5442.9455,N,11318.4676,W,000.0,022.4,220819,017.7,E*6D
01DE45,022621,00C4A8,$GPRMC,060600,A,5442.9455,N,11318.4677,W,000.0,022.4,220819,017.7,E*63
01DE46,022623,00C4A8,$GPRMC,060601,A,5442.9455,N,11318.4677,W,000.0,022.4,220819,017.7,E*62
01DE44,022620,00C4A7,$GPRMC,060602,A,5442.9455,N,11318.4678,W,000.0,022.4,220819,017.7,E*6E
01DE45,022620,00C4A7,$GPRMC,060603,A,5442.9455,N,11318.4679,W,000.0,022.4,220819,017.7,E*6E
01DE42,02261D,00C4A6,$GPRMC,060604,A,5442.9455,N,11318.4679,W,000.0,022.4,220819,017.7,E*69
01DE42,02261D,00C4A6,$GPRMC,060605,A,5442.9454,N,11318.4680,W,000.0,022.4,220819,017.7,E*6F
01DE44,022622,00C4A8,$GPRMC,060606,A,5442.9454,N,11318.4681,W,000.0,022.4,220819,017.7,E*6D
01DE42,02261D,00C4A6,$GPRMC,060607,A,5442.9454,N,11318.4681,W,000.0,022.4,220819,017.7,E*6C
01DE42,02261E,00C4A6,$GPRMC,060608,A,5442.9453,N,11318.4681,W,000.0,022.4,220819,017.7,E*64
01DE47,022624,00C4A9,$GPRMC,060609,A,5442.9453,N,11318.4681,W,000.0,022.4,220819,017.7,E*65
01DE43,02261F,00C4A7,$GPRMC,060610,A,5442.9452,N,11318.4681,W,000.0,022.4,220819,017.7,E*6C
01DE46,022624,00C4A9,$GPRMC,060611,A,5442.9453,N,11318.4680,W,000.0,022.4,220819,017.7,E*6D
01DE46,022624,00C4A9,$GPRMC,060612,A,5442.9453,N,11318.4679,W,000.0,022.4,220819,017.7,E*68
01DE42,02261E,00C4A6,$GPRMC,060613,A,5442.9452,N,11318.4677,W,000.0,022.4,220819,017.7,E*66
01DE45,022622,00C4A9,$GPRMC,060614,A,5442.9452,N,11318.4676,W,000.0,022.4,220819,017.7,E*60
01DE42,02261E,00C4A6,$GPRMC,060615,A,5442.9451,N,11318.4674,W,000.0,022.4,220819,017.7,E*60
01DE47,022625,00C4A9,$GPRMC,060616,A,5442.9451,N,11318.4672,W,000.0,022.4,220819,017.7,E*65
01DE45,022621,00C4A7,$GPRMC,060617,A,5442.9450,N,11318.4670,W,000.0,022.4,220819,017.7,E*67
01DE46,022625,00C4A9,$GPRMC,060618,A,5442.9450,N,11318.4668,W,000.0,022.4,220819,017.7,E*61
01DE45,022622,00C4A8,$GPRMC,060619,A,5442.9450,N,11318.4666,W,000.0,022.4,220819,017.7,E*6E
01DE46,022624,00C4A9,$GPRMC,060620,A,5442.9450,N,11318.4665,W,000.0,022.4,220819,017.7,E*67
01DE44,022620,00C4A7,$GPRMC,060621,A,5442.9449,N,11318.4663,W,000.0,022.4,220819,017.7,E*68
01DE46,022623,00C4A8,$GPRMC,060622,A,5442.9449,N,11318.4661,W,000.0,022.4,220819,017.7,E*69
01DE44,022621,00C4A7,$GPRMC,060623,A,5442.9448,N,11318.4660,W,000.0,022.4,220819,017.7,E*68
01DE48,022624,00C4A9,$GPRMC,060624,A,5442.9448,N,11318.4660,W,000.0,022.4,220819,017.7,E*6F
01DE44,022622,00C4A8,$GPRMC,060625,A,5442.9448,N,11318.4659,W,000.0,022.4,220819,017.7,E*64
01DE46,022622,00C4A9,$GPRMC,060626,A,5442.9448,N,11318.4658,W,000.0,022.4,220819,017.7,E*66
01DE45,022622,00C4A8,$GPRMC,060627,A,5442.9449,N,11318.4657,W,000.0,022.4,220819,017.7,E*69
01DE45,022621,00C4A8,$GPRMC,060628,A,5442.9449,N,11318.4656,W,000.0,022.4,220819,017.7,E*67
01DE46,022624,00C4A8,$GPRMC,060629,A,5442.9449,N,11318.4656,W,000.0,022.4,220819,017.7,E*66
01DE46,022623,00C4A8,$GPRMC,060630,A,5442.9450,N,11318.4656,W,000.0,022.4,220819,017.7,E*66
01DE44,022620,00C4A7,$GPRMC,060631,A,5442.9450,N,11318.4655,W,000.0,022.4,220819,017.7,E*64
01DE46,022622,00C4A8,$GPRMC,060632,A,5442.9450,N,11318.4655,W,000.0,022.4,220819,017.7,E*67
01DE48,022626,00C4AA,$GPRMC,060633,A,5442.9450,N,11318.4654,W,000.0,022.4,220819,017.7,E*67
01DE49,022627,00C4AA,$GPRMC,060634,A,5442.9449,N,11318.4655,W,000.0,022.4,220819,017.7,E*69
01DE48,022625,00C4AA,$GPRMC,060635,A,5442.9449,N,11318.4655,W,000.0,022.4,220819,017.7,E*68
01DE47,022625,00C4AA,$GPRMC,060636,A,5442.9449,N,11318.4655,W,000.0,022.4,220819,017.7,E*6B
01DE45,022621,00C4A8,$GPRMC,060637,A,5442.9448,N,11318.4655,W,000.0,022.4,220819,017.7,E*6B
01DE47,022625,00C4AA,$GPRMC,060638,A,5442.9445,N,11318.4655,W,000.0,022.4,220819,017.7,E*69
01DE43,02261E,00C4A7,$GPRMC,060639,A,5442.9446,N,11318.4655,W,000.0,022.4,220819,017.7,E*6B
01DE45,022622,00C4A8,$GPRMC,060640,A,5442.9446,N,11318.4654,W,000.0,022.4,220819,017.7,E*64
01DE46,022622,00C4A8,$GPRMC,060641,A,5442.9446,N,11318.4654,W,000.0,022.4,220819,017.7,E*65
01DE46,022622,00C4A8,$GPRMC,060642,A,5442.9446,N,11318.4653,W,000.0,022.4,220819,017.7,E*61
01DE43,02261E,00C4A7,$GPRMC,060643,A,5442.9446,N,11318.4651,W,000.0,022.4,220819,017.7,E*62
01DE45,022622,00C4A9,$GPRMC,060644,A,5442.9445,N,11318.4650,W,000.0,022.4,220819,017.7,E*67
01DE48,022626,00C4AA,$GPRMC,060645,A,5442.9445,N,11318.4648,W,000.0,022.4,220819,017.7,E*6F
01DE46,022623,00C4A9,$GPRMC,060646,A,5442.9444,N,11318.4646,W,000.0,022.4,220819,017.7,E*63
01DE45,022622,00C4A8,$GPRMC,060647,A,5442.9444,N,11318.4644,W,000.0,022.4,220819,017.7,E*60
01DE44,022621,00C4A8,$GPRMC,060648,A,5442.9444,N,11318.4642,W,000.0,022.4,220819,017.7,E*69
01DE42,02261D,00C4A6,$GPRMC,060649,A,5442.9443,N,11318.4640,W,000.0,022.4,220819,017.7,E*6D
01DE47,022626,00C4A9,$GPRMC,060650,A,5442.9442,N,11318.4638,W,000.0,022.4,220819,017.7,E*6B
01DE45,022622,00C4A8,$GPRMC,060651,A,5442.9442,N,11318.4636,W,000.0,022.4,220819,017.7,E*64
01DE46,022624,00C4A9,$GPRMC,060652,A,5442.9441,N,11318.4634,W,000.0,022.4,220819,017.7,E*66
01DE45,022622,00C4A8,$GPRMC,060653,A,5442.9440,N,11318.4633,W,000.0,022.4,220819,017.7,E*61
01DE43,02261F,00C4A7,$GPRMC,060654,A,5442.9439,N,11318.4632,W,000.0,022.4,220819,017.7,E*69
01DE42,02261E,00C4A6,$GPRMC,060655,A,5442.9431,N,11318.4633,W,000.0,022.4,220819,017.7,E*61
01DE45,022623,00C4A9,$GPRMC,060656,A,5442.9430,N,11318.4633,W,000.0,022.4,220819,017.7,E*63
01DE43,022620,00C4A7,$GPRMC,060657,A,5442.9429,N,11318.4633,W,000.0,022.4,220819,017.7,E*6A
01DE40,02261C,00C4A5,$GPRMC,060658,A,5442.9424,N,11318.4634,W,000.0,022.4,220819,017.7,E*6F
01DE45,022623,00C4A8,$GPRMC,060659,A,5442.9420,N,11318.4635,W,000.0,022.4,220819,017.7,E*6B
01DE43,022620,00C4A8,$GPRMC,060700,A,5442.9416,N,11318.4636,W,000.0,022.4,220819,017.7,E*60
01DE40,02261C,00C4A5,$GPRMC,060701,A,5442.9412,N,11318.4638,W,000.0,022.4,220819,017.7,E*6B
01DE44,022621,00C4A7,$GPRMC,060702,A,5442.9410,N,11318.4639,W,000.0,022.4,220819,017.7,E*6B
01DE41,02261D,00C4A6,$GPRMC,060703,A,5442.9406,N,11318.4641,W,000.0,022.4,220819,017.7,E*62
01DE40,02261C,00C4A5,$GPRMC,060704,A,5442.9403,N,11318.4642,W,000.0,022.4,220819,017.7,E*63
01DE46,022625,00C4A9,$GPRMC,060705,A,5442.9402,N,11318.4643,W,000.0,022.4,220819,017.7,E*62
01DE40,02261C,00C4A6,$GPRMC,060706,A,5442.9401,N,11318.4645,W,000.0,022.4,220819,017.7,E*64
01DE40,02261D,00C4A6,$GPRMC,060707,A,5442.9401,N,11318.4646,W,000.0,022.4,220819,017.7,E*66
01DE43,022620,00C4A8,$GPRMC,060708,A,5442.9401,N,11318.4648,W,000.0,022.4,220819,017.7,E*67
01DE42,02261E,00C4A7,$GPRMC,060709,A,5442.9400,N,11318.4650,W,000.0,022.4,220819,017.7,E*6E
01DE41,02261D,00C4A6,$GPRMC,060710,A,5442.9400,N,11318.4652,W,000.0,022.4,220819,017.7,E*64
01DE44,022623,00C4A8,$GPRMC,060711,A,5442.9400,N,11318.4655,W,000.0,022.4,220819,017.7,E*62
01DE41,02261C,00C4A6,$GPRMC,060712,A,5442.9400,N,11318.4656,W,000.0,022.4,220819,017.7,E*62
01DE3F,02261A,00C4A5,$GPRMC,060713,A,5442.9400,N,11318.4658,W,000.0,022.4,220819,017.7,E*6D
01DE42,02261E,00C4A7,$GPRMC,060714,A,5442.9394,N,11318.4660,W,000.0,022.4,220819,017.7,E*6B
01DE40,02261B,00C4A6,$GPRMC,060715,A,5442.9395,N,11318.4661,W,000.0,022.4,220819,017.7,E*6A
01DE41,02261C,00C4A6,$GPRMC,060716,A,5442.9396,N,11318.4661,W,000.0,022.4,220819,017.7,E*6A
01DE43,02261E,00C4A7,$GPRMC,060717,A,5442.9396,N,11318.4661,W,000.0,022.4,220819,017.7,E*6B
01DE42,02261D,00C4A6,$GPRMC,060718,A,5442.9397,N,11318.4660,W,000.0,022.4,220819,017.7,E*64
01DE41,02261C,00C4A5,$GPRMC,060719,A,5442.9395,N,11318.4660,W,000.0,022.4,220819,017.7,E*67
01DE42,02261C,00C4A6,$GPRMC,060720,A,5442.9395,N,11318.4659,W,000.0,022.4,220819,017.7,E*67
01DE42,02261E,00C4A7,$GPRMC,060721,A,5442.9395,N,11318.4658,W,000.0,022.4,220819,017.7,E*67
01DE46,022623,00C4A9,$GPRMC,060722,A,5442.9395,N,11318.4658,W,000.0,022.4,220819,017.7,E*64
01DE42,02261D,00C4A6,$GPRMC,060723,A,5442.9395,N,11318.4656,W,000.0,022.4,220819,017.7,E*6B
01DE47,022623,00C4A8,$GPRMC,060724,A,5442.9394,N,11318.4656,W,000.0,022.4,220819,017.7,E*6D
01DE45,022622,00C4A8,$GPRMC,060725,A,5442.9392,N,11318.4655,W,000.0,022.4,220819,017.7,E*69
01DE45,022620,00C4A7,$GPRMC,060726,A,5442.9391,N,11318.4654,W,000.0,022.4,220819,017.7,E*68
01DE43,02261D,00C4A6,$GPRMC,060727,A,5442.9390,N,11318.4653,W,000.0,022.4,220819,017.7,E*6F
01DE46,022622,00C4A8,$GPRMC,060728,A,5442.9389,N,11318.4653,W,000.0,022.4,220819,017.7,E*68
01DE45,022621,00C4A8,$GPRMC,060729,A,5442.9388,N,11318.4652,W,000.0,022.4,220819,017.7,E*69
01DE46,022621,00C4A8,$GPRMC,060730,A,5442.9388,N,11318.4652,W,000.0,022.4,220819,017.7,E*61
01DE49,022627,00C4AB,$GPRMC,060731,A,5442.9387,N,11318.4652,W,000.0,022.4,220819,017.7,E*6F
01DE47,022623,00C4A9,$GPRMC,060732,A,5442.9387,N,11318.4651,W,000.0,022.4,220819,017.7,E*6F
01DE47,022622,00C4A9,$GPRMC,060733,A,5442.9387,N,11318.4651,W,000.0,022.4,220819,017.7,E*6E
01DE43,02261F,00C4A7,$GPRMC,060734,A,5442.9386,N,11318.4651,W,000.0,022.4,220819,017.7,E*68
01DE49,022626,00C4AB,$GPRMC,060735,A,5442.9386,N,11318.4650,W,000.0,022.4,220819,017.7,E*68
01DE44,02261F,00C4A7,$GPRMC,060736,A,5442.9386,N,11318.4649,W,000.0,022.4,220819,017.7,E*63
01DE47,022623,00C4A8,$GPRMC,060737,A,5442.9386,N,11318.4648,W,000.0,022.4,220819,017.7,E*63
01DE44,02261E,00C4A7,$GPRMC,060738,A,5442.9386,N,11318.4646,W,000.0,022.4,220819,017.7,E*62
01DE4A,022628,00C4AB,$GPRMC,060739,A,5442.9386,N,11318.4645,W,000.0,022.4,220819,017.7,E*60
01DE46,022623,00C4A9,$GPRMC,060740,A,5442.9386,N,11318.4643,W,000.0,022.4,220819,017.7,E*68
01DE47,022624,00C4A9,$GPRMC,060741,A,5442.9386,N,11318.4641,W,000.0,022.4,220819,017.7,E*6B
01DE49,022627,00C4AA,$GPRMC,060742,A,5442.9386,N,11318.4640,W,000.0,022.4,220819,017.7,E*69
01DE43,02261D,00C4A7,$GPRMC,060743,A,5442.9386,N,11318.4638,W,000.0,022.4,220819,017.7,E*67
01DE44,022621,00C4A7,$GPRMC,060744,A,5442.9387,N,11318.4638,W,000.0,022.4,220819,017.7,E*61
01DE46,022621,00C4A8,$GPRMC,060745,A,5442.9389,N,11318.4638,W,000.0,022.4,220819,017.7,E*6E
01DE46,022622,00C4A8,$GPRMC,060746,A,5442.9389,N,11318.4637,W,000.0,022.4,220819,017.7,E*62
01DE44,02261D,00C4A7,$GPRMC,060747,A,5442.9389,N,11318.4635,W,000.0,022.4,220819,017.7,E*61
01DE43,02261E,00C4A6,$GPRMC,060748,A,5442.9389,N,11318.4634,W,000.0,022.4,220819,017.7,E*6F
01DE44,02261F,00C4A7,$GPRMC,060749,A,5442.9390,N,11318.4632,W,000.0,022.4,220819,017.7,E*60
01DE43,02261C,00C4A6,$GPRMC,060750,A,5442.9390,N,11318.4631,W,000.0,022.4,220819,017.7,E*6B
01DE46,022620,00C4A7,$GPRMC,060751,A,5442.9390,N,11318.4630,W,000.0,022.4,220819,017.7,E*6B
01DE43,02261C,00C4A6,$GPRMC,060752,A,5442.9389,N,11318.4630,W,000.0,022.4,220819,017.7,E*60
01DE46,022621,00C4A8,$GPRMC,060753,A,5442.9389,N,11318.4629,W,000.0,022.4,220819,017.7,E*69
01DE42,02261B,00C4A6,$GPRMC,060754,A,5442.9389,N,11318.4629,W,000.0,022.4,220819,017.7,E*6E
01DE45,02261F,00C4A7,$GPRMC,060755,A,5442.9389,N,11318.4629,W,000.0,022.4,220819,017.7,E*6F
01DE46,022621,00C4A7,$GPRMC,060756,A,5442.9389,N,11318.4630,W,000.0,022.4,220819,017.7,E*64
01DE47,022623,00C4A8,$GPRMC,060757,A,5442.9389,N,11318.4630,W,000.0,022.4,220819,017.7,E*65
01DE48,022624,00C4A9,$GPRMC,060758,A,5442.9390,N,11318.4629,W,000.0,022.4,220819,017.7,E*6A
01DE44,02261E,00C4A7,$GPRMC,060759,A,5442.9389,N,11318.4629,W,000.0,022.4,220819,017.7,E*63
01DE47,022623,00C4A8,$GPRMC,060800,A,5442.9389,N,11318.4628,W,000.0,022.4,220819,017.7,E*61
01DE46,022621,00C4A7,$GPRMC,060801,A,5442.9388,N,11318.4628,W,000.0,022.4,220819,017.7,E*61
01DE47,022622,00C4A8,$GPRMC,060802,A,5442.9388,N,11318.4627,W,000.0,022.4,220819,017.7,E*6D
01DE43,02261D,00C4A6,$GPRMC,060803,A,5442.9388,N,11318.4627,W,000.0,022.4,220819,017.7,E*6C
01DE47,022625,00C4A9,$GPRMC,060804,A,5442.9388,N,11318.4626,W,000.0,022.4,220819,017.7,E*6A
01DE47,022622,00C4A8,$GPRMC,060805,A,5442.9388,N,11318.4625,W,000.0,022.4,220819,017.7,E*68
01DE45,022620,00C4A6,$GPRMC,060806,A,5442.9388,N,11318.4624,W,000.0,022.4,220819,017.7,E*6A
01DE48,022624,00C4A8,$GPRMC,060807,A,5442.9389,N,11318.4624,W,000.0,022.4,220819,017.7,E*6A
01DE43,02261D,00C4A6,$GPRMC,060808,A,5442.9389,N,11318.4623,W,000.0,022.4,220819,017.7,E*62
01DE46,022620,00C4A7,$GPRMC,060809,A,5442.9390,N,11318.4622,W,000.0,022.4,220819,017.7,E*6A
01DE46,022622,00C4A7,$GPRMC,060810,A,5442.9391,N,11318.4623,W,000.0,022.4,220819,017.7,E*62
01DE43,02261E,00C4A5,$GPRMC,060811,A,5442.9393,N,11318.4624,W,000.0,022.4,220819,017.7,E*66
01DE45,02261F,00C4A7,$GPRMC,060812,A,5442.9392,N,11318.4631,W,000.0,022.4,220819,017.7,E*60
01DE44,02261F,00C4A6,$GPRMC,060813,A,5442.9394,N,11318.4634,W,000.0,022.4,220819,017.7,E*62
01DE45,022621,00C4A8,$GPRMC,060814,A,5442.9396,N,11318.4632,W,000.0,022.4,220819,017.7,E*61
01DE44,022620,00C4A7,$GPRMC,060815,A,5442.9395,N,11318.4631,W,000.0,022.4,220819,017.7,E*60
01DE46,022621,00C4A7,$GPRMC,060816,A,5442.9395,N,11318.4630,W,000.0,022.4,220819,017.7,E*62
01DE4A,022627,00C4A9,$GPRMC,060817,A,5442.9393,N,11318.4629,W,000.0,022.4,220819,017.7,E*6D
01DE47,022622,00C4A9,$GPRMC,060818,A,5442.9391,N,11318.4628,W,000.0,022.4,220819,017.7,E*61
01DE42,02261D,00C4A6,$GPRMC,060819,A,5442.9390,N,11318.4628,W,000.0,022.4,220819,017.7,E*61
01DE46,022622,00C4A8,$GPRMC,060820,A,5442.9388,N,11318.4627,W,000.0,022.4,220819,017.7,E*6D
01DE44,02261F,00C4A7,$GPRMC,060821,A,5442.9386,N,11318.4626,W,000.0,022.4,220819,017.7,E*63
01DE46,022621,00C4A8,$GPRMC,060822,A,5442.9384,N,11318.4624,W,000.0,022.4,220819,017.7,E*60
01DE48,022624,00C4A8,$GPRMC,060823,A,5442.9383,N,11318.4623,W,000.0,022.4,220819,017.7,E*61
01DE46,022621,00C4A8,$GPRMC,060824,A,5442.9382,N,11318.4621,W,000.0,022.4,220819,017.7,E*65
01DE44,02261F,00C4A7,$GPRMC,060825,A,5442.9380,N,11318.4620,W,000.0,022.4,220819,017.7,E*67
01DE46,022620,00C4A7,$GPRMC,060826,A,5442.9379,N,11318.4618,W,000.0,022.4,220819,017.7,E*69
01DE49,022625,00C4A9,$GPRMC,060827,A,5442.9378,N,11318.4616,W,000.0,022.4,220819,017.7,E*67
01DE44,02261E,00C4A7,$GPRMC,060828,A,5442.9376,N,11318.4615,W,000.0,022.4,220819,017.7,E*65
01DE44,02261D,00C4A6,$GPRMC,060829,A,5442.9376,N,11318.4613,W,000.0,022.4,220819,017.7,E*62
01DE45,02261E,00C4A7,$GPRMC,060830,A,5442.9374,N,11318.4612,W,000.0,022.4,220819,017.7,E*69
01DE44,02261D,00C4A6,$GPRMC,060831,A,5442.9374,N,11318.4611,W,000.0,022.4,220819,017.7,E*6B
01DE48,022622,00C4A8,$GPRMC,060832,A,5442.9373,N,11318.4609,W,000.0,022.4,220819,017.7,E*66
01DE47,022622,00C4A8,$GPRMC,060833,A,5442.9373,N,11318.4608,W,000.0,022.4,220819,017.7,E*66
01DE49,022624,00C4A9,$GPRMC,060834,A,5442.9373,N,11318.4606,W,000.0,022.4,220819,017.7,E*6F
01DE49,022623,00C4A9,$GPRMC,060835,A,5442.9373,N,11318.4605,W,000.0,022.4,220819,017.7,E*6D
01DE48,022623,00C4A8,$GPRMC,060836,A,5442.9373,N,11318.4604,W,000.0,022.4,220819,017.7,E*6F
01DE47,022621,00C4A7,$GPRMC,060837,A,5442.9374,N,11318.4603,W,000.0,022.4,220819,017.7,E*6E
01DE48,022624,00C4A8,$GPRMC,060838,A,5442.9374,N,11318.4601,W,000.0,022.4,220819,017.7,E*63
01DE46,022620,00C4A6,$GPRMC,060839,A,5442.9374,N,11318.4600,W,000.0,022.4,220819,017.7,E*63
01DE48,022623,00C4A8,$GPRMC,060840,A,5442.9374,N,11318.4599,W,000.0,022.4,220819,017.7,E*6E
01DE45,02261F,00C4A6,$GPRMC,060841,A,5442.9374,N,11318.4597,W,000.0,022.4,220819,017.7,E*61
01DE47,022622,00C4A7,$GPRMC,060842,A,5442.9375,N,11318.4597,W,000.0,022.4,220819,017.7,E*63
01DE46,022621,00C4A7,$GPRMC,060843,A,5442.9375,N,11318.4597,W,000.0,022.4,220819,017.7,E*62
01DE47,022622,00C4A7,$GPRMC,060844,A,5442.9376,N,11318.4598,W,000.0,022.4,220819,017.7,E*69
01DE49,022626,00C4A9,$GPRMC,060845,A,5442.9377,N,11318.4599,W,000.0,022.4,220819,017.7,E*68
01DE46,022620,00C4A7,$GPRMC,060846,A,5442.9377,N,11318.4600,W,000.0,022.4,220819,017.7,E*68
01DE48,022623,00C4A8,$GPRMC,060847,A,5442.9377,N,11318.4602,W,000.0,022.4,220819,017.7,E*6B
01DE47,022623,00C4A8,$GPRMC,060848,A,5442.9381,N,11318.4601,W,000.0,022.4,220819,017.7,E*6E
01DE44,02261E,00C4A6,$GPRMC,060849,A,5442.9381,N,11318.4601,W,000.0,022.4,220819,017.7,E*6F
01DE4B,022627,00C4AA,$GPRMC,060850,A,5442.9381,N,11318.4601,W,000.0,022.4,220819,017.7,E*67
01DE46,022620,00C4A8,$GPRMC,060851,A,5442.9381,N,11318.4601,W,000.0,022.4,220819,017.7,E*66
01DE48,022625,00C4A8,$GPRMC,060852,A,5442.9381,N,11318.4600,W,000.0,022.4,220819,017.7,E*64
01DE48,022622,00C4A8,$GPRMC,060853,A,5442.9381,N,11318.4600,W,000.0,022.4,220819,017.7,E*65
01DE46,022622,00C4A8,$GPRMC,060854,A,5442.9381,N,11318.4600,W,000.0,022.4,220819,017.7,E*62
01DE48,022623,00C4A8,$GPRMC,060855,A,5442.9381,N,11318.4600,W,000.0,022.4,220819,017.7,E*63
01DE45,02261D,00C4A6,$GPRMC,060856,A,5442.9381,N,11318.4600,W,000.0,022.4,220819,017.7,E*60
01DE47,022621,00C4A7,$GPRMC,060857,A,5442.9385,N,11318.4599,W,000.0,022.4,220819,017.7,E*66
01DE49,022623,00C4A8,$GPRMC,060858,A,5442.9385,N,11318.4601,W,000.0,022.4,220819,017.7,E*6B
01DE46,022621,00C4A7,$GPRMC,060859,A,5442.9386,N,11318.4603,W,000.0,022.4,220819,017.7,E*6B
01DE46,022620,00C4A7,$GPRMC,060900,A,5442.9387,N,11318.4607,W,000.0,022.4,220819,017.7,E*63
01DE46,022621,00C4A7,$GPRMC,060901,A,5442.9388,N,11318.4609,W,000.0,022.4,220819,017.7,E*63
01DE46,022620,00C4A7,$GPRMC,060902,A,5442.9388,N,11318.4610,W,000.0,022.4,220819,017.7,E*68
01DE47,022621,00C4A7,$GPRMC,060903,A,5442.9389,N,11318.4611,W,000.0,022.4,220819,017.7,E*69
01DE47,022622,00C4A7,$GPRMC,060904,A,5442.9389,N,11318.4612,W,000.0,022.4,220819,017.7,E*6D
01DE4B,022625,00C4A9,$GPRMC,060905,A,5442.9389,N,11318.4613,W,000.0,022.4,220819,017.7,E*6D
01DE46,02261F,00C4A6,$GPRMC,060906,A,5442.9389,N,11318.4613,W,000.0,022.4,220819,017.7,E*6E
01DE4B,022626,00C4A9,$GPRMC,060907,A,5442.9389,N,11318.4613,W,000.0,022.4,220819,017.7,E*6F
01DE48,022623,00C4A8,$GPRMC,060908,A,5442.9389,N,11318.4614,W,000.0,022.4,220819,017.7,E*67
01DE49,022626,00C4AA,$GPRMC,060909,A,5442.9389,N,11318.4614,W,000.0,022.4,220819,017.7,E*66
01DE47,022621,00C4A8,$GPRMC,060910,A,5442.9390,N,11318.4615,W,000.0,022.4,220819,017.7,E*67
01DE47,022622,00C4A8,$GPRMC,060911,A,5442.9390,N,11318.4615,W,000.0,022.4,220819,017.7,E*66
01DE46,022621,00C4A7,$GPRMC,060912,A,5442.9390,N,11318.4615,W,000.0,022.4,220819,017.7,E*65
01DE49,022624,00C4A9,$GPRMC,060913,A,5442.9390,N,11318.4616,W,000.0,022.4,220819,017.7,E*67
01DE48,022624,00C4A9,$GPRMC,060914,A,5442.9389,N,11318.4615,W,000.0,022.4,220819,017.7,E*6B
01DE4C,02262A,00C4AB,$GPRMC,060915,A,5442.9390,N,11318.4614,W,000.0,022.4,220819,017.7,E*63
01DE4D,02262B,00C4AC,$GPRMC,060916,A,5442.9389,N,11318.4613,W,000.0,022.4,220819,017.7,E*6F
01DE4B,022628,00C4AB,$GPRMC,060917,A,5442.9388,N,11318.4613,W,000.0,022.4,220819,017.7,E*6F
01DE4B,022629,00C4AB,$GPRMC,060918,A,5442.9387,N,11318.4612,W,000.0,022.4,220819,017.7,E*6E
01DE4D,02262B,00C4AC,$GPRMC,060919,A,5442.9386,N,11318.4611,W,000.0,022.4,220819,017.7,E*6D
01DE48,022625,00C4AA,$GPRMC,060920,A,5442.9385,N,11318.4610,W,000.0,022.4,220819,017.7,E*65
01DE49,022625,00C4AA,$GPRMC,060921,A,5442.9384,N,11318.4610,W,000.0,022.4,220819,017.7,E*65
01DE4E,02262C,00C4AD,$GPRMC,060922,A,5442.9383,N,11318.4610,W,000.0,022.4,220819,017.7,E*61
01DE4A,022627,00C4AB,$GPRMC,060923,A,5442.9382,N,11318.4610,W,000.0,022.4,220819,017.7,E*61
01DE41,022619,00C4A4,$GPRMC,060924,A,5442.9379,N,11318.4610,W,000.0,022.4,220819,017.7,E*62
01DE44,02261E,00C4A7,$GPRMC,060925,A,5442.9376,N,11318.4609,W,000.0,022.4,220819,017.7,E*64
01DE44,02261D,00C4A7,$GPRMC,060926,A,5442.9375,N,11318.4609,W,000.0,022.4,220819,017.7,E*64
01DE45,02261E,00C4A7,$GPRMC,060927,A,5442.9377,N,11318.4609,W,000.0,022.4,220819,017.7,E*67
01DE46,02261F,00C4A7,$GPRMC,060928,A,5442.9377,N,11318.4610,W,000.0,022.4,220819,017.7,E*60
01DE4C,022627,00C4AB,$GPRMC,060929,A,5442.9377,N,11318.4609,W,000.0,022.4,220819,017.7,E*69
01DE4D,022629,00C4AC,$GPRMC,060930,A,5442.9378,N,11318.4608,W,000.0,022.4,220819,017.7,E*6F
01DE4E,02262B,00C4AC,$GPRMC,060931,A,5442.9378,N,11318.4608,W,000.0,022.4,220819,017.7,E*6E
01DE4D,02262A,00C4AC,$GPRMC,060932,A,5442.9378,N,11318.4607,W,000.0,022.4,220819,017.7,E*62
01DE4E,02262C,00C4AC,$GPRMC,060933,A,5442.9379,N,11318.4606,W,000.0,022.4,220819,017.7,E*63
01DE4D,02262A,00C4AC,$GPRMC,060934,A,5442.9379,N,11318.4606,W,000.0,022.4,220819,017.7,E*64
01DE4D,022629,00C4AC,$GPRMC,060935,A,5442.9379,N,11318.4604,W,000.0,022.4,220819,017.7,E*67
01DE4C,022628,00C4AB,$GPRMC,060936,A,5442.9379,N,11318.4602,W,000.0,022.4,220819,017.7,E*62
01DE4D,02262A,00C4AC,$GPRMC,060937,A,5442.9378,N,11318.4602,W,000.0,022.4,220819,017.7,E*62
01DE4B,022626,00C4AA,$GPRMC,060938,A,5442.9378,N,11318.4602,W,000.0,022.4,220819,017.7,E*6D
01DE4D,02262A,00C4AC,$GPRMC,060939,A,5442.9378,N,11318.4601,W,000.0,022.4,220819,017.7,E*6F
01DE4D,02262A,00C4AC,$GPRMC,060940,A,5442.9378,N,11318.4601,W,000.0,022.4,220819,017.7,E*61
01DE4C,022628,00C4AB,$GPRMC,060941,A,5442.9378,N,11318.4600,W,000.0,022.4,220819,017.7,E*61
01DE4B,022626,00C4AA,$GPRMC,060942,A,5442.9378,N,11318.4600,W,000.0,022.4,220819,017.7,E*62
01DE49,022625,00C4A9,$GPRMC,060943,A,5442.9377,N,11318.4600,W,000.0,022.4,220819,017.7,E*6C
01DE4C,022627,00C4AA,$GPRMC,060944,A,5442.9377,N,11318.4600,W,000.0,022.4,220819,017.7,E*6B
01DE4C,022629,00C4AC,$GPRMC,060945,A,5442.9376,N,11318.4600,W,000.0,022.4,220819,017.7,E*6B
01DE4E,02262B,00C4AC,$GPRMC,060946,A,5442.9376,N,11318.4601,W,000.0,022.4,220819,017.7,E*69
01DE4D,022629,00C4AB,$GPRMC,060947,A,5442.9376,N,11318.4601,W,000.0,022.4,220819,017.7,E*68
01DE48,022622,00C4A8,$GPRMC,060948,A,5442.9376,N,11318.4602,W,000.0,022.4,220819,017.7,E*64
01DE47,022620,00C4A7,$GPRMC,060949,A,5442.9375,N,11318.4602,W,000.0,022.4,220819,017.7,E*66
01DE49,022622,00C4A9,$GPRMC,060950,A,5442.9375,N,11318.4602,W,000.0,022.4,220819,017.7,E*6E
01DE47,02261F,00C4A7,$GPRMC,060951,A,5442.9375,N,11318.4603,W,000.0,022.4,220819,017.7,E*6E
01DE47,02261F,00C4A7,$GPRMC,060952,A,5442.9376,N,11318.4603,W,000.0,022.4,220819,017.7,E*6E
01DE4A,022624,00C4A9,$GPRMC,060953,A,5442.9376,N,11318.4604,W,000.0,022.4,220819,017.7,E*68
01DE4A,022624,00C4A9,$GPRMC,060954,A,5442.9377,N,11318.4605,W,000.0,022.4,220819,017.7,E*6F
01DE4C,022626,00C4AA,$GPRMC,060955,A,5442.9377,N,11318.4606,W,000.0,022.4,220819,017.7,E*6D
01DE4A,022624,00C4A9,$GPRMC,060956,A,5442.9378,N,11318.4607,W,000.0,022.4,220819,017.7,E*60
01DE4A,022623,00C4A8,$GPRMC,060957,A,5442.9379,N,11318.4608,W,000.0,022.4,220819,017.7,E*6F
01DE4C,022626,00C4A9,$GPRMC,060958,A,5442.9381,N,11318.4610,W,000.0,022.4,220819,017.7,E*6E
01DE49,022622,00C4A8,$GPRMC,060959,A,5442.9382,N,11318.4612,W,000.0,022.4,220819,017.7,E*6E
01DE49,022621,00C4A8,$GPRMC,061000,A,5442.9383,N,11318.4613,W,000.0,022.4,220819,017.7,E*6A
01DE4F,022629,00C4AC,$GPRMC,061001,A,5442.9384,N,11318.4613,W,000.0,022.4,220819,017.7,E*6C
01DE4B,022624,00C4A9,$GPRMC,061002,A,5442.9385,N,11318.4614,W,000.0,022.4,220819,017.7,E*69
01DE47,02261F,00C4A6,$GPRMC,061003,A,5442.9385,N,11318.4615,W,000.0,022.4,220819,017.7,E*69
01DE4C,022626,00C4A9,$GPRMC,061004,A,5442.9386,N,11318.4617,W,000.0,022.4,220819,017.7,E*6F
01DE4A,022622,00C4A8,$GPRMC,061005,A,5442.9386,N,11318.4618,W,000.0,022.4,220819,017.7,E*61
01DE49,022622,00C4A8,$GPRMC,061006,A,5442.9387,N,11318.4619,W,000.0,022.4,220819,017.7,E*62
01DE4A,022623,00C4A9,$GPRMC,061007,A,5442.9387,N,11318.4620,W,000.0,022.4,220819,017.7,E*69
01DE4A,022623,00C4A8,$GPRMC,061008,A,5442.9387,N,11318.4621,W,000.0,022.4,220819,017.7,E*67
01DE4A,022622,00C4A8,$GPRMC,061009,A,5442.9387,N,11318.4622,W,000.0,022.4,220819,017.7,E*65
01DE4B,022625,00C4A9,$GPRMC,061010,A,5442.9387,N,11318.4623,W,000.0,022.4,220819,017.7,E*6C
01DE4D,022627,00C4AB,$GPRMC,061011,A,5442.9386,N,11318.4623,W,000.0,022.4,220819,017.7,E*6C
01DE4A,022623,00C4A9,$GPRMC,061012,A,5442.9386,N,11318.4624,W,000.0,022.4,220819,017.7,E*68
01DE4A,022624,00C4A9,$GPRMC,061013,A,5442.9385,N,11318.4624,W,000.0,022.4,220819,017.7,E*6A
01DE4A,022623,00C4A9,$GPRMC,061014,A,5442.9385,N,11318.4624,W,000.0,022.4,220819,017.7,E*6D
01DE49,022621,00C4A8,$GPRMC,061015,A,5442.9384,N,11318.4624,W,000.0,022.4,220819,017.7,E*6D
01DE4A,022623,00C4A8,$GPRMC,061016,A,5442.9384,N,11318.4624,W,000.0,022.4,220819,017.7,E*6E
01DE4A,022623,00C4A8,$GPRMC,061017,A,5442.9383,N,11318.4625,W,000.0,022.4,220819,017.7,E*69
01DE49,022620,00C4A7,$GPRMC,061018,A,5442.9383,N,11318.4625,W,000.0,022.4,220819,017.7,E*66
01DE48,022620,00C4A7,$GPRMC,061019,A,5442.9383,N,11318.4626,W,000.0,022.4,220819,017.7,E*64
01DE49,022622,00C4A8,$GPRMC,061020,A,5442.9384,N,11318.4631,W,000.0,022.4,220819,017.7,E*6F
01DE48,022620,00C4A8,$GPRMC,061021,A,5442.9385,N,11318.4633,W,000.0,022.4,220819,017.7,E*6D
01DE48,022620,00C4A8,$GPRMC,061022,A,5442.9385,N,11318.4634,W,000.0,022.4,220819,017.7,E*69
01DE4B,022623,00C4A9,$GPRMC,061023,A,5442.9386,N,11318.4636,W,000.0,022.4,220819,017.7,E*69
01DE4A,022622,00C4A8,$GPRMC,061024,A,5442.9386,N,11318.4638,W,000.0,022.4,220819,017.7,E*60
01DE4A,022623,00C4A9,$GPRMC,061025,A,5442.9387,N,11318.4639,W,000.0,022.4,220819,017.7,E*61
01DE4B,022623,00C4A9,$GPRMC,061026,A,5442.9388,N,11318.4641,W,000.0,022.4,220819,017.7,E*62
01DE4C,022625,00C4AA,$GPRMC,061027,A,5442.9388,N,11318.4642,W,000.0,022.4,220819,017.7,E*60
01DE49,022621,00C4A8,$GPRMC,061028,A,5442.9389,N,11318.4642,W,000.0,022.4,220819,017.7,E*6E
01DE4C,022626,00C4AA,$GPRMC,061029,A,5442.9390,N,11318.4643,W,000.0,022.4,220819,017.7,E*66
01DE4B,022622,00C4A9,$GPRMC,061030,A,5442.9390,N,11318.4643,W,000.0,022.4,220819,017.7,E*6E
01DE4A,022624,00C4A9,$GPRMC,061031,A,5442.9391,N,11318.4643,W,000.0,022.4,220819,017.7,E*6E
01DE4D,022626,00C4AB,$GPRMC,061032,A,5442.9391,N,11318.4643,W,000.0,022.4,220819,017.7,E*6D
01DE4A,022622,00C4A9,$GPRMC,061033,A,5442.9391,N,11318.4642,W,000.0,022.4,220819,017.7,E*6D
01DE4A,022622,00C4A8,$GPRMC,061034,A,5442.9389,N,11318.4641,W,000.0,022.4,220819,017.7,E*60
01DE4A,022622,00C4A9,$GPRMC,061035,A,5442.9386,N,11318.4640,W,000.0,022.4,220819,017.7,E*6F
01DE4E,022627,00C4AB,$GPRMC,061036,A,5442.9386,N,11318.4639,W,000.0,022.4,220819,017.7,E*62
01DE4A,022621,00C4A8,$GPRMC,061037,A,5442.9385,N,11318.4638,W,000.0,022.4,220819,017.7,E*61
01DE4E,022628,00C4AC,$GPRMC,061038,A,5442.9384,N,11318.4637,W,000.0,022.4,220819,017.7,E*60
01DE4C,022625,00C4AB,$GPRMC,061039,A,5442.9384,N,11318.4637,W,000.0,022.4,220819,017.7,E*61
01DE4D,022626,00C4AB,$GPRMC,061040,A,5442.9384,N,11318.4637,W,000.0,022.4,220819,017.7,E*6F
01DE4E,022628,00C4AB,$GPRMC,061041,A,5442.9384,N,11318.4638,W,000.0,022.4,220819,017.7,E*61
