,A,5442.9427,N,11318.4744,W,000.0,311.6,220819,017.7,E*6E
01DE51,022694,00C4AE,$GPRMC,135943,A,5442.9428,N,11318.4744,W,000.0,311.6,220819,017.7,E*60
01DE4D,022690,00C4AC,$GPRMC,135944,A,5442.9428,N,11318.4745,W,000.0,311.6,220819,017.7,E*66
01DE4F,022692,00C4AD,$GPRMC,135945,A,5442.9429,N,11318.4745,W,000.0,311.6,220819,017.7,E*66
01DE51,022695,00C4AE,$GPRMC,135946,A,5442.9429,N,11318.4744,W,000.0,311.6,220819,017.7,E*64
01DE50,022692,00C4AE,$GPRMC,135947,A,5442.9429,N,11318.4744,W,000.0,311.6,220819,017.7,E*65
01DE52,022694,00C4AE,$GPRMC,135948,A,5442.9429,N,11318.4743,W,000.0,311.6,220819,017.7,E*6D
01DE55,022698,00C4AF,$GPRMC,135949,A,5442.9429,N,11318.4743,W,000.0,311.6,220819,017.7,E*6C
01DE54,022696,00C4AE,$GPRMC,135950,A,5442.9429,N,11318.4742,W,000.0,311.6,220819,017.7,E*65
01DE56,022696,00C4AF,$GPRMC,135951,A,5442.9429,N,11318.4741,W,000.0,311.6,220819,017.7,E*67
01DE54,022691,00C4AE,$GPRMC,135952,A,5442.9429,N,11318.4741,W,000.0,311.6,220819,017.7,E*64
01DE56,022694,00C4AE,$GPRMC,135953,A,5442.9429,N,11318.4741,W,000.0,311.6,220819,017.7,E*65
01DE57,022693,00C4AF,$GPRMC,135954,A,5442.9429,N,11318.4741,W,000.0,311.6,220819,017.7,E*62
01DE55,022690,00C4AE,$GPRMC,135955,A,5442.9429,N,11318.4739,W,000.0,311.6,220819,017.7,E*6C
01DE55,022690,00C4AD,$GPRMC,135956,A,5442.9429,N,11318.4738,W,000.0,311.6,220819,017.7,E*6E
01DE58,022694,00C4AE,$GPRMC,135957,A,5442.9429,N,11318.4737,W,000.0,311.6,220819,017.7,E*60
01DE56,02268F,00C4AD,$GPRMC,135958,A,5442.9429,N,11318.4738,W,000.0,311.6,220819,017.7,E*60
01DE56,022690,00C4AD,$GPRMC,135959,A,5442.9429,N,11318.4734,W,000.0,311.6,220819,017.7,E*6D
01DE58,022690,00C4AE,$GPRMC,140000,A,5442.9429,N,11318.4730,W,000.0,311.6,220819,017.7,E*6E
01DE57,02268D,00C4AD,$GPRMC,140001,A,5442.9428,N,11318.4729,W,000.0,311.6,220819,017.7,E*66
01DE53,022687,00C4AB,$GPRMC,140002,A,5442.9428,N,11318.4729,W,000.0,311.6,220819,017.7,E*65
01DE53,022688,00C4AA,$GPRMC,140003,A,5442.9428,N,11318.4728,W,000.0,311.6,220819,017.7,E*65
01DE59,022690,00C4AE,$GPRMC,140004,A,5442.9428,N,11318.4728,W,000.0,311.6,220819,017.7,E*62
01DE54,02268A,00C4AB,$GPRMC,140005,A,5442.9427,N,11318.4729,W,000.0,311.6,220819,017.7,E*6D
01DE59,02268F,00C4AE,$GPRMC,140006,A,5442.9427,N,11318.4729,W,000.0,311.6,220819,017.7,E*6E
01DE5A,02268F,00C4AE,$GPRMC,140007,A,5442.9427,N,11318.4729,W,000.0,311.6,220819,017.7,E*6F
01DE5C,022692,00C4AF,$GPRMC,140008,A,5442.9426,N,11318.4730,W,000.0,311.6,220819,017.7,E*69
01DE59,02268C,00C4AD,$GPRMC,140009,A,5442.9426,N,11318.4729,W,000.0,311.6,220819,017.7,E*60
01DE59,02268E,00C4AD,$GPRMC,140010,A,5442.9427,N,11318.4726,W,000.0,311.6,220819,017.7,E*66
01DE57,02268B,00C4AC,$GPRMC,140011,A,5442.9427,N,11318.4722,W,000.0,311.6,220819,017.7,E*63
01DE55,022688,00C4AA,$GPRMC,140012,A,5442.9427,N,11318.4722,W,000.0,311.6,220819,017.7,E*60
01DE59,02268D,00C4AC,$GPRMC,140013,A,5442.9426,N,11318.4723,W,000.0,311.6,220819,017.7,E*61
01DE59,02268D,00C4AC,$GPRMC,140014,A,5442.9427,N,11318.4724,W,000.0,311.6,220819,017.7,E*60
01DE58,02268B,00C4AC,$GPRMC,140015,A,5442.9428,N,11318.4725,W,000.0,311.6,220819,017.7,E*6F
01DE5C,02268F,00C4AE,$GPRMC,140016,A,5442.9429,N,11318.4726,W,000.0,311.6,220819,017.7,E*6E
01DE5D,022692,00C4AF,$GPRMC,140017,A,5442.9431,N,11318.4727,W,000.0,311.6,220819,017.7,E*67
01DE5A,02268B,00C4AC,$GPRMC,140018,A,5442.9431,N,11318.4724,W,000.0,311.6,220819,017.7,E*6B
01DE5D,022691,00C4AE,$GPRMC,140019,A,5442.9432,N,11318.4721,W,000.0,311.6,220819,017.7,E*6C
01DE5C,02268E,00C4AE,$GPRMC,140020,A,5442.9433,N,11318.4719,W,000.0,311.6,220819,017.7,E*6C
01DE5B,02268E,00C4AE,$GPRMC,140021,A,5442.9433,N,11318.4718,W,000.0,311.6,220819,017.7,E*6C
01DE58,022689,00C4AC,$GPRMC,140022,A,5442.9433,N,11318.4716,W,000.0,311.6,220819,017.7,E*61
01DE5D,02268E,00C4AF,$GPRMC,140023,A,5442.9434,N,11318.4716,W,000.0,311.6,220819,017.7,E*67
01DE5B,02268C,00C4AD,$GPRMC,140024,A,5442.9435,N,11318.4715,W,000.0,311.6,220819,017.7,E*62
01DE5B,02268D,00C4AD,$GPRMC,140025,A,5442.9435,N,11318.4715,W,000.0,311.6,220819,017.7,E*63
01DE5A,02268A,00C4AD,$GPRMC,140026,A,5442.9436,N,11318.4715,W,000.0,311.6,220819,017.7,E*63
01DE5B,02268B,00C4AE,$GPRMC,140027,A,5442.9437,N,11318.4715,W,000.0,311.6,220819,017.7,E*63
01DE57,022686,00C4AB,$GPRMC,140028,A,5442.9437,N,11318.4715,W,000.0,311.6,220819,017.7,E*6C
01DE5E,02268F,00C4B0,$GPRMC,140029,A,5442.9438,N,11318.4715,W,000.0,311.6,220819,017.7,E*62
01DE59,022688,00C4AC,$GPRMC,140030,A,5442.9439,N,11318.4716,W,000.0,311.6,220819,017.7,E*68
01DE5B,02268C,00C4AE,$GPRMC,140031,A,5442.9439,N,11318.4716,W,000.0,311.6,220819,017.7,E*69
01DE5B,02268A,00C4AE,$GPRMC,140032,A,5442.9440,N,11318.4717,W,000.0,311.6,220819,017.7,E*65
01DE5C,02268C,00C4AE,$GPRMC,140033,A,5442.9440,N,11318.4718,W,000.0,311.6,220819,017.7,E*6B
01DE5D,02268D,00C4AF,$GPRMC,140034,A,5442.9441,N,11318.4719,W,000.0,311.6,220819,017.7,E*6C
01DE5D,02268D,00C4AE,$GPRMC,140035,A,5442.9442,N,11318.4720,W,000.0,311.6,220819,017.7,E*64
01DE5F,022690,00C4B0,$GPRMC,140036,A,5442.9442,N,11318.4721,W,000.0,311.6,220819,017.7,E*66
01DE5D,02268B,00C4AE,$GPRMC,140037,A,5442.9442,N,11318.4721,W,000.0,311.6,220819,017.7,E*67
01DE5D,02268B,00C4AE,$GPRMC,140038,A,5442.9442,N,11318.4722,W,000.0,311.6,220819,017.7,E*6B
01DE5E,02268E,00C4B0,$GPRMC,140039,A,5442.9442,N,11318.4722,W,000.0,311.6,220819,017.7,E*6A
01DE59,022687,00C4AD,$GPRMC,140040,A,5442.9442,N,11318.4723,W,000.0,311.6,220819,017.7,E*65
01DE5D,02268C,00C4AF,$GPRMC,140041,A,5442.9441,N,11318.4723,W,000.0,311.6,220819,017.7,E*67
01DE5D,02268C,00C4AF,$GPRMC,140042,A,5442.9441,N,11318.4723,W,000.0,311.6,220819,017.7,E*64
01DE5D,02268A,00C4AE,$GPRMC,140043,A,5442.9440,N,11318.4723,W,000.0,311.6,220819,017.7,E*64
01DE5A,022687,00C4AD,$GPRMC,140044,A,5442.9432,N,11318.4720,W,000.0,311.6,220819,017.7,E*65
01DE5C,022689,00C4AE,$GPRMC,140045,A,5442.9424,N,11318.4717,W,000.0,311.6,220819,017.7,E*67
01DE5C,02268A,00C4AE,$GPRMC,140046,A,5442.9416,N,11318.4715,W,000.0,311.6,220819,017.7,E*67
01DE5C,02268A,00C4AF,$GPRMC,140047,A,5442.9408,N,11318.4712,W,000.0,311.6,220819,017.7,E*6E
01DE5A,022689,00C4AE,$GPRMC,140048,A,5442.9401,N,11318.4710,W,000.0,311.6,220819,017.7,E*6A
01DE5D,02268D,00C4AF,$GPRMC,140049,A,5442.9395,N,11318.4708,W,000.0,311.6,220819,017.7,E*68
01DE5A,022687,00C4AE,$GPRMC,140050,A,5442.9389,N,11318.4705,W,000.0,311.6,220819,017.7,E*60
01DE5C,02268C,00C4AF,$GPRMC,140051,A,5442.9383,N,11318.4703,W,000.0,311.6,220819,017.7,E*6D
01DE55,022682,00C4AB,$GPRMC,140052,A,5442.9383,N,11318.4704,W,000.0,311.6,220819,017.7,E*69
01DE5A,022688,00C4AD,$GPRMC,140053,A,5442.9383,N,11318.4705,W,000.0,311.6,220819,017.7,E*69
01DE5B,02268B,00C4AE,$GPRMC,140054,A,5442.9377,N,11318.4707,W,000.0,311.6,220819,017.7,E*67
01DE5C,02268B,00C4AE,$GPRMC,140055,A,5442.9377,N,11318.4714,W,000.0,311.6,220819,017.7,E*64
01DE5C,02268B,00C4AF,$GPRMC,140056,A,5442.9378,N,11318.4717,W,000.0,311.6,220819,017.7,E*6B
01DE5F,02268F,00C4B0,$GPRMC,140057,A,5442.9379,N,11318.4719,W,000.0,311.6,220819,017.7,E*65
01DE5F,022690,00C4B1,$GPRMC,140058,A,5442.9379,N,11318.4720,W,000.0,311.6,220819,017.7,E*60
01DE58,022685,00C4AD,$GPRMC,140059,A,5442.9380,N,11318.4722,W,000.0,311.6,220819,017.7,E*65
01DE5C,02268B,00C4AF,$GPRMC,140100,A,5442.9381,N,11318.4723,W,000.0,311.6,220819,017.7,E*68
01DE5F,02268F,00C4B0,$GPRMC,140101,A,5442.9382,N,11318.4724,W,000.0,311.6,220819,017.7,E*6D
01DE58,022686,00C4AD,$GPRMC,140102,A,5442.9383,N,11318.4724,W,000.0,311.6,220819,017.7,E*6F
01DE5A,022689,00C4AE,$GPRMC,140103,A,5442.9384,N,11318.4725,W,000.0,311.6,220819,017.7,E*68
01DE5B,02268C,00C4AE,$GPRMC,140104,A,5442.9385,N,11318.4724,W,000.0,311.6,220819,017.7,E*6F
01DE5A,02268A,00C4AE,$GPRMC,140105,A,5442.9386,N,11318.4724,W,000.0,311.6,220819,017.7,E*6D
01DE59,022689,00C4AD,$GPRMC,140106,A,5442.9387,N,11318.4724,W,000.0,311.6,220819,017.7,E*6F
01DE59,02268A,00C4AD,$GPRMC,140107,A,5442.9388,N,11318.4723,W,000.0,311.6,220819,017.7,E*66
01DE59,02268C,00C4AE,$GPRMC,140108,A,5442.9388,N,11318.4723,W,000.0,311.6,220819,017.7,E*69
01DE58,02268B,00C4AE,$GPRMC,140109,A,5442.9389,N,11318.4722,W,000.0,311.6,220819,017.7,E*68
01DE5A,02268E,00C4AF,$GPRMC,140110,A,5442.9389,N,11318.4723,W,000.0,311.6,220819,017.7,E*61
01DE5B,02268F,00C4AF,$GPRMC,140111,A,5442.9389,N,11318.4723,W,000.0,311.6,220819,017.7,E*60
01DE56,022689,00C4AD,$GPRMC,140112,A,5442.9389,N,11318.4723,W,000.0,311.6,220819,017.7,E*63
01DE57,022689,00C4AE,$GPRMC,140113,A,5442.9390,N,11318.4723,W,000.0,311.6,220819,017.7,E*6A
01DE56,02268A,00C4AE,$GPRMC,140114,A,5442.9390,N,11318.4723,W,000.0,311.6,220819,017.7,E*6D
01DE57,02268A,00C4AE,$GPRMC,140115,A,5442.9390,N,11318.4723,W,000.0,311.6,220819,017.7,E*6C
01DE58,02268D,00C4AF,$GPRMC,140116,A,5442.9389,N,11318.4724,W,000.0,311.6,220819,017.7,E*60
01DE55,022689,00C4AD,$GPRMC,140117,A,5442.9389,N,11318.4724,W,000.0,311.6,220819,017.7,E*61
01DE5A,02268E,00C4AF,$GPRMC,140118,A,5442.9389,N,11318.4724,W,000.0,311.6,220819,017.7,E*6E
01DE55,022689,00C4AD,$GPRMC,140119,A,5442.9388,N,11318.4725,W,000.0,311.6,220819,017.7,E*6F
01DE5A,02268F,00C4B0,$GPRMC,140120,A,5442.9388,N,11318.4725,W,000.0,311.6,220819,017.7,E*65
01DE57,02268C,00C4AF,$GPRMC,140121,A,5442.9387,N,11318.4725,W,000.0,311.6,220819,017.7,E*6B
01DE58,02268E,00C4AF,$GPRMC,140122,A,5442.9386,N,11318.4726,W,000.0,311.6,220819,017.7,E*6A
01DE56,02268B,00C4AE,$GPRMC,140123,A,5442.9385,N,11318.4727,W,000.0,311.6,220819,017.7,E*69
01DE54,02268A,00C4AD,$GPRMC,140124,A,5442.9384,N,11318.4729,W,000.0,311.6,220819,017.7,E*61
01DE56,02268B,00C4AF,$GPRMC,140125,A,5442.9383,N,11318.4730,W,000.0,311.6,220819,017.7,E*6F
01DE54,02268A,00C4AD,$GPRMC,140126,A,5442.9382,N,11318.4731,W,000.0,311.6,220819,017.7,E*6C
01DE54,022689,00C4AD,$GPRMC,140127,A,5442.9380,N,11318.4733,W,000.0,311.6,220819,017.7,E*6D
01DE53,022686,00C4AD,$GPRMC,140128,A,5442.9379,N,11318.4734,W,000.0,311.6,220819,017.7,E*63
01DE54,02268A,00C4AE,$GPRMC,140129,A,5442.9377,N,11318.4736,W,000.0,311.6,220819,017.7,E*6E
01DE54,022689,00C4AE,$GPRMC,140130,A,5442.9375,N,11318.4737,W,000.0,311.6,220819,017.7,E*65
01DE51,022686,00C4AD,$GPRMC,140131,A,5442.9372,N,11318.4739,W,000.0,311.6,220819,017.7,E*6D
01DE56,02268A,00C4B0,$GPRMC,140132,A,5442.9370,N,11318.4741,W,000.0,311.6,220819,017.7,E*63
01DE55,022689,00C4AF,$GPRMC,140133,A,5442.9368,N,11318.4742,W,000.0,311.6,220819,017.7,E*68
01DE53,022688,00C4AE,$GPRMC,140134,A,5442.9366,N,11318.4743,W,000.0,311.6,220819,017.7,E*60
01DE51,022685,00C4AC,$GPRMC,140135,A,5442.9364,N,11318.4745,W,000.0,311.6,220819,017.7,E*65
01DE56,02268C,00C4AF,$GPRMC,140136,A,5442.9362,N,11318.4745,W,000.0,311.6,220819,017.7,E*60
01DE51,022684,00C4AC,$GPRMC,140137,A,5442.9361,N,11318.4746,W,000.0,311.6,220819,017.7,E*61
01DE53,02268A,00C4AE,$GPRMC,140138,A,5442.9359,N,11318.4747,W,000.0,311.6,220819,017.7,E*64
01DE54,022689,00C4AE,$GPRMC,140139,A,5442.9358,N,11318.4747,W,000.0,311.6,220819,017.7,E*64
01DE56,02268C,00C4AF,$GPRMC,140140,A,5442.9357,N,11318.4748,W,000.0,311.6,220819,017.7,E*6A
01DE56,02268B,00C4AE,$GPRMC,140141,A,5442.9356,N,11318.4748,W,000.0,311.6,220819,017.7,E*6A
01DE55,02268C,00C4AE,$GPRMC,140142,A,5442.9355,N,11318.4748,W,000.0,311.6,220819,017.7,E*6A
01DE52,022688,00C4AD,$GPRMC,140143,A,5442.9353,N,11318.4749,W,000.0,311.6,220819,017.7,E*6C
01DE50,022687,00C4AC,$GPRMC,140144,A,5442.9352,N,11318.4749,W,000.0,311.6,220819,017.7,E*6A
01DE50,022687,00C4AD,$GPRMC,140145,A,5442.9351,N,11318.4749,W,000.0,311.6,220819,017.7,E*68
01DE50,022688,00C4AE,$GPRMC,140146,A,5442.9350,N,11318.4749,W,000.0,311.6,220819,017.7,E*6A
01DE52,02268B,00C4AF,$GPRMC,140147,A,5442.9349,N,11318.4748,W,000.0,311.6,220819,017.7,E*62
01DE51,022688,00C4AE,$GPRMC,140148,A,5442.9348,N,11318.4748,W,000.0,311.6,220819,017.7,E*6C
01DE4D,022684,00C4AD,$GPRMC,140149,A,5442.9347,N,11318.4748,W,000.0,311.6,220819,017.7,E*62
01DE53,02268A,00C4AF,$GPRMC,140150,A,5442.9346,N,11318.4748,W,000.0,311.6,220819,017.7,E*6B
01DE52,022688,00C4AF,$GPRMC,140151,A,5442.9345,N,11318.4748,W,000.0,311.6,220819,017.7,E*69
01DE50,022685,00C4AD,$GPRMC,140152,A,5442.9345,N,11318.4748,W,000.0,311.6,220819,017.7,E*6A
01DE54,02268B,00C4B0,$GPRMC,140153,A,5442.9344,N,11318.4749,W,000.0,311.6,220819,017.7,E*6B
01DE4F,022684,00C4AD,$GPRMC,140154,A,5442.9343,N,11318.4750,W,000.0,311.6,220819,017.7,E*63
01DE54,02268B,00C4B0,$GPRMC,140155,A,5442.9342,N,11318.4751,W,000.0,311.6,220819,017.7,E*62
01DE55,02268C,00C4B0,$GPRMC,140156,A,5442.9341,N,11318.4752,W,000.0,311.6,220819,017.7,E*61
01DE51,022686,00C4AE,$GPRMC,140157,A,5442.9340,N,11318.4753,W,000.0,311.6,220819,017.7,E*60
01DE4F,022683,00C4AC,$GPRMC,140158,A,5442.9339,N,11318.4753,W,000.0,311.6,220819,017.7,E*61
01DE54,02268B,00C4AF,$GPRMC,140159,A,5442.9328,N,11318.4747,W,000.0,311.6,220819,017.7,E*65
01DE50,022684,00C4AC,$GPRMC,140200,A,5442.9316,N,11318.4740,W,000.0,311.6,220819,017.7,E*60
01DE54,02268B,00C4B0,$GPRMC,140201,A,5442.9304,N,11318.4733,W,000.0,311.6,220819,017.7,E*66
01DE55,02268B,00C4AF,$GPRMC,140202,A,5442.9293,N,11318.4726,W,000.0,311.6,220819,017.7,E*6E
01DE52,022688,00C4AE,$GPRMC,140203,A,5442.9283,N,11318.4719,W,000.0,311.6,220819,017.7,E*62
01DE54,02268B,00C4AF,$GPRMC,140204,A,5442.9272,N,11318.4712,W,000.0,311.6,220819,017.7,E*60
01DE55,02268B,00C4AF,$GPRMC,140205,A,5442.9262,N,11318.4706,W,000.0,311.6,220819,017.7,E*65
01DE56,02268D,00C4B0,$GPRMC,140206,A,5442.9253,N,11318.4699,W,000.0,311.6,220819,017.7,E*63
01DE57,02268F,00C4B1,$GPRMC,140207,A,5442.9245,N,11318.4694,W,000.0,311.6,220819,017.7,E*68
01DE56,02268D,00C4B0,$GPRMC,140208,A,5442.9238,N,11318.4689,W,000.0,311.6,220819,017.7,E*61
01DE58,02268F,00C4B1,$GPRMC,140209,A,5442.9231,N,11318.4684,W,000.0,311.6,220819,017.7,E*64
01DE57,02268D,00C4B1,$GPRMC,140210,A,5442.9225,N,11318.4679,W,000.0,311.6,220819,017.7,E*6B
01DE57,02268D,00C4B1,$GPRMC,140211,A,5442.9220,N,11318.4675,W,000.0,311.6,220819,017.7,E*63
01DE56,02268D,00C4B0,$GPRMC,140212,A,5442.9214,N,11318.4671,W,000.0,311.6,220819,017.7,E*63
01DE5A,022690,00C4B2,$GPRMC,140213,A,5442.9210,N,11318.4667,W,000.0,311.6,220819,017.7,E*61
01DE56,02268C,00C4B0,$GPRMC,140214,A,5442.9206,N,11318.4664,W,000.0,311.6,220819,017.7,E*62
01DE58,02268F,00C4B1,$GPRMC,140215,A,5442.9203,N,11318.4661,W,000.0,311.6,220819,017.7,E*63
01DE57,02268D,00C4B1,$GPRMC,140216,A,5442.9199,N,11318.4658,W,000.0,311.6,220819,017.7,E*6A
01DE57,02268D,00C4B1,$GPRMC,140217,A,5442.9196,N,11318.4655,W,000.0,311.6,220819,017.7,E*69
01DE58,02268E,00C4B0,$GPRMC,140218,A,5442.9193,N,11318.4653,W,000.0,311.6,220819,017.7,E*65
01DE56,02268C,00C4B0,$GPRMC,140219,A,5442.9190,N,11318.4651,W,000.0,311.6,220819,017.7,E*65
01DE54,022688,00C4AF,$GPRMC,140220,A,5442.9187,N,11318.4648,W,000.0,311.6,220819,017.7,E*61
01DE56,02268D,00C4B1,$GPRMC,140221,A,5442.9184,N,11318.4646,W,000.0,311.6,220819,017.7,E*6D
01DE57,02268E,00C4B2,$GPRMC,140222,A,5442.9183,N,11318.4644,W,000.0,311.6,220819,017.7,E*6B
01DE55,02268C,00C4B1,$GPRMC,140223,A,5442.9182,N,11318.4643,W,000.0,311.6,220819,017.7,E*6C
01DE56,02268D,00C4B1,$GPRMC,140224,A,5442.9189,N,11318.4645,W,000.0,311.6,220819,017.7,E*66
01DE54,022688,00C4AF,$GPRMC,140225,A,5442.9189,N,11318.4648,W,000.0,311.6,220819,017.7,E*6A
01DE58,02268E,00C4B2,$GPRMC,140226,A,5442.9191,N,11318.4648,W,000.0,311.6,220819,017.7,E*60
01DE56,02268C,00C4B1,$GPRMC,140227,A,5442.9190,N,11318.4647,W,000.0,311.6,220819,017.7,E*6F
01DE56,02268D,00C4B1,$GPRMC,140228,A,5442.9194,N,11318.4648,W,000.0,311.6,220819,017.7,E*6B
01DE58,02268F,00C4B2,$GPRMC,140229,A,5442.9199,N,11318.4649,W,000.0,311.6,220819,017.7,E*66
01DE54,022689,00C4B0,$GPRMC,140230,A,5442.9197,N,11318.4649,W,000.0,311.6,220819,017.7,E*60
01DE53,022688,00C4AF,$GPRMC,140231,A,5442.9195,N,11318.4648,W,000.0,311.6,220819,017.7,E*62
01DE56,02268E,00C4B0,$GPRMC,140232,A,5442.9198,N,11318.4650,W,000.0,311.6,220819,017.7,E*65
01DE54,02268A,00C4AF,$GPRMC,140233,A,5442.9202,N,11318.4652,W,000.0,311.6,220819,017.7,E*66
01DE58,022691,00C4B2,$GPRMC,140234,A,5442.9208,N,11318.4654,W,000.0,311.6,220819,017.7,E*6D
01DE56,02268D,00C4B0,$GPRMC,140235,A,5442.9206,N,11318.4654,W,000.0,311.6,220819,017.7,E*62
01DE54,02268C,00C4AF,$GPRMC,140236,A,5442.9205,N,11318.4654,W,000.0,311.6,220819,017.7,E*62
01DE56,02268E,00C4B0,$GPRMC,140237,A,5442.9203,N,11318.4655,W,000.0,311.6,220819,017.7,E*64
01DE53,02268B,00C4AF,$GPRMC,140238,A,5442.9201,N,11318.4655,W,000.0,311.6,220819,017.7,E*69
01DE54,02268D,00C4AF,$GPRMC,140239,A,5442.9199,N,11318.4656,W,000.0,311.6,220819,017.7,E*69
01DE54,02268E,00C4AF,$GPRMC,140240,A,5442.9198,N,11318.4658,W,000.0,311.6,220819,017.7,E*68
01DE53,02268C,00C4AE,$GPRMC,140241,A,5442.9197,N,11318.4660,W,000.0,311.6,220819,017.7,E*6D
01DE52,02268C,00C4AE,$GPRMC,140242,A,5442.9197,N,11318.4664,W,000.0,311.6,220819,017.7,E*6A
01DE52,02268C,00C4AE,$GPRMC,140243,A,5442.9198,N,11318.4669,W,000.0,311.6,220819,017.7,E*69
01DE55,022692,00C4B0,$GPRMC,140244,A,5442.9198,N,11318.4673,W,000.0,311.6,220819,017.7,E*65
01DE56,022694,00C4B1,$GPRMC,140245,A,5442.9197,N,11318.4675,W,000.0,311.6,220819,017.7,E*6D
01DE54,022691,00C4B0,$GPRMC,140246,A,5442.9197,N,11318.4677,W,000.0,311.6,220819,017.7,E*6C
01DE54,022690,00C4B0,$GPRMC,140247,A,5442.9196,N,11318.4679,W,000.0,311.6,220819,017.7,E*62
01DE54,02268F,00C4B0,$GPRMC,140248,A,5442.9196,N,11318.4683,W,000.0,311.6,220819,017.7,E*68
01DE53,02268F,00C4B0,$GPRMC,140249,A,5442.9196,N,11318.4686,W,000.0,311.6,220819,017.7,E*6C
01DE50,02268A,00C4AD,$GPRMC,140250,A,5442.9196,N,11318.4688,W,000.0,311.6,220819,017.7,E*6A
01DE53,02268F,00C4AF,$GPRMC,140251,A,5442.9196,N,11318.4690,W,000.0,311.6,220819,017.7,E*62
01DE54,02268F,00C4AF,$GPRMC,140252,A,5442.9196,N,11318.4692,W,000.0,311.6,220819,017.7,E*63
01DE54,02268F,00C4B0,$GPRMC,140253,A,5442.9196,N,11318.4695,W,000.0,311.6,220819,017.7,E*65
01DE54,02268F,00C4B0,$GPRMC,140254,A,5442.9196,N,11318.4698,W,000.0,311.6,220819,017.7,E*6F
01DE55,022691,00C4B0,$GPRMC,140255,A,5442.9196,N,11318.4700,W,000.0,311.6,220819,017.7,E*6E
01DE56,022693,00C4B1,$GPRMC,140256,A,5442.9196,N,11318.4702,W,000.0,311.6,220819,017.7,E*6F
01DE55,022690,00C4B0,$GPRMC,140257,A,5442.9196,N,11318.4705,W,000.0,311.6,220819,017.7,E*69
01DE56,022693,00C4B1,$GPRMC,140258,A,5442.9196,N,11318.4707,W,000.0,311.6,220819,017.7,E*64
01DE58,022695,00C4B2,$GPRMC,140259,A,5442.9195,N,11318.4708,W,000.0,311.6,220819,017.7,E*69
01DE54,02268D,00C4AF,$GPRMC,140300,A,5442.9195,N,11318.4710,W,000.0,311.6,220819,017.7,E*6D
01DE56,022691,00C4B1,$GPRMC,140301,A,5442.9194,N,11318.4711,W,000.0,311.6,220819,017.7,E*6C
01DE55,022690,00C4B1,$GPRMC,140302,A,5442.9193,N,11318.4712,W,000.0,311.6,220819,017.7,E*6B
01DE56,022690,00C4B1,$GPRMC,140303,A,5442.9193,N,11318.4712,W,000.0,311.6,220819,017.7,E*6A
01DE53,02268D,00C4AF,$GPRMC,140304,A,5442.9192,N,11318.4712,W,000.0,311.6,220819,017.7,E*6C
01DE55,02268E,00C4B0,$GPRMC,140305,A,5442.9191,N,11318.4711,W,000.0,311.6,220819,017.7,E*6D
01DE59,022693,00C4B2,$GPRMC,140306,A,5442.9190,N,11318.4710,W,000.0,311.6,220819,017.7,E*6E
01DE57,022691,00C4B1,$GPRMC,140307,A,5442.9189,N,11318.4708,W,000.0,311.6,220819,017.7,E*6E
01DE57,022691,00C4B1,$GPRMC,140308,A,5442.9187,N,11318.4705,W,000.0,311.6,220819,017.7,E*62
01DE53,02268B,00C4AE,$GPRMC,140309,A,5442.9185,N,11318.4702,W,000.0,311.6,220819,017.7,E*66
01DE59,022694,00C4B2,$GPRMC,140310,A,5442.9193,N,11318.4705,W,000.0,311.6,220819,017.7,E*6E
01DE54,02268C,00C4AF,$GPRMC,140311,A,5442.9192,N,11318.4702,W,000.0,311.6,220819,017.7,E*69
01DE57,022691,00C4B1,$GPRMC,140312,A,5442.9199,N,11318.4704,W,000.0,311.6,220819,017.7,E*67
01DE55,02268D,00C4B0,$GPRMC,140313,A,5442.9205,N,11318.4705,W,000.0,311.6,220819,017.7,E*61
01DE55,02268C,00C4AF,$GPRMC,140314,A,5442.9212,N,11318.4707,W,000.0,311.6,220819,017.7,E*62
01DE55,02268D,00C4AF,$GPRMC,140315,A,5442.9220,N,11318.4708,W,000.0,311.6,220819,017.7,E*6D
01DE51,022685,00C4AD,$GPRMC,140316,A,5442.9227,N,11318.4708,W,000.0,311.6,220819,017.7,E*69
01DE51,022688,00C4AD,$GPRMC,140317,A,5442.9235,N,11318.4709,W,000.0,311.6,220819,017.7,E*6A
01DE4C,022680,00C4AA,$GPRMC,140318,A,5442.9240,N,11318.4704,W,000.0,311.6,220819,017.7,E*6A
01DE50,022685,00C4AD,$GPRMC,140319,A,5442.9245,N,11318.4700,W,000.0,311.6,220819,017.7,E*6A
01DE4E,022683,00C4AC,$GPRMC,140320,A,5442.9250,N,11318.4696,W,000.0,311.6,220819,017.7,E*6A
01DE4E,022683,00C4AB,$GPRMC,140321,A,5442.9253,N,11318.4693,W,000.0,311.6,220819,017.7,E*6D
01DE4E,022685,00C4AC,$GPRMC,140322,A,5442.9256,N,11318.4691,W,000.0,311.6,220819,017.7,E*69
01DE4E,022683,00C4AB,$GPRMC,140323,A,5442.9259,N,11318.4688,W,000.0,311.6,220819,017.7,E*6F
01DE4E,022686,00C4AC,$GPRMC,140324,A,5442.9261,N,11318.4686,W,000.0,311.6,220819,017.7,E*6D
01DE4D,022686,00C4AC,$GPRMC,140325,A,5442.9265,N,11318.4690,W,000.0,311.6,220819,017.7,E*6F
01DE49,02267F,00C4A9,$GPRMC,140326,A,5442.9268,N,11318.4693,W,000.0,311.6,220819,017.7,E*62
01DE4C,022686,00C4AC,$GPRMC,140327,A,5442.9269,N,11318.4696,W,000.0,311.6,220819,017.7,E*67
01DE4C,022686,00C4AC,$GPRMC,140328,A,5442.9270,N,11318.4695,W,000.0,311.6,220819,017.7,E*63
01DE4D,022686,00C4AD,$GPRMC,140329,A,5442.9271,N,11318.4694,W,000.0,311.6,220819,017.7,E*62
01DE4C,022687,00C4AD,$GPRMC,140330,A,5442.9272,N,11318.4693,W,000.0,311.6,220819,017.7,E*6E
01DE4A,022683,00C4AC,$GPRMC,140331,A,5442.9272,N,11318.4692,W,000.0,311.6,220819,017.7,E*6E
01DE4B,022683,00C4AC,$GPRMC,140332,A,5442.9273,N,11318.4691,W,000.0,311.6,220819,017.7,E*6F
01DE49,022680,00C4AC,$GPRMC,140333,A,5442.9274,N,11318.4690,W,000.0,311.6,220819,017.7,E*68
01DE4B,022683,00C4AC,$GPRMC,140334,A,5442.9274,N,11318.4689,W,000.0,311.6,220819,017.7,E*67
01DE4A,022680,00C4AA,$GPRMC,140335,A,5442.9275,N,11318.4694,W,000.0,311.6,220819,017.7,E*6B
01DE4B,022682,00C4AB,$GPRMC,140336,A,5442.9275,N,11318.4699,W,000.0,311.6,220819,017.7,E*65
01DE4C,022683,00C4AC,$GPRMC,140337,A,5442.9275,N,11318.4704,W,000.0,311.6,220819,017.7,E*61
01DE4B,022682,00C4AC,$GPRMC,140338,A,5442.9273,N,11318.4706,W,000.0,311.6,220819,017.7,E*6A
01DE4C,022682,00C4AC,$GPRMC,140339,A,5442.9272,N,11318.4707,W,000.0,311.6,220819,017.7,E*6B
01DE4D,022685,00C4AC,$GPRMC,140340,A,5442.9271,N,11318.4709,W,000.0,311.6,220819,017.7,E*68
01DE4E,022689,00C4AD,$GPRMC,140341,A,5442.9270,N,11318.4714,W,000.0,311.6,220819,017.7,E*64
01DE4D,022686,00C4AD,$GPRMC,140342,A,5442.9269,N,11318.4718,W,000.0,311.6,220819,017.7,E*63
01DE4C,022685,00C4AD,$GPRMC,140343,A,5442.9270,N,11318.4722,W,000.0,311.6,220819,017.7,E*63
01DE51,02268F,00C4B1,$GPRMC,140344,A,5442.9271,N,11318.4725,W,000.0,311.6,220819,017.7,E*62
01DE4E,022689,00C4AE,$GPRMC,140345,A,5442.9272,N,11318.4729,W,000.0,311.6,220819,017.7,E*6C
01DE50,02268E,00C4AF,$GPRMC,140346,A,5442.9272,N,11318.4732,W,000.0,311.6,220819,017.7,E*65
01DE4B,022689,00C4AE,$GPRMC,140347,A,5442.9273,N,11318.4734,W,000.0,311.6,220819,017.7,E*63
01DE4D,02268C,00C4AE,$GPRMC,140348,A,5442.9274,N,11318.4736,W,000.0,311.6,220819,017.7,E*69
01DE4D,02268C,00C4AE,$GPRMC,140349,A,5442.9275,N,11318.4738,W,000.0,311.6,220819,017.7,E*67
01DE4F,02268F,00C4B0,$GPRMC,140350,A,5442.9276,N,11318.4742,W,000.0,311.6,220819,017.7,E*61
01DE4E,02268D,00C4AF,$GPRMC,140351,A,5442.9277,N,11318.4743,W,000.0,311.6,220819,017.7,E*60
01DE4F,02268F,00C4AF,$GPRMC,140352,A,5442.9277,N,11318.4744,W,000.0,311.6,220819,017.7,E*64
01DE4F,02268E,00C4AF,$GPRMC,140353,A,5442.9278,N,11318.4744,W,000.0,311.6,220819,017.7,E*6A
01DE4F,02268E,00C4AF,$GPRMC,140354,A,5442.9278,N,11318.4745,W,000.0,311.6,220819,017.7,E*6C
01DE51,022692,00C4B0,$GPRMC,140355,A,5442.9279,N,11318.4746,W,000.0,311.6,220819,017.7,E*6F
01DE50,02268F,00C4AF,$GPRMC,140356,A,5442.9279,N,11318.4748,W,000.0,311.6,220819,017.7,E*62
01DE52,022692,00C4B0,$GPRMC,140357,A,5442.9280,N,11318.4750,W,000.0,311.6,220819,017.7,E*6C
01DE4F,02268F,00C4AE,$GPRMC,140358,A,5442.9281,N,11318.4752,W,000.0,311.6,220819,017.7,E*60
01DE52,022692,00C4B0,$GPRMC,140359,A,5442.9282,N,11318.4755,W,000.0,311.6,220819,017.7,E*65
01DE50,022690,00C4AF,$GPRMC,140400,A,5442.9283,N,11318.4757,W,000.0,311.6,220819,017.7,E*6D
01DE52,022692,00C4AF,$GPRMC,140401,A,5442.9284,N,11318.4760,W,000.0,311.6,220819,017.7,E*6F
01DE50,022690,00C4AE,$GPRMC,140402,A,5442.9285,N,11318.4762,W,000.0,311.6,220819,017.7,E*6F
01DE50,022691,00C4AF,$GPRMC,140403,A,5442.9286,N,11318.4764,W,000.0,311.6,220819,017.7,E*6B
01DE4F,02268E,00C4AE,$GPRMC,140404,A,5442.9286,N,11318.4766,W,000.0,311.6,220819,017.7,E*6E
01DE50,022690,00C4AF,$GPRMC,140405,A,5442.9287,N,11318.4766,W,000.0,311.6,220819,017.7,E*6E
01DE52,022692,00C4B0,$GPRMC,140406,A,5442.9287,N,11318.4765,W,000.0,311.6,220819,017.7,E*6E
01DE51,022692,00C4B0,$GPRMC,140407,A,5442.9287,N,11318.4763,W,000.0,311.6,220819,017.7,E*69
01DE50,022691,00C4AF,$GPRMC,140408,A,5442.9286,N,11318.4759,W,000.0,311.6,220819,017.7,E*6E
01DE50,022692,00C4B0,$GPRMC,140409,A,5442.9285,N,11318.4754,W,000.0,311.6,220819,017.7,E*61
01DE4E,02268E,00C4AF,$GPRMC,140410,A,5442.9283,N,11318.4747,W,000.0,311.6,220819,017.7,E*6D
01DE4F,022690,00C4AF,$GPRMC,140411,A,5442.9281,N,11318.4739,W,000.0,311.6,220819,017.7,E*67
01DE50,022690,00C4B0,$GPRMC,140412,A,5442.9279,N,11318.4730,W,000.0,311.6,220819,017.7,E*6A
01DE51,022692,00C4B1,$GPRMC,140413,A,5442.9277,N,11318.4722,W,000.0,311.6,220819,017.7,E*66
01DE4E,02268D,00C4B0,$GPRMC,140414,A,5442.9275,N,11318.4714,W,000.0,311.6,220819,017.7,E*66
01DE50,022692,00C4B0,$GPRMC,140415,A,5442.9273,N,11318.4706,W,000.0,311.6,220819,017.7,E*62
01DE4C,02268C,00C4AE,$GPRMC,140416,A,5442.9271,N,11318.4697,W,000.0,311.6,220819,017.7,E*6A
01DE50,022691,00C4B1,$GPRMC,140417,A,5442.9269,N,11318.4690,W,000.0,311.6,220819,017.7,E*65
01DE4E,02268F,00C4B0,$GPRMC,140418,A,5442.9268,N,11318.4684,W,000.0,311.6,220819,017.7,E*6E
01DE4D,02268D,00C4AF,$GPRMC,140419,A,5442.9273,N,11318.4684,W,000.0,311.6,220819,017.7,E*65
01DE4B,02268A,00C4AD,$GPRMC,140420,A,5442.9278,N,11318.4683,W,000.0,311.6,220819,017.7,E*63
01DE4E,02268F,00C4AF,$GPRMC,140421,A,5442.9283,N,11318.4684,W,000.0,311.6,220819,017.7,E*61
01DE51,022694,00C4B1,$GPRMC,140422,A,5442.9287,N,11318.4685,W,000.0,311.6,220819,017.7,E*67
01DE4C,02268B,00C4AE,$GPRMC,140423,A,5442.9288,N,11318.4685,W,000.0,311.6,220819,017.7,E*69
01DE4F,02268C,00C4B0,$GPRMC,140424,A,5442.9292,N,11318.4686,W,000.0,311.6,220819,017.7,E*66
01DE4F,02268F,00C4B0,$GPRMC,140425,A,5442.9296,N,11318.4687,W,000.0,311.6,220819,017.7,E*62
01DE4F,02268D,00C4B0,$GPRMC,140426,A,5442.9300,N,11318.4688,W,000.0,311.6,220819,017.7,E*60
01DE51,022690,00C4B0,$GPRMC,140427,A,5442.9303,N,11318.4690,W,000.0,311.6,220819,017.7,E*6B
01DE51,022691,00C4B0,$GPRMC,140428,A,5442.9307,N,11318.4691,W,000.0,311.6,220819,017.7,E*61
01DE54,022695,00C4B2,$GPRMC,140429,A,5442.9310,N,11318.4692,W,000.0,311.6,220819,017.7,E*65
01DE53,022695,00C4B1,$GPRMC,140430,A,5442.9313,N,11318.4694,W,000.0,311.6,220819,017.7,E*68
01DE51,022690,00C4B0,$GPRMC,140431,A,5442.9316,N,11318.4695,W,000.0,311.6,220819,017.7,E*6D
01DE50,022690,00C4B0,$GPRMC,140432,A,5442.9319,N,11318.4696,W,000.0,311.6,220819,017.7,E*62
01DE50,022690,00C4AF,$GPRMC,140433,A,5442.9322,N,11318.4696,W,000.0,311.6,220819,017.7,E*6B
01DE4E,02268D,00C4AE,$GPRMC,140434,A,5442.9325,N,11318.4697,W,000.0,311.6,220819,017.7,E*6A
01DE51,022691,00C4B0,$GPRMC,140435,A,5442.9328,N,11318.4698,W,000.0,311.6,220819,017.7,E*69
01DE4F,02268D,00C4AE,$GPRMC,140436,A,5442.9331,N,11318.4702,W,000.0,311.6,220819,017.7,E*60
01DE52,022692,00C4AF,$GPRMC,140437,A,5442.9334,N,11318.4705,W,000.0,311.6,220819,017.7,E*63
01DE52,022692,00C4AF,$GPRMC,140438,A,5442.9337,N,11318.4707,W,000.0,311.6,220819,017.7,E*6D
01DE4F,02268C,00C4AE,$GPRMC,140439,A,5442.9340,N,11318.4706,W,000.0,311.6,220819,017.7,E*6D
01DE4E,02268D,00C4AE,$GPRMC,140440,A,5442.9342,N,11318.4705,W,000.0,311.6,220819,017.7,E*62
01DE51,02268F,00C4AF,$GPRMC,140441,A,5442.9345,N,11318.4705,W,000.0,311.6,220819,017.7,E*64
01DE4F,02268C,00C4AE,$GPRMC,140442,A,5442.9348,N,11318.4705,W,000.0,311.6,220819,017.7,E*6A
01DE4F,02268D,00C4AE,$GPRMC,140443,A,5442.9350,N,11318.4705,W,000.0,311.6,220819,017.7,E*62
01DE51,02268F,00C4B0,$GPRMC,140444,A,5442.9353,N,11318.4704,W,000.0,311.6,220819,017.7,E*67
01DE51,02268F,00C4AF,$GPRMC,140445,A,5442.9355,N,11318.4703,W,000.0,311.6,220819,017.7,E*67
01DE4E,02268C,00C4AE,$GPRMC,140446,A,5442.9357,N,11318.4703,W,000.0,311.6,220819,017.7,E*66
01DE52,022692,00C4B0,$GPRMC,140447,A,5442.9359,N,11318.4702,W,000.0,311.6,220819,017.7,E*68
01DE50,02268F,00C4AF,$GPRMC,140448,A,5442.9361,N,11318.4700,W,000.0,311.6,220819,017.7,E*6E
01DE4D,02268B,00C4AD,$GPRMC,140449,A,5442.9363,N,11318.4696,W,000.0,311.6,220819,017.7,E*63
01DE4F,02268C,00C4AF,$GPRMC,140450,A,5442.9364,N,11318.4694,W,000.0,311.6,220819,017.7,E*6E
01DE51,022690,00C4AF,$GPRMC,140451,A,5442.9365,N,11318.4691,W,000.0,311.6,220819,017.7,E*6B
01DE4F,02268E,00C4AF,$GPRMC,140452,A,5442.9367,N,11318.4689,W,000.0,311.6,220819,017.7,E*63
01DE50,022690,00C4AF,$GPRMC,140453,A,5442.9368,N,11318.4687,W,000.0,311.6,220819,017.7,E*63
01DE51,022692,00C4B0,$GPRMC,140454,A,5442.9369,N,11318.4684,W,000.0,311.6,220819,017.7,E*66
01DE50,022690,00C4AF,$GPRMC,140455,A,5442.9370,N,11318.4681,W,000.0,311.6,220819,017.7,E*6A
01DE4E,02268C,00C4AF,$GPRMC,140456,A,5442.9370,N,11318.4679,W,000.0,311.6,220819,017.7,E*6E
01DE4F,02268E,00C4B0,$GPRMC,140457,A,5442.9371,N,11318.4677,W,000.0,311.6,220819,017.7,E*60
01DE4E,02268D,00C4B0,$GPRMC,140458,A,5442.9372,N,11318.4674,W,000.0,311.6,220819,017.7,E*6F
01DE4E,02268A,00C4AF,$GPRMC,140459,A,5442.9373,N,11318.4673,W,000.0,311.6,220819,017.7,E*68
01DE51,02268F,00C4B1,$GPRMC,140500,A,5442.9375,N,11318.4673,W,000.0,311.6,220819,017.7,E*63
01DE50,02268F,00C4B0,$GPRMC,140501,A,5442.9376,N,11318.4672,W,000.0,311.6,220819,017.7,E*60
01DE4F,02268C,00C4B0,$GPRMC,140502,A,5442.9377,N,11318.4670,W,000.0,311.6,220819,017.7,E*60
01DE51,02268F,00C4B1,$GPRMC,140503,A,5442.9378,N,11318.4668,W,000.0,311.6,220819,017.7,E*67
01DE50,02268D,00C4B1,$GPRMC,140504,A,5442.9379,N,11318.4666,W,000.0,311.6,220819,017.7,E*6F
01DE4D,022689,00C4AF,$GPRMC,140505,A,5442.9380,N,11318.4665,W,000.0,311.6,220819,017.7,E*6B
01DE4C,022689,00C4AE,$GPRMC,140506,A,5442.9381,N,11318.4663,W,000.0,311.6,220819,017.7,E*6F
01DE4E,02268C,00C4B0,$GPRMC,140507,A,5442.9382,N,11318.4662,W,000.0,311.6,220819,017.7,E*6C
01DE4E,02268C,00C4B0,$GPRMC,140508,A,5442.9383,N,11318.4661,W,000.0,311.6,220819,017.7,E*61
01DE4F,02268D,00C4B0,$GPRMC,140509,A,5442.9384,N,11318.4662,W,000.0,311.6,220819,017.7,E*64
01DE51,022691,00C4B2,$GPRMC,140510,A,5442.9386,N,11318.4662,W,000.0,311.6,220819,017.7,E*6E
01DE50,02268E,00C4B1,$GPRMC,140511,A,5442.9387,N,11318.4663,W,000.0,311.6,220819,017.7,E*6F
01DE4F,02268E,00C4B0,$GPRMC,140512,A,5442.9388,N,11318.4663,W,000.0,311.6,220819,017.7,E*63
01DE4E,02268E,00C4B1,$GPRMC,140513,A,5442.9389,N,11318.4663,W,000.0,311.6,220819,017.7,E*63
01DE50,022690,00C4B1,$GPRMC,140514,A,5442.9390,N,11318.4663,W,000.0,311.6,220819,017.7,E*6C
01DE4F,02268E,00C4B0,$GPRMC,140515,A,5442.9391,N,11318.4663,W,000.0,311.6,220819,017.7,E*6C
01DE50,022692,00C4B1,$GPRMC,140516,A,5442.9392,N,11318.4663,W,000.0,311.6,220819,017.7,E*6C
01DE4B,022689,00C4AE,$GPRMC,140517,A,5442.9393,N,11318.4662,W,000.0,311.6,220819,017.7,E*6D
01DE51,022693,00C4B1,$GPRMC,140518,A,5442.9394,N,11318.4661,W,000.0,311.6,220819,017.7,E*66
01DE4C,02268C,00C4AF,$GPRMC,140519,A,5442.9395,N,11318.4659,W,000.0,311.6,220819,017.7,E*6D
01DE4E,022694,00C4B2,$GPRMC,140520,A,5442.9395,N,11318.4658,W,000.0,311.6,220819,017.7,E*66
01DE4B,022690,00C4B0,$GPRMC,140521,A,5442.9396,N,11318.4656,W,000.0,311.6,220819,017.7,E*6A
01DE49,02268F,00C4AF,$GPRMC,140522,A,5442.9396,N,11318.4655,W,000.0,311.6,220819,017.7,E*6A
01DE49,022692,00C4B0,$GPRMC,140523,A,5442.9397,N,11318.4654,W,000.0,311.6,220819,017.7,E*6B
01DE49,022691,00C4AF,$GPRMC,140524,A,5442.9397,N,11318.4653,W,000.0,311.6,220819,017.7,E*6B
01DE4C,022696,00C4B1,$GPRMC,140525,A,5442.9398,N,11318.4652,W,000.0,311.6,220819,017.7,E*64
01DE4A,022693,00C4B0,$GPRMC,140526,A,5442.9398,N,11318.4651,W,000.0,311.6,220819,017.7,E*64
01DE4C,022698,00C4B1,$GPRMC,140527,A,5442.9399,N,11318.4650,W,000.0,311.6,220819,017.7,E*65
01DE4A,022696,00C4B0,$GPRMC,140528,A,5442.9399,N,11318.4648,W,000.0,311.6,220819,017.7,E*63
01DE49,022695,00C4B0,$GPRMC,140529,A,5442.9400,N,11318.4647,W,000.0,311.6,220819,017.7,E*6A
01DE47,022696,00C4B0,$GPRMC,140530,A,5442.9400,N,11318.4645,W,000.0,311.6,220819,017.7,E*60
01DE45,022696,00C4AF,$GPRMC,140531,A,5442.9400,N,11318.4644,W,000.0,311.6,220819,017.7,E*60
01DE42,022694,00C4AE,$GPRMC,140532,A,5442.9400,N,11318.4642,W,000.0,311.6,220819,017.7,E*65
01DE42,022695,00C4AE,$GPRMC,140533,A,5442.9400,N,11318.4640,W,000.0,311.6,220819,017.7,E*66
01DE44,022699,00C4AF,$GPRMC,140534,A,5442.9399,N,11318.4640,W,000.0,311.6,220819,017.7,E*66
01DE41,022694,00C4AE,$GPRMC,140535,A,5442.9399,N,11318.4639,W,000.0,311.6,220819,017.7,E*69
01DE3F,022694,00C4AE,$GPRMC,140536,A,5442.9398,N,11318.4638,W,000.0,311.6,220819,017.7,E*6A
01DE42,022699,00C4B0,$GPRMC,140537,A,5442.9398,N,11318.4637,W,000.0,311.6,220819,017.7,E*64
01DE41,02269A,00C4B0,$GPRMC,140538,A,5442.9398,N,11318.4636,W,000.0,311.6,220819,017.7,E*6A
01DE41,02269A,00C4B0,$GPRMC,140539,A,5442.9397,N,11318.4635,W,000.0,311.6,220819,017.7,E*67
01DE40,022697,00C4AF,$GPRMC,140540,A,5442.9398,N,11318.4635,W,000.0,311.6,220819,017.7,E*66
01DE3F,022697,00C4AF,$GPRMC,140541,A,5442.9398,N,11318.4634,W,000.0,311.6,220819,017.7,E*66
01DE41,02269A,00C4B0,$GPRMC,140542,A,5442.9397,N,11318.4633,W,000.0,311.6,220819,017.7,E*6D
01DE40,022699,00C4AF,$GPRMC,140543,A,5442.9397,N,11318.4632,W,000.0,311.6,220819,017.7,E*6D
01DE44,02269E,00C4B0,$GPRMC,140544,A,5442.9397,N,11318.4631,W,000.0,311.6,220819,017.7,E*69
01DE46,02269E,00C4B1,$GPRMC,140545,A,5442.9396,N,11318.4630,W,000.0,311.6,220819,017.7,E*68
01DE44,02269C,00C4B0,$GPRMC,140546,A,5442.9396,N,11318.4630,W,000.0,311.6,220819,017.7,E*6B
01DE46,02269C,00C4B0,$GPRMC,140547,A,5442.9396,N,11318.4629,W,000.0,311.6,220819,017.7,E*62
01DE4A,02269F,00C4B2,$GPRMC,140548,A,5442.9396,N,11318.4629,W,000.0,311.6,220819,017.7,E*6D
01DE47,02269B,00C4B0,$GPRMC,140549,A,5442.9395,N,11318.4628,W,000.0,311.6,220819,017.7,E*6E
01DE4A,0226A1,00C4B1,$GPRMC,140550,A,5442.9395,N,11318.4627,W,000.0,311.6,220819,017.7,E*69
01DE47,02269D,00C4B0,$GPRMC,140551,A,5442.9394,N,11318.4626,W,000.0,311.6,220819,017.7,E*68
01DE49,0226A0,00C4B2,$GPRMC,140552,A,5442.9394,N,11318.4625,W,000.0,311.6,220819,017.7,E*68
01DE45,02269B,00C4B0,$GPRMC,140553,A,5442.9393,N,11318.4624,W,000.0,311.6,220819,017.7,E*6F
01DE46,02269E,00C4B0,$GPRMC,140554,A,5442.9393,N,11318.4622,W,000.0,311.6,220819,017.7,E*6E
01DE47,02269E,00C4B0,$GPRMC,140555,A,5442.9393,N,11318.4621,W,000.0,311.6,220819,017.7,E*6C
01DE48,02269F,00C4B1,$GPRMC,140556,A,5442.9392,N,11318.4620,W,000.0,311.6,220819,017.7,E*6F
01DE47,02269F,00C4B1,$GPRMC,140557,A,5442.9392,N,11318.4618,W,000.0,311.6,220819,017.7,E*65
01DE47,02269F,00C4B1,$GPRMC,140558,A,5442.9392,N,11318.4617,W,000.0,311.6,220819,017.7,E*65
01DE47,02269F,00C4B1,$GPRMC,140559,A,5442.9391,N,11318.4615,W,000.0,311.6,220819,017.7,E*65
01DE4A,0226A4,00C4B3,$GPRMC,140600,A,5442.9391,N,11318.4614,W,000.0,311.6,220819,017.7,E*6B
01DE45,02269C,00C4B0,$GPRMC,140601,A,5442.9391,N,11318.4612,W,000.0,311.6,220819,017.7,E*6C
01DE48,02269E,00C4B1,$GPRMC,140602,A,5442.9390,N,11318.4611,W,000.0,311.6,220819,017.7,E*6D
01DE47,0226A0,00C4B2,$GPRMC,140603,A,5442.9390,N,11318.4610,W,000.0,311.6,220819,017.7,E*6D
01DE48,02269F,00C4B1,$GPRMC,140604,A,5442.9390,N,11318.4608,W,000.0,311.6,220819,017.7,E*63
01DE47,02269E,00C4B0,$GPRMC,140605,A,5442.9390,N,11318.4607,W,000.0,311.6,220819,017.7,E*6D
01DE49,0226A0,00C4B1,$GPRMC,140606,A,5442.9390,N,11318.4605,W,000.0,311.6,220819,017.7,E*6C
01DE4B,0226A2,00C4B3,$GPRMC,140607,A,5442.9389,N,11318.4604,W,000.0,311.6,220819,017.7,E*64
01DE4B,0226A0,00C4B2,$GPRMC,140608,A,5442.9389,N,11318.4603,W,000.0,311.6,220819,017.7,E*6C
01DE4A,0226A0,00C4B1,$GPRMC,140609,A,5442.9389,N,11318.4602,W,000.0,311.6,220819,017.7,E*6C
01DE4D,0226A3,00C4B3,$GPRMC,140610,A,5442.9390,N,11318.4601,W,000.0,311.6,220819,017.7,E*6F
01DE4E,0226A3,00C4B3,$GPRMC,140611,A,5442.9389,N,11318.4600,W,000.0,311.6,220819,017.7,E*67
01DE4C,0226A0,00C4B1,$GPRMC,140612,A,5442.9389,N,11318.4600,W,000.0,311.6,220819,017.7,E*64
01DE4D,0226A1,00C4B1,$GPRMC,140613,A,5442.9389,N,11318.4599,W,000.0,311.6,220819,017.7,E*66
01DE4B,02269D,00C4AF,$GPRMC,140614,A,5442.9390,N,11318.4598,W,000.0,311.6,220819,017.7,E*68
01DE4F,0226A2,00C4B1,$GPRMC,140615,A,5442.9390,N,11318.4598,W,000.0,311.6,220819,017.7,E*69
01DE4C,02269F,00C4AF,$GPRMC,140616,A,5442.9390,N,11318.4597,W,000.0,311.6,220819,017.7,E*65
01DE4F,0226A3,00C4B1,$GPRMC,140617,A,5442.9390,N,11318.4597,W,000.0,311.6,220819,017.7,E*64
01DE4F,0226A2,00C4B1,$GPRMC,140618,A,5442.9390,N,11318.4597,W,000.0,311.6,220819,017.7,E*6B
01DE4D,0226A0,00C4B0,$GPRMC,140619,A,5442.9390,N,11318.4597,W,000.0,311.6,220819,017.7,E*6A
01DE50,0226A3,00C4B1,$GPRMC,140620,A,5442.9390,N,11318.4598,W,000.0,311.6,220819,017.7,E*6F
01DE51,0226A6,00C4B3,$GPRMC,140621,A,5442.9389,N,11318.4597,W,000.0,311.6,220819,017.7,E*69
01DE51,0226A4,00C4B1,$GPRMC,140622,A,5442.9389,N,11318.4597,W,000.0,311.6,220819,017.7,E*6A
01DE52,0226A5,00C4B2,$GPRMC,140623,A,5442.9389,N,11318.4597,W,000.0,311.6,220819,017.7,E*6B
01DE4F,0226A0,00C4B0,$GPRMC,140624,A,5442.9389,N,11318.4596,W,000.0,311.6,220819,017.7,E*6D
01DE52,0226A4,00C4B1,$GPRMC,140625,A,5442.9389,N,11318.4596,W,000.0,311.6,220819,017.7,E*6C
01DE51,0226A2,00C4B0,$GPRMC,140626,A,5442.9389,N,11318.4595,W,000.0,311.6,220819,017.7,E*6C
01DE52,0226A4,00C4B1,$GPRMC,140627,A,5442.9389,N,11318.4595,W,000.0,311.6,220819,017.7,E*6D
01DE52,0226A4,00C4B1,$GPRMC,140628,A,5442.9389,N,11318.4594,W,000.0,311.6,220819,017.7,E*63
01DE51,0226A1,00C4B0,$GPRMC,140629,A,5442.9389,N,11318.4594,W,000.0,311.6,220819,017.7,E*62
01DE51,0226A2,00C4B0,$GPRMC,140630,A,5442.9389,N,11318.4594,W,000.0,311.6,220819,017.7,E*6A
01DE55,0226A7,00C4B3,$GPRMC,140631,A,5442.9389,N,11318.4593,W,000.0,311.6,220819,017.7,E*6C
01DE51,0226A2,00C4B0,$GPRMC,140632,A,5442.9389,N,11318.4593,W,000.0,311.6,220819,017.7,E*6F
01DE53,0226A4,00C4B1,$GPRMC,140633,A,5442.9389,N,11318.4592,W,000.0,311.6,220819,017.7,E*6F
01DE53,0226A4,00C4B0,$GPRMC,140634,A,5442.9390,N,11318.4592,W,000.0,311.6,220819,017.7,E*60
01DE53,0226A3,00C4B1,$GPRMC,140635,A,5442.9390,N,11318.4592,W,000.0,311.6,220819,017.7,E*61
01DE55,0226A6,00C4B1,$GPRMC,140636,A,5442.9390,N,11318.4592,W,000.0,311.6,220819,017.7,E*62
01DE52,0226A3,00C4AF,$GPRMC,140637,A,5442.9390,N,11318.4592,W,000.0,311.6,220819,017.7,E*63
01DE54,0226A4,00C4B0,$GPRMC,140638,A,5442.9391,N,11318.4594,W,000.0,311.6,220819,017.7,E*6B
01DE51,02269F,00C4AD,$GPRMC,140639,A,5442.9391,N,11318.4595,W,000.0,311.6,220819,017.7,E*6B
01DE56,0226A7,00C4B1,$GPRMC,140640,A,5442.9392,N,11318.4596,W,000.0,311.6,220819,017.7,E*65
01DE52,0226A2,00C4AF,$GPRMC,140641,A,5442.9393,N,11318.4597,W,000.0,311.6,220819,017.7,E*64
01DE55,0226A8,00C4B1,$GPRMC,140642,A,5442.9393,N,11318.4597,W,000.0,311.6,220819,017.7,E*67
01DE52,0226A4,00C4AF,$GPRMC,140643,A,5442.9393,N,11318.4598,W,000.0,311.6,220819,017.7,E*69
01DE53,0226A8,00C4B0,$GPRMC,140644,A,5442.9394,N,11318.4598,W,000.0,311.6,220819,017.7,E*69
01DE52,0226A7,00C4AF,$GPRMC,140645,A,5442.9395,N,11318.4597,W,000.0,311.6,220819,017.7,E*66
01DE4F,0226A6,00C4AF,$GPRMC,140646,A,5442.9395,N,11318.4597,W,000.0,311.6,220819,017.7,E*65
01DE4E,0226A6,00C4B0,$GPRMC,140647,A,5442.9396,N,11318.4596,W,000.0,311.6,220819,017.7,E*66
01DE4C,0226A5,00C4AF,$GPRMC,140648,A,5442.9396,N,11318.4595,W,000.0,311.6,220819,017.7,E*6A
01DE4C,0226A6,00C4AF,$GPRMC,140649,A,5442.9397,N,11318.4594,W,000.0,311.6,220819,017.7,E*6B
01DE4D,0226A9,00C4B0,$GPRMC,140650,A,5442.9397,N,11318.4592,W,000.0,311.6,220819,017.7,E*65
01DE4C,0226A9,00C4B1,$GPRMC,140651,A,5442.9398,N,11318.4591,W,000.0,311.6,220819,017.7,E*68
01DE4B,0226A7,00C4B0,$GPRMC,140652,A,5442.9399,N,11318.4590,W,000.0,311.6,220819,017.7,E*6B
01DE4B,0226A7,00C4B0,$GPRMC,140653,A,5442.9399,N,11318.4589,W,000.0,311.6,220819,017.7,E*62
01DE4D,0226A9,00C4B1,$GPRMC,140654,A,5442.9400,N,11318.4588,W,000.0,311.6,220819,017.7,E*63
01DE4B,0226A7,00C4B0,$GPRMC,140655,A,5442.9401,N,11318.4586,W,000.0,311.6,220819,017.7,E*6D
01DE4A,0226A6,00C4AF,$GPRMC,140656,A,5442.9401,N,11318.4585,W,000.0,311.6,220819,017.7,E*6D
01DE4C,0226A8,00C4B0,$GPRMC,140657,A,5442.9402,N,11318.4584,W,000.0,311.6,220819,017.7,E*6E
01DE4D,0226A9,00C4B1,$GPRMC,140658,A,5442.9403,N,11318.4583,W,000.0,311.6,220819,017.7,E*67
01DE4F,0226AB,00C4B1,$GPRMC,140659,A,5442.9403,N,11318.4582,W,000.0,311.6,220819,017.7,E*67
01DE4F,0226AA,00C4B1,$GPRMC,140700,A,5442.9404,N,11318.4580,W,000.0,311.6,220819,017.7,E*6F
01DE4E,0226A7,00C4AF,$GPRMC,140701,A,5442.9405,N,11318.4579,W,000.0,311.6,220819,017.7,E*69
01DE51,0226AA,00C4B1,$GPRMC,140702,A,5442.9405,N,11318.4578,W,000.0,311.6,220819,017.7,E*6B
01DE4F,0226A8,00C4B0,$GPRMC,140703,A,5442.9406,N,11318.4577,W,000.0,311.6,220819,017.7,E*66
01DE51,0226AA,00C4B1,$GPRMC,140704,A,5442.9407,N,11318.4576,W,000.0,311.6,220819,017.7,E*61
01DE51,0226AA,00C4B1,$GPRMC,140705,A,5442.9408,N,11318.4576,W,000.0,311.6,220819,017.7,E*6F
01DE52,0226AB,00C4B1,$GPRMC,140706,A,5442.9409,N,11318.4575,W,000.0,311.6,220819,017.7,E*6E
01DE55,0226AD,00C4B2,$GPRMC,140707,A,5442.9410,N,11318.4575,W,000.0,311.6,220819,017.7,E*67
01DE52,0226A9,00C4B0,$GPRMC,140708,A,5442.9411,N,11318.4575,W,000.0,311.6,220819,017.7,E*69
01DE57,0226AF,00C4B3,$GPRMC,140709,A,5442.9412,N,11318.4574,W,000.0,311.6,220819,017.7,E*6A
01DE53,0226A9,00C4B0,$GPRMC,140710,A,5442.9412,N,11318.4573,W,000.0,311.6,220819,017.7,E*65
01DE55,0226AB,00C4B1,$GPRMC,140711,A,5442.9413,N,11318.4573,W,000.0,311.6,220819,017.7,E*65
01DE54,0226AA,00C4B1,$GPRMC,140712,A,5442.9413,N,11318.4572,W,000.0,311.6,220819,017.7,E*67
01DE54,0226AB,00C4B0,$GPRMC,140713,A,5442.9414,N,11318.4572,W,000.0,311.6,220819,017.7,E*61
01DE52,0226A8,00C4AF,$GPRMC,140714,A,5442.9414,N,11318.4572,W,000.0,311.6,220819,017.7,E*66
01DE52,0226A7,00C4AF,$GPRMC,140715,A,5442.9414,N,11318.4573,W,000.0,311.6,220819,017.7,E*66
01DE54,0226AD,00C4B1,$GPRMC,140716,A,5442.9414,N,11318.4573,W,000.0,311.6,220819,017.7,E*65
01DE54,0226AC,00C4B1,$GPRMC,140717,A,5442.9414,N,11318.4574,W,000.0,311.6,220819,017.7,E*63
01DE54,0226AC,00C4B1,$GPRMC,140718,A,5442.9414,N,11318.4574,W,000.0,311.6,220819,017.7,E*6C
01DE56,0226B1,00C4B2,$GPRMC,140719,A,5442.9414,N,11318.4575,W,000.0,311.6,220819,017.7,E*6C
01DE53,0226AE,00C4B1,$GPRMC,140720,A,5442.9413,N,11318.4575,W,000.0,311.6,220819,017.7,E*61
01DE53,0226B0,00C4B2,$GPRMC,140721,A,5442.9413,N,11318.4575,W,000.0,311.6,220819,017.7,E*60
01DE50,0226AE,00C4B0,$GPRMC,140722,A,5442.9412,N,11318.4575,W,000.0,311.6,220819,017.7,E*62
01DE4F,0226AD,00C4AF,$GPRMC,140723,A,5442.9412,N,11318.4574,W,000.0,311.6,220819,017.7,E*62
01DE4E,0226AC,00C4AF,$GPRMC,140724,A,5442.9411,N,11318.4574,W,000.0,311.6,220819,017.7,E*66
01DE4F,0226B1,00C4B0,$GPRMC,140725,A,5442.9411,N,11318.4574,W,000.0,311.6,220819,017.7,E*67
01DE4C,0226AC,00C4AE,$GPRMC,140726,A,5442.9410,N,11318.4573,W,000.0,311.6,220819,017.7,E*62
01DE4A,0226AB,00C4AE,$GPRMC,140727,A,5442.9410,N,11318.4573,W,000.0,311.6,220819,017.7,E*63
01DE50,0226B3,00C4B1,$GPRMC,140728,A,5442.9409,N,11318.4572,W,000.0,311.6,220819,017.7,E*65
01DE4D,0226AE,00C4AF,$GPRMC,140729,A,5442.9409,N,11318.4572,W,000.0,311.6,220819,017.7,E*64
01DE50,0226B0,00C4B0,$GPRMC,140730,A,5442.9408,N,11318.4572,W,000.0,311.6,220819,017.7,E*6D
01DE50,0226AF,00C4AF,$GPRMC,140731,A,5442.9408,N,11318.4572,W,000.0,311.6,220819,017.7,E*6C
01DE52,0226B1,00C4B0,$GPRMC,140732,A,5442.9407,N,11318.4572,W,000.0,311.6,220819,017.7,E*60
01DE51,0226AE,00C4B0,$GPRMC,140733,A,5442.9406,N,11318.4571,W,000.0,311.6,220819,017.7,E*63
01DE53,0226B2,00C4B0,$GPRMC,140734,A,5442.9405,N,11318.4570,W,000.0,311.6,220819,017.7,E*66
01DE53,0226B1,00C4AF,$GPRMC,140735,A,5442.9404,N,11318.4570,W,000.0,311.6,220819,017.7,E*66
01DE54,0226B4,00C4B0,$GPRMC,140736,A,5442.9404,N,11318.4569,W,000.0,311.6,220819,017.7,E*6D
01DE53,0226B0,00C4AF,$GPRMC,140737,A,5442.9403,N,11318.4569,W,000.0,311.6,220819,017.7,E*6B
01DE53,0226AF,00C4AF,$GPRMC,140738,A,5442.9402,N,11318.4568,W,000.0,311.6,220819,017.7,E*64
01DE55,0226B2,00C4B0,$GPRMC,140739,A,5442.9402,N,11318.4568,W,000.0,311.6,220819,017.7,E*65
01DE52,0226AD,00C4AE,$GPRMC,140740,A,5442.9401,N,11318.4566,W,000.0,311.6,220819,017.7,E*66
01DE55,0226B1,00C4B0,$GPRMC,140741,A,5442.9400,N,11318.4566,W,000.0,311.6,220819,017.7,E*66
01DE54,0226B0,00C4B0,$GPRMC,140742,A,5442.9399,N,11318.4566,W,000.0,311.6,220819,017.7,E*62
01DE54,0226AD,00C4AE,$GPRMC,140743,A,5442.9399,N,11318.4566,W,000.0,311.6,220819,017.7,E*63
01DE52,0226AD,00C4AE,$GPRMC,140744,A,5442.9392,N,11318.4566,W,000.0,311.6,220819,017.7,E*6F
01DE56,0226B0,00C4B0,$GPRMC,140745,A,5442.9386,N,11318.4566,W,000.0,311.6,220819,017.7,E*6B
01DE54,0226AE,00C4AE,$GPRMC,140746,A,5442.9385,N,11318.4567,W,000.0,311.6,220819,017.7,E*6A
01DE53,0226AC,00C4AD,$GPRMC,140747,A,5442.9385,N,11318.4567,W,000.0,311.6,220819,017.7,E*6B
01DE54,0226AD,00C4AE,$GPRMC,140748,A,5442.9379,N,11318.4568,W,000.0,311.6,220819,017.7,E*68
01DE55,0226AC,00C4AE,$GPRMC,140749,A,5442.9380,N,11318.4567,W,000.0,311.6,220819,017.7,E*60
01DE54,0226AD,00C4AE,$GPRMC,140750,A,5442.9375,N,11318.4569,W,000.0,311.6,220819,017.7,E*6C
01DE55,0226AD,00C4AE,$GPRMC,140751,A,5442.9376,N,11318.4572,W,000.0,311.6,220819,017.7,E*64
01DE53,0226AC,00C4AD,$GPRMC,140752,A,5442.9377,N,11318.4575,W,000.0,311.6,220819,017.7,E*61
01DE55,0226B0,00C4AF,$GPRMC,140753,A,5442.9372,N,11318.4577,W,000.0,311.6,220819,017.7,E*67
01DE53,0226AD,00C4AF,$GPRMC,140754,A,5442.9368,N,11318.4580,W,000.0,311.6,220819,017.7,E*63
01DE54,0226AB,00C4AE,$GPRMC,140755,A,5442.9369,N,11318.4582,W,000.0,311.6,220819,017.7,E*61
01DE56,0226AF,00C4AF,$GPRMC,140756,A,5442.9365,N,11318.4584,W,000.0,311.6,220819,017.7,E*68
01DE51,0226A8,00C4AC,$GPRMC,140757,A,5442.9362,N,11318.4586,W,000.0,311.6,220819,017.7,E*6C
01DE52,0226AB,00C4AD,$GPRMC,140758,A,5442.9365,N,11318.4588,W,000.0,311.6,220819,017.7,E*6A
01DE51,0226A9,00C4AC,$GPRMC,140759,A,5442.9368,N,11318.4590,W,000.0,311.6,220819,017.7,E*6F
01DE57,0226B1,00C4B0,$GPRMC,140800,A,5442.9370,N,11318.4591,W,000.0,311.6,220819,017.7,E*64
01DE55,0226AD,00C4AF,$GPRMC,140801,A,5442.9371,N,11318.4591,W,000.0,311.6,220819,017.7,E*64
01DE57,0226AE,00C4B0,$GPRMC,140802,A,5442.9373,N,11318.4592,W,000.0,311.6,220819,017.7,E*66
01DE58,0226AF,00C4B0,$GPRMC,140803,A,5442.9375,N,11318.4593,W,000.0,311.6,220819,017.7,E*60
01DE56,0226AB,00C4AE,$GPRMC,140804,A,5442.9376,N,11318.4594,W,000.0,311.6,220819,017.7,E*63
01DE54,0226A8,00C4AD,$GPRMC,140805,A,5442.9378,N,11318.4595,W,000.0,311.6,220819,017.7,E*6D
01DE58,0226AE,00C4AF,$GPRMC,140806,A,5442.9380,N,11318.4597,W,000.0,311.6,220819,017.7,E*6B
01DE5A,0226B1,00C4B1,$GPRMC,140807,A,5442.9382,N,11318.4598,W,000.0,311.6,220819,017.7,E*67
01DE55,0226A9,00C4AD,$GPRMC,140808,A,5442.9383,N,11318.4600,W,000.0,311.6,220819,017.7,E*6B
01DE56,0226AA,00C4AE,$GPRMC,140809,A,5442.9385,N,11318.4601,W,000.0,311.6,220819,017.7,E*6D
01DE59,0226AD,00C4AF,$GPRMC,140810,A,5442.9384,N,11318.4602,W,000.0,311.6,220819,017.7,E*67
01DE56,0226A9,00C4AE,$GPRMC,140811,A,5442.9377,N,11318.4602,W,000.0,311.6,220819,017.7,E*6A
01DE55,0226A8,00C4AE,$GPRMC,140812,A,5442.9370,N,11318.4601,W,000.0,311.6,220819,017.7,E*6D
01DE56,0226AA,00C4B0,$GPRMC,140813,A,5442.9372,N,11318.4601,W,000.0,311.6,220819,017.7,E*6E
01DE57,0226AB,00C4B0,$GPRMC,140814,A,5442.9373,N,11318.4601,W,000.0,311.6,220819,017.7,E*68
01DE58,0226AD,00C4B1,$GPRMC,140815,A,5442.9375,N,11318.4601,W,000.0,311.6,220819,017.7,E*6F
01DE57,0226AB,00C4B0,$GPRMC,140816,A,5442.9377,N,11318.4601,W,000.0,311.6,220819,017.7,E*6E
01DE57,0226AA,00C4AF,$GPRMC,140817,A,5442.9378,N,11318.4601,W,000.0,311.6,220819,017.7,E*60
01DE57,0226AB,00C4AF,$GPRMC,140818,A,5442.9380,N,11318.4600,W,000.0,311.6,220819,017.7,E*69
01DE59,0226AC,00C4B0,$GPRMC,140819,A,5442.9381,N,11318.4600,W,000.0,311.6,220819,017.7,E*69
01DE59,0226AC,00C4B1,$GPRMC,140820,A,5442.9383,N,11318.4599,W,000.0,311.6,220819,017.7,E*62
01DE57,0226A9,00C4AF,$GPRMC,140821,A,5442.9380,N,11318.4599,W,000.0,311.6,220819,017.7,E*60
01DE5A,0226AD,00C4B0,$GPRMC,140822,A,5442.9381,N,11318.4599,W,000.0,311.6,220819,017.7,E*62
01DE59,0226AD,00C4B0,$GPRMC,140823,A,5442.9379,N,11318.4599,W,000.0,311.6,220819,017.7,E*64
01DE5B,0226AF,00C4B0,$GPRMC,140824,A,5442.9379,N,11318.4598,W,000.0,311.6,220819,017.7,E*62
01DE58,0226AA,00C4AE,$GPRMC,140825,A,5442.9378,N,11318.4598,W,000.0,311.6,220819,017.7,E*62
01DE5B,0226B0,00C4B0,$GPRMC,140826,A,5442.9378,N,11318.4599,W,000.0,311.6,220819,017.7,E*60
01DE5A,0226AD,00C4B0,$GPRMC,140827,A,5442.9380,N,11318.4603,W,000.0,311.6,220819,017.7,E*66
01DE58,0226AB,00C4AF,$GPRMC,140828,A,5442.9382,N,11318.4608,W,000.0,311.6,220819,017.7,E*60
01DE58,0226AC,00C4AE,$GPRMC,140829,A,5442.9380,N,11318.4608,W,000.0,311.6,220819,017.7,E*63
01DE5B,0226AF,00C4AF,$GPRMC,140830,A,5442.9380,N,11318.4608,W,000.0,311.6,220819,017.7,E*6B
01DE5A,0226AE,00C4B0,$GPRMC,140831,A,5442.9377,N,11318.4608,W,000.0,311.6,220819,017.7,E*62
01DE57,0226AA,00C4AD,$GPRMC,140832,A,5442.9377,N,11318.4608,W,000.0,311.6,220819,017.7,E*61
01DE5B,0226B1,00C4B0,$GPRMC,140833,A,5442.9382,N,11318.4619,W,000.0,311.6,220819,017.7,E*6A
01DE5B,0226B0,00C4B0,$GPRMC,140834,A,5442.9381,N,11318.4619,W,000.0,311.6,220819,017.7,E*6E
01DE57,0226AE,00C4AF,$GPRMC,140835,A,5442.9380,N,11318.4618,W,000.0,311.6,220819,017.7,E*6F
01DE55,0226AF,00C4AF,$GPRMC,140836,A,5442.9380,N,11318.4618,W,000.0,311.6,220819,017.7,E*6C
01DE55,0226B0,00C4AE,$GPRMC,140837,A,5442.9379,N,11318.4618,W,000.0,311.6,220819,017.7,E*6B
01DE53,0226AF,00C4AD,$GPRMC,140838,A,5442.9379,N,11318.4618,W,000.0,311.6,220819,017.7,E*64
01DE53,0226B2,00C4AE,$GPRMC,140839,A,5442.9378,N,11318.4618,W,000.0,311.6,220819,017.7,E*64
01DE55,0226B4,00C4AF,$GPRMC,140840,A,5442.9378,N,11318.4617,W,000.0,311.6,220819,017.7,E*65
01DE55,0226B3,00C4AE,$GPRMC,140841,A,5442.9377,N,11318.4617,W,000.0,311.6,220819,017.7,E*6B
01DE54,0226B6,00C4AE,$GPRMC,140842,A,5442.9376,N,11318.4617,W,000.0,311.6,220819,017.7,E*69
01DE53,0226B5,00C4AE,$GPRMC,140843,A,5442.9376,N,11318.4617,W,000.0,311.6,220819,017.7,E*68
01DE54,0226B7,00C4AF,$GPRMC,140844,A,5442.9375,N,11318.4617,W,000.0,311.6,220819,017.7,E*6C
01DE54,0226B8,00C4AE,$GPRMC,140845,A,5442.9375,N,11318.4616,W,000.0,311.6,220819,017.7,E*6C
01DE53,0226B6,00C4AD,$GPRMC,140846,A,5442.9374,N,11318.4616,W,000.0,311.6,220819,017.7,E*6E
01DE55,0226B8,00C4AE,$GPRMC,140847,A,5442.9374,N,11318.4616,W,000.0,311.6,220819,017.7,E*6F
01DE56,0226B8,00C4AD,$GPRMC,140848,A,5442.9373,N,11318.4616,W,000.0,311.6,220819,017.7,E*67
01DE57,0226B8,00C4AD,$GPRMC,140849,A,5442.9372,N,11318.4616,W,000.0,311.6,220819,017.7,E*67
01DE5B,0226BC,00C4AE,$GPRMC,140850,A,5442.9372,N,11318.4615,W,000.0,311.6,220819,017.7,E*6C
01DE59,0226B9,00C4AC,$GPRMC,140851,A,5442.9371,N,11318.4615,W,000.0,311.6,220819,017.7,E*6E
01DE5B,0226BC,00C4AD,$GPRMC,140852,A,5442.9371,N,11318.4615,W,000.0,311.6,220819,017.7,E*6D
01DE5B,0226BB,00C4AC,$GPRMC,140853,A,5442.9370,N,11318.4615,W,000.0,311.6,220819,017.7,E*6D
01DE5B,0226BE,00C4AD,$GPRMC,140854,A,5442.9370,N,11318.4615,W,000.0,311.6,220819,017.7,E*6A
01DE5C,0226BE,00C4AD,$GPRMC,140855,A,5442.9369,N,11318.4615,W,000.0,311.6,220819,017.7,E*63
01DE59,0226B8,00C4AB,$GPRMC,140856,A,5442.9368,N,11318.4614,W,000.0,311.6,220819,017.7,E*60
01DE5A,0226B9,00C4AB,$GPRMC,140857,A,5442.9368,N,11318.4614,W,000.0,311.6,220819,017.7,E*61
01DE5F,0226BE,00C4AE,$GPRMC,140858,A,5442.9367,N,11318.4614,W,000.0,311.6,220819,017.7,E*61
01DE5B,0226BA,00C4AB,$GPRMC,140859,A,5442.9367,N,11318.4614,W,000.0,311.6,220819,017.7,E*60
01DE5C,0226BB,00C4AC,$GPRMC,140900,A,5442.9366,N,11318.4614,W,000.0,311.6,220819,017.7,E*6C
01DE5E,0226BE,00C4AD,$GPRMC,140901,A,5442.9366,N,11318.4613,W,000.0,311.6,220819,017.7,E*6A
01DE5C,0226BA,00C4AB,$GPRMC,140902,A,5442.9365,N,11318.4613,W,000.0,311.6,220819,017.7,E*6A
01DE5F,0226BD,00C4AC,$GPRMC,140903,A,5442.9364,N,11318.4613,W,000.0,311.6,220819,017.7,E*6A
01DE5B,0226B8,00C4AA,$GPRMC,140904,V,5442.9364,N,11318.4613,W,,,220819,017.7,E*7F
01DE5D,0226BD,00C4AD,$GPRMC,140905,V,5442.9364,N,11318.4613,W,,,220819,017.7,E*7E
01DE5A,0226B9,00C4AA,$GPRMC,140906,V,5442.9364,N,11318.4613,W,,,220819,017.7,E*7D
01DE5C,0226BB,00C4AB,$GPRMC,140907,V,5442.9364,N,11318.4613,W,,,220819,017.7,E*7C
01DE5B,0226B8,00C4AA,$GPRMC,140908,V,5442.9364,N,11318.4613,W,,,220819,017.7,E*73
01DE5A,0226B8,00C4A9,$GPRMC,140909,V,5442.9364,N,11318.4613,W,,,220819,017.7,E*72
01DE5F,0226BC,00C4AB,$GPRMC,140910,V,5442.9364,N,11318.4613,W,,,220819,017.7,E*7A
01DE5B,0226B9,00C4A9,$GPRMC,140911,V,5442.9364,N,11318.4613,W,,,220819,017.7,E*7B
01DE59,0226B4,00C4A7,$GPRMC,140912,V,5442.9364,N,11318.4613,W,,,220819,017.7,E*78
01DE5F,0226BB,00C4AA,$GPRMC,140913,V,5442.9364,N,11318.4613,W,,,220819,017.7,E*79
01DE5D,0226B8,00C4A8,$GPRMC,140914,V,5442.9364,N,11318.4613,W,,,220819,017.7,E*7E
01DE61,0226BF,00C4AB,$GPRMC,140915,V,5442.9364,N,11318.4613,W,,,220819,017.7,E*7F
01DE5C,0226B8,00C4A8,$GPRMC,140916,V,5442.9364,N,11318.4613,W,,,220819,017.7,E*7C
01DE5B,0226B6,00C4A7,$GPRMC,140917,V,5442.9364,N,11318.4613,W,,,220819,017.7,E*7D
01DE5C,0226B9,00C4A8,$GPRMC,140918,V,5442.9364,N,11318.4613,W,,,220819,017.7,E*72
01DE5B,0226B6,00C4A8,$GPRMC,140919,V,5442.9364,N,11318.4613,W,,,220819,017.7,E*73
01DE5B,0226B7,00C4A7,$GPRMC,140920,V,5442.9364,N,11318.4613,W,,,220819,017.7,E*79
01DE5B,0226B6,00C4A7,$GPRMC,140921,V,5442.9364,N,11318.4613,W,,,220819,017.7,E*78
01DE5C,0226B7,00C4A8,$GPRMC,140922,V,5442.9364,N,11318.4613,W,,,220819,017.7,E*7B
01DE5B,0226B6,00C4A8,$GPRMC,140923,V,5442.9364,N,11318.4613,W,,,220819,017.7,E*7A
01DE5C,0226B4,00C4A8,$GPRMC,140924,V,5442.9364,N,11318.4613,W,,,220819,017.7,E*7D
01DE5E,0226B7,00C4A9,$GPRMC,140925,V,5442.9364,N,11318.4613,W,,,220819,017.7,E*7C
01DE5F,0226B8,00C4A8,$GPRMC,140926,A,5442.9278,N,11318.4744,W,000.0,168.8,220819,017.7,E*60
01DE63,0226BD,00C4AB,$GPRMC,140927,A,5442.9273,N,11318.4750,W,000.0,311.6,220819,017.7,E*6D
01DE60,0226B6,00C4A8,$GPRMC,140928,A,5442.9273,N,11318.4750,W,000.0,311.6,220819,017.7,E*62
01DE63,0226BC,00C4AB,$GPRMC,140929,A,5442.9273,N,11318.4779,W,000.0,311.6,220819,017.7,E*68
01DE64,0226BD,00C4AC,$GPRMC,140930,A,5442.9269,N,11318.4793,W,000.0,311.6,220819,017.7,E*6F
01DE60,0226B8,00C4AA,$GPRMC,140931,A,5442.9263,N,11318.4806,W,000.0,311.6,220819,017.7,E*67
01DE5E,0226B6,00C4A9,$GPRMC,140932,A,5442.9260,N,11318.4811,W,000.0,311.6,220819,017.7,E*61
01DE65,0226C0,00C4AD,$GPRMC,140933,A,5442.9259,N,11318.4810,W,000.0,311.6,220819,017.7,E*6B
01DE5E,0226BA,00C4AA,$GPRMC,140934,A,5442.9259,N,11318.4807,W,000.0,311.6,220819,017.7,E*6A
01DE5D,0226B7,00C4A9,$GPRMC,140935,A,5442.9259,N,11318.4805,W,000.0,311.6,220819,017.7,E*69
01DE61,0226BF,00C4AC,$GPRMC,140936,A,5442.9258,N,11318.4806,W,000.0,311.6,220819,017.7,E*68
01DE60,0226BE,00C4AB,$GPRMC,140937,A,5442.9258,N,11318.4807,W,000.0,311.6,220819,017.7,E*68
01DE5C,0226BB,00C4AA,$GPRMC,140938,A,5442.9257,N,11318.4809,W,000.0,311.6,220819,017.7,E*66
01DE5B,0226B9,00C4A9,$GPRMC,140939,A,5442.9257,N,11318.4809,W,000.0,311.6,220819,017.7,E*67
01DE5E,0226BE,00C4AB,$GPRMC,140940,A,5442.9254,N,11318.4809,W,000.0,311.6,220819,017.7,E*6A
01DE61,0226C0,00C4AC,$GPRMC,140941,A,5442.9253,N,11318.4810,W,000.0,311.6,220819,017.7,E*64
01DE60,0226BF,00C4AB,$GPRMC,140942,A,5442.9252,N,11318.4809,W,000.0,311.6,220819,017.7,E*6E
01DE60,0226BF,00C4AB,$GPRMC,140943,A,5442.9252,N,11318.4808,W,000.0,311.6,220819,017.7,E*6E
01DE5E,0226B9,00C4AA,$GPRMC,140944,A,5442.9252,N,11318.4808,W,000.0,311.6,220819,017.7,E*69
01DE61,0226BE,00C4AC,$GPRMC,140945,A,5442.9252,N,11318.4809,W,000.0,311.6,220819,017.7,E*69
01DE5F,0226B8,00C4A9,$GPRMC,140946,A,5442.9252,N,11318.4808,W,000.0,311.6,220819,017.7,E*6B
01DE63,0226BD,00C4AB,$GPRMC,140947,A,5442.9252,N,11318.4808,W,000.0,311.6,220819,017.7,E*6A
01DE64,0226BE,00C4AC,$GPRMC,140948,A,5442.9252,N,11318.4807,W,000.0,311.6,220819,017.7,E*6A
01DE62,0226BC,00C4AA,$GPRMC,140949,A,5442.9252,N,11318.4806,W,000.0,311.6,220819,017.7,E*6A
01DE64,0226BC,00C4AB,$GPRMC,140950,A,5442.9252,N,11318.4806,W,000.0,311.6,220819,017.7,E*62
01DE61,0226B9,00C4A9,$GPRMC,140951,A,5442.9250,N,11318.4803,W,000.0,311.6,220819,017.7,E*64
01DE68,0226C1,00C4AC,$GPRMC,140952,A,5442.9250,N,11318.4803,W,000.0,311.6,220819,017.7,E*67
01DE66,0226BF,00C4AC,$GPRMC,140953,A,5442.9249,N,11318.4801,W,000.0,311.6,220819,017.7,E*6C
01DE63,0226BB,00C4A9,$GPRMC,140954,A,5442.9249,N,11318.4800,W,000.0,311.6,220819,017.7,E*6A
01DE63,0226BA,00C4AA,$GPRMC,140955,A,5442.9248,N,11318.4798,W,000.0,311.6,220819,017.7,E*64
01DE66,0226BE,00C4AB,$GPRMC,140956,A,5442.9248,N,11318.4797,W,000.0,311.6,220819,017.7,E*68
01DE64,0226B9,00C4A9,$GPRMC,140957,A,5442.9247,N,11318.4797,W,000.0,311.6,220819,017.7,E*66
01DE66,0226BC,00C4AA,$GPRMC,140958,A,5442.9245,N,11318.4795,W,000.0,311.6,220819,017.7,E*69
01DE6A,0226C0,00C4AB,$GPRMC,140959,A,5442.9243,N,11318.4793,W,000.0,311.6,220819,017.7,E*68
01DE68,0226BC,00C4AA,$GPRMC,141000,A,5442.9241,N,11318.4791,W,000.0,311.6,220819,017.7,E*6C
01DE69,0226BE,00C4AB,$GPRMC,141001,A,5442.9239,N,11318.4790,W,000.0,311.6,220819,017.7,E*63
01DE6B,0226C0,00C4AC,$GPRMC,141002,A,5442.9237,N,11318.4789,W,000.0,311.6,220819,017.7,E*66
01DE69,0226BE,00C4AB,$GPRMC,141003,A,5442.9235,N,11318.4789,W,000.0,311.6,220819,017.7,E*65
01DE69,0226BC,00C4AA,$GPRMC,141004,A,5442.9234,N,11318.4788,W,000.0,311.6,220819,017.7,E*62
01DE6B,0226C0,00C4AB,$GPRMC,141005,A,5442.9232,N,11318.4787,W,000.0,311.6,220819,017.7,E*6A
01DE6A,0226C0,00C4AB,$GPRMC,141006,A,5442.9231,N,11318.4786,W,000.0,311.6,220819,017.7,E*6B
01DE69,0226BD,00C4AB,$GPRMC,141007,A,5442.9230,N,11318.4786,W,000.0,311.6,220819,017.7,E*6B
01DE68,0226BD,00C4AA,$GPRMC,141008,A,5442.9229,N,11318.4784,W,000.0,311.6,220819,017.7,E*6E
01DE6B,0226C2,00C4AD,$GPRMC,141009,A,5442.9228,N,11318.4783,W,000.0,311.6,220819,017.7,E*69
01DE68,0226BC,00C4A9,$GPRMC,141010,A,5442.9227,N,11318.4781,W,000.0,311.6,220819,017.7,E*6C
01DE67,0226BB,00C4A8,$GPRMC,141011,A,5442.9227,N,11318.4779,W,000.0,311.6,220819,017.7,E*6A
01DE6A,0226BD,00C4A9,$GPRMC,141012,A,5442.9227,N,11318.4777,W,000.0,311.6,220819,017.7,E*67
01DE6A,0226BD,00C4A9,$GPRMC,141013,A,5442.9226,N,11318.4776,W,000.0,311.6,220819,017.7,E*66
01DE6B,0226BE,00C4AA,$GPRMC,141014,A,5442.9226,N,11318.4774,W,000.0,311.6,220819,017.7,E*63
01DE6B,0226BD,00C4A9,$GPRMC,141015,A,5442.9225,N,11318.4773,W,000.0,311.6,220819,017.7,E*66
01DE6D,0226C0,00C4AA,$GPRMC,141016,A,5442.9224,N,11318.4771,W,000.0,311.6,220819,017.7,E*66
01DE6A,0226BB,00C4A8,$GPRMC,141017,A,5442.9224,N,11318.4769,W,000.0,311.6,220819,017.7,E*6E
01DE68,0226BA,00C4A8,$GPRMC,141018,A,5442.9225,N,11318.4763,W,000.0,311.6,220819,017.7,E*6A
01DE69,0226BC,00C4A9,$GPRMC,141019,A,5442.9226,N,11318.4756,W,000.0,311.6,220819,017.7,E*6E
01DE68,0226BA,00C4A8,$GPRMC,141020,A,5442.9235,N,11318.4764,W,000.0,311.6,220819,017.7,E*67
01DE6D,0226C1,00C4AB,$GPRMC,141021,A,5442.9244,N,11318.4772,W,000.0,311.6,220819,017.7,E*67
01DE6A,0226BC,00C4A8,$GPRMC,141022,A,5442.9252,N,11318.4778,W,000.0,311.6,220819,017.7,E*69
01DE6B,0226BC,00C4A8,$GPRMC,141023,A,5442.9251,N,11318.4766,W,000.0,311.6,220819,017.7,E*64
01DE6D,0226C0,00C4AA,$GPRMC,141024,A,5442.9250,N,11318.4753,W,000.0,311.6,220819,017.7,E*64
01DE6F,0226C1,00C4AA,$GPRMC,141025,A,5442.9249,N,11318.4742,W,000.0,311.6,220819,017.7,E*6D
01DE71,0226C5,00C4AB,$GPRMC,141026,A,5442.9248,N,11318.4731,W,000.0,311.6,220819,017.7,E*6B
01DE6B,0226BC,00C4A8,$GPRMC,141027,A,5442.9254,N,11318.4735,W,000.0,311.6,220819,017.7,E*63
01DE6C,0226BE,00C4A8,$GPRMC,141028,A,5442.9259,N,11318.4738,W,000.0,311.6,220819,017.7,E*6C
01DE6F,0226C1,00C4A9,$GPRMC,141029,A,5442.9264,N,11318.4740,W,000.0,311.6,220819,017.7,E*6C
01DE6E,0226C0,00C4A8,$GPRMC,141030,A,5442.9268,N,11318.4742,W,000.0,311.6,220819,017.7,E*6A
01DE70,0226C3,00C4A9,$GPRMC,141031,A,5442.9271,N,11318.4742,W,000.0,311.6,220819,017.7,E*63
01DE71,0226C4,00C4AA,$GPRMC,141032,A,5442.9271,N,11318.4740,W,000.0,311.6,220819,017.7,E*62
01DE71,0226C3,00C4A9,$GPRMC,141033,A,5442.9270,N,11318.4738,W,000.0,311.6,220819,017.7,E*6D
01DE74,0226C7,00C4AA,$GPRMC,141034,A,5442.9267,N,11318.4735,W,000.0,311.6,220819,017.7,E*61
01DE72,0226C6,00C4A9,$GPRMC,141035,A,5442.9270,N,11318.4737,W,000.0,311.6,220819,017.7,E*64
