01DD6F,022807,00C58C,$GPRMC,005946,A,5442.9418,N,11318.4647,W,000.0,305.6,220819,017.7,E*63
01DD73,02280E,00C58F,$GPRMC,005947,A,5442.9418,N,11318.4646,W,000.0,305.6,220819,017.7,E*63
01DD72,02280C,00C58D,$GPRMC,005948,A,5442.9417,N,11318.4646,W,000.0,305.6,220819,017.7,E*63
01DD71,02280B,00C58D,$GPRMC,005949,A,5442.9416,N,11318.4646,W,000.0,305.6,220819,017.7,E*63
01DD74,02280F,00C58F,$GPRMC,005950,A,5442.9415,N,11318.4647,W,000.0,305.6,220819,017.7,E*69
01DD76,022812,00C590,$GPRMC,005951,A,5442.9414,N,11318.4647,W,000.0,305.6,220819,017.7,E*69
01DD71,02280A,00C58D,$GPRMC,005952,A,5442.9414,N,11318.4646,W,000.0,305.6,220819,017.7,E*6B
01DD74,022810,00C590,$GPRMC,005953,A,5442.9411,N,11318.4647,W,000.0,305.6,220819,017.7,E*6E
01DD72,02280B,00C58E,$GPRMC,005954,A,5442.9407,N,11318.4649,W,000.0,305.6,220819,017.7,E*60
01DD72,02280B,00C58D,$GPRMC,005955,A,5442.9405,N,11318.4650,W,000.0,305.6,220819,017.7,E*6B
01DD73,02280C,00C58E,$GPRMC,005956,A,5442.9406,N,11318.4648,W,000.0,305.6,220819,017.7,E*62
01DD6E,022806,00C58C,$GPRMC,005957,A,5442.9407,N,11318.4647,W,000.0,305.6,220819,017.7,E*6D
01DD75,022811,00C590,$GPRMC,005958,A,5442.9405,N,11318.4648,W,000.0,305.6,220819,017.7,E*6F
01DD70,022809,00C58D,$GPRMC,005959,A,5442.9404,N,11318.4649,W,000.0,305.6,220819,017.7,E*6E
01DD73,02280C,00C58F,$GPRMC,010000,A,5442.9403,N,11318.4650,W,000.0,305.6,220819,017.7,E*60
01DD71,022809,00C58D,$GPRMC,010001,A,5442.9403,N,11318.4650,W,000.0,305.6,220819,017.7,E*61
01DD73,02280E,00C58F,$GPRMC,010002,A,5442.9402,N,11318.4650,W,000.0,305.6,220819,017.7,E*63
01DD6F,022807,00C58C,$GPRMC,010003,A,5442.9401,N,11318.4651,W,000.0,305.6,220819,017.7,E*60
01DD74,02280F,00C58F,$GPRMC,010004,A,5442.9400,N,11318.4653,W,000.0,305.6,220819,017.7,E*64
01DD71,022809,00C58D,$GPRMC,010005,A,5442.9398,N,11318.4655,W,000.0,305.6,220819,017.7,E*65
01DD75,022810,00C590,$GPRMC,010006,A,5442.9400,N,11318.4656,W,000.0,305.6,220819,017.7,E*63
01DD71,02280B,00C58E,$GPRMC,010007,A,5442.9398,N,11318.4658,W,000.0,305.6,220819,017.7,E*6A
01DD73,02280E,00C58F,$GPRMC,010008,A,5442.9396,N,11318.4661,W,000.0,305.6,220819,017.7,E*61
01DD76,022811,00C590,$GPRMC,010009,A,5442.9394,N,11318.4664,W,000.0,305.6,220819,017.7,E*67
01DD75,022811,00C590,$GPRMC,010010,A,5442.9391,N,11318.4666,W,000.0,305.6,220819,017.7,E*68
01DD73,02280E,00C58F,$GPRMC,010011,A,5442.9388,N,11318.4669,W,000.0,305.6,220819,017.7,E*6E
01DD73,02280F,00C58F,$GPRMC,010012,A,5442.9386,N,11318.4672,W,000.0,305.6,220819,017.7,E*69
01DD75,022811,00C590,$GPRMC,010013,A,5442.9382,N,11318.4673,W,000.0,305.6,220819,017.7,E*6D
01DD72,02280C,00C58E,$GPRMC,010014,A,5442.9377,N,11318.4674,W,000.0,305.6,220819,017.7,E*67
01DD72,02280B,00C58D,$GPRMC,010015,A,5442.9374,N,11318.4676,W,000.0,305.6,220819,017.7,E*67
01DD75,022810,00C590,$GPRMC,010016,A,5442.9371,N,11318.4678,W,000.0,305.6,220819,017.7,E*6F
01DD74,02280E,00C590,$GPRMC,010017,A,5442.9369,N,11318.4680,W,000.0,305.6,220819,017.7,E*60
01DD72,02280A,00C58E,$GPRMC,010018,A,5442.9366,N,11318.4681,W,000.0,305.6,220819,017.7,E*61
01DD73,02280D,00C58F,$GPRMC,010019,A,5442.9370,N,11318.4681,W,000.0,305.6,220819,017.7,E*67
01DD72,02280B,00C58E,$GPRMC,010020,A,5442.9374,N,11318.4681,W,000.0,305.6,220819,017.7,E*69
01DD6F,022807,00C58C,$GPRMC,010021,A,5442.9374,N,11318.4680,W,000.0,305.6,220819,017.7,E*69
01DD6D,022802,00C58B,$GPRMC,010022,A,5442.9375,N,11318.4680,W,000.0,305.6,220819,017.7,E*6B
01DD71,022809,00C58D,$GPRMC,010023,A,5442.9375,N,11318.4679,W,000.0,305.6,220819,017.7,E*6C
01DD72,022809,00C58F,$GPRMC,010024,A,5442.9378,N,11318.4678,W,000.0,305.6,220819,017.7,E*67
01DD6D,022801,00C58C,$GPRMC,010025,A,5442.9388,N,11318.4673,W,000.0,305.6,220819,017.7,E*62
01DD74,02280D,00C591,$GPRMC,010026,A,5442.9397,N,11318.4667,W,000.0,305.6,220819,017.7,E*6A
01DD6E,022803,00C58B,$GPRMC,010027,A,5442.9405,N,11318.4663,W,000.0,305.6,220819,017.7,E*63
01DD6D,022801,00C58B,$GPRMC,010028,A,5442.9413,N,11318.4659,W,000.0,305.6,220819,017.7,E*62
01DD71,022807,00C58E,$GPRMC,010029,A,5442.9413,N,11318.4660,W,000.0,305.6,220819,017.7,E*69
01DD70,022806,00C58D,$GPRMC,010030,A,5442.9412,N,11318.4661,W,000.0,305.6,220819,017.7,E*61
01DD70,022806,00C58D,$GPRMC,010031,A,5442.9412,N,11318.4661,W,000.0,305.6,220819,017.7,E*60
01DD70,022805,00C58D,$GPRMC,010032,A,5442.9422,N,11318.4657,W,000.0,305.6,220819,017.7,E*65
01DD70,022806,00C58D,$GPRMC,010033,A,5442.9432,N,11318.4652,W,000.0,305.6,220819,017.7,E*60
01DD72,022809,00C58F,$GPRMC,010034,A,5442.9438,N,11318.4650,W,000.0,305.6,220819,017.7,E*6F
01DD70,022805,00C58D,$GPRMC,010035,A,5442.9446,N,11318.4645,W,000.0,305.6,220819,017.7,E*63
01DD73,022809,00C590,$GPRMC,010036,A,5442.9456,N,11318.4641,W,000.0,305.6,220819,017.7,E*65
01DD71,022806,00C58F,$GPRMC,010037,A,5442.9464,N,11318.4638,W,000.0,305.6,220819,017.7,E*6B
01DD71,022807,00C58F,$GPRMC,010038,A,5442.9468,N,11318.4635,W,000.0,305.6,220819,017.7,E*65
01DD73,022809,00C58F,$GPRMC,010039,A,5442.9473,N,11318.4632,W,000.0,305.6,220819,017.7,E*69
01DD6F,022805,00C58E,$GPRMC,010040,A,5442.9483,N,11318.4629,W,000.0,305.6,220819,017.7,E*62
01DD72,022809,00C590,$GPRMC,010041,A,5442.9487,N,11318.4625,W,000.0,305.6,220819,017.7,E*6B
01DD6E,022804,00C58E,$GPRMC,010042,A,5442.9491,N,11318.4623,W,000.0,305.6,220819,017.7,E*69
01DD73,02280A,00C591,$GPRMC,010043,A,5442.9495,N,11318.4620,W,000.0,305.6,220819,017.7,E*6F
01DD70,022808,00C58F,$GPRMC,010044,A,5442.9500,N,11318.4617,W,000.0,305.6,220819,017.7,E*61
01DD6F,022804,00C58E,$GPRMC,010045,A,5442.9501,N,11318.4617,W,000.0,305.6,220819,017.7,E*61
01DD70,022806,00C590,$GPRMC,010046,A,5442.9501,N,11318.4617,W,000.0,305.6,220819,017.7,E*62
01DD72,02280A,00C591,$GPRMC,010047,A,5442.9501,N,11318.4617,W,000.0,305.6,220819,017.7,E*63
01DD75,02280D,00C592,$GPRMC,010048,A,5442.9501,N,11318.4617,W,000.0,305.6,220819,017.7,E*6C
01DD6F,022805,00C58F,$GPRMC,010049,A,5442.9500,N,11318.4618,W,000.0,305.6,220819,017.7,E*63
01DD6F,022803,00C58F,$GPRMC,010050,A,5442.9500,N,11318.4618,W,000.0,305.6,220819,017.7,E*6B
01DD6F,022806,00C590,$GPRMC,010051,A,5442.9500,N,11318.4618,W,000.0,305.6,220819,017.7,E*6A
01DD6F,022803,00C590,$GPRMC,010052,A,5442.9499,N,11318.4618,W,000.0,305.6,220819,017.7,E*68
01DD6E,022803,00C58F,$GPRMC,010053,A,5442.9499,N,11318.4619,W,000.0,305.6,220819,017.7,E*68
01DD74,02280A,00C593,$GPRMC,010054,A,5442.9504,N,11318.4615,W,000.0,305.6,220819,017.7,E*66
01DD6F,022804,00C58F,$GPRMC,010055,A,5442.9509,N,11318.4611,W,000.0,305.6,220819,017.7,E*6E
01DD71,022806,00C590,$GPRMC,010056,A,5442.9514,N,11318.4607,W,000.0,305.6,220819,017.7,E*66
01DD74,02280A,00C593,$GPRMC,010057,A,5442.9518,N,11318.4604,W,000.0,305.6,220819,017.7,E*68
01DD72,022806,00C591,$GPRMC,010058,A,5442.9522,N,11318.4602,W,000.0,305.6,220819,017.7,E*68
01DD72,022806,00C591,$GPRMC,010059,A,5442.9525,N,11318.4599,W,000.0,305.6,220819,017.7,E*6F
01DD74,022809,00C592,$GPRMC,010100,A,5442.9528,N,11318.4597,W,000.0,305.6,220819,017.7,E*61
01DD72,022805,00C591,$GPRMC,010101,A,5442.9531,N,11318.4594,W,000.0,305.6,220819,017.7,E*6B
01DD74,022807,00C592,$GPRMC,010102,A,5442.9534,N,11318.4592,W,000.0,305.6,220819,017.7,E*6B
01DD76,022809,00C593,$GPRMC,010103,A,5442.9538,N,11318.4589,W,000.0,305.6,220819,017.7,E*6C
01DD76,022809,00C593,$GPRMC,010104,A,5442.9541,N,11318.4586,W,000.0,305.6,220819,017.7,E*6A
01DD72,022805,00C591,$GPRMC,010105,A,5442.9546,N,11318.4584,W,000.0,305.6,220819,017.7,E*6E
01DD74,022807,00C592,$GPRMC,010106,A,5442.9549,N,11318.4582,W,000.0,305.6,220819,017.7,E*64
01DD72,022804,00C591,$GPRMC,010107,A,5442.9554,N,11318.4580,W,000.0,305.6,220819,017.7,E*6B
01DD77,02280B,00C594,$GPRMC,010108,A,5442.9558,N,11318.4578,W,000.0,305.6,220819,017.7,E*6F
01DD75,022808,00C592,$GPRMC,010109,A,5442.9564,N,11318.4577,W,000.0,305.6,220819,017.7,E*6E
01DD74,022806,00C591,$GPRMC,010110,A,5442.9569,N,11318.4575,W,000.0,305.6,220819,017.7,E*69
01DD74,022807,00C592,$GPRMC,010111,A,5442.9573,N,11318.4575,W,000.0,305.6,220819,017.7,E*63
01DD71,022805,00C591,$GPRMC,010112,A,5442.9578,N,11318.4574,W,000.0,305.6,220819,017.7,E*6A
01DD76,02280A,00C593,$GPRMC,010113,A,5442.9582,N,11318.4573,W,000.0,305.6,220819,017.7,E*69
01DD70,022802,00C58F,$GPRMC,010114,A,5442.9585,N,11318.4572,W,000.0,305.6,220819,017.7,E*68
01DD73,022808,00C591,$GPRMC,010115,A,5442.9586,N,11318.4572,W,000.0,305.6,220819,017.7,E*6A
01DD74,022808,00C592,$GPRMC,010116,A,5442.9585,N,11318.4572,W,000.0,305.6,220819,017.7,E*6A
01DD73,022807,00C591,$GPRMC,010117,A,5442.9584,N,11318.4572,W,000.0,305.6,220819,017.7,E*6A
01DD73,022808,00C591,$GPRMC,010118,A,5442.9585,N,11318.4573,W,000.0,305.6,220819,017.7,E*65
01DD75,022809,00C592,$GPRMC,010119,A,5442.9584,N,11318.4574,W,000.0,305.6,220819,017.7,E*62
01DD74,022808,00C592,$GPRMC,010120,A,5442.9584,N,11318.4575,W,000.0,305.6,220819,017.7,E*69
01DD72,022805,00C591,$GPRMC,010121,A,5442.9584,N,11318.4575,W,000.0,305.6,220819,017.7,E*68
01DD74,022807,00C591,$GPRMC,010122,A,5442.9584,N,11318.4576,W,000.0,305.6,220819,017.7,E*68
01DD72,022805,00C590,$GPRMC,010123,A,5442.9582,N,11318.4576,W,000.0,305.6,220819,017.7,E*6F
01DD72,022805,00C590,$GPRMC,010124,A,5442.9583,N,11318.4576,W,000.0,305.6,220819,017.7,E*69
01DD70,022803,00C590,$GPRMC,010125,A,5442.9583,N,11318.4576,W,000.0,305.6,220819,017.7,E*68
01DD75,02280A,00C593,$GPRMC,010126,A,5442.9583,N,11318.4576,W,000.0,305.6,220819,017.7,E*6B
01DD71,022802,00C590,$GPRMC,010127,A,5442.9582,N,11318.4576,W,000.0,305.6,220819,017.7,E*6B
01DD73,022808,00C591,$GPRMC,010128,A,5442.9582,N,11318.4576,W,000.0,305.6,220819,017.7,E*64
01DD72,022807,00C591,$GPRMC,010129,A,5442.9582,N,11318.4576,W,000.0,305.6,220819,017.7,E*65
01DD71,022804,00C590,$GPRMC,010130,A,5442.9583,N,11318.4576,W,000.0,305.6,220819,017.7,E*6C
01DD72,022806,00C591,$GPRMC,010131,A,5442.9582,N,11318.4576,W,000.0,305.6,220819,017.7,E*6C
01DD70,022802,00C590,$GPRMC,010132,A,5442.9582,N,11318.4576,W,000.0,305.6,220819,017.7,E*6F
01DD70,022801,00C58F,$GPRMC,010133,A,5442.9582,N,11318.4576,W,000.0,305.6,220819,017.7,E*6E
01DD70,022803,00C590,$GPRMC,010134,A,5442.9577,N,11318.4579,W,000.0,305.6,220819,017.7,E*6C
01DD71,022802,00C590,$GPRMC,010135,A,5442.9575,N,11318.4580,W,000.0,305.6,220819,017.7,E*69
01DD71,022802,00C590,$GPRMC,010136,A,5442.9572,N,11318.4582,W,000.0,305.6,220819,017.7,E*6F
01DD71,022803,00C590,$GPRMC,010137,A,5442.9572,N,11318.4582,W,000.0,305.6,220819,017.7,E*6E
01DD6F,022800,00C58F,$GPRMC,010138,A,5442.9567,N,11318.4584,W,000.0,305.6,220819,017.7,E*63
01DD71,022804,00C590,$GPRMC,010139,A,5442.9565,N,11318.4584,W,000.0,305.6,220819,017.7,E*60
01DD6E,0228FE,00C58E,$GPRMC,010140,A,5442.9563,N,11318.4585,W,000.0,305.6,220819,017.7,E*69
01DD6E,0228FE,00C58E,$GPRMC,010141,A,5442.9561,N,11318.4586,W,000.0,305.6,220819,017.7,E*69
01DD71,022802,00C590,$GPRMC,010142,A,5442.9561,N,11318.4586,W,000.0,305.6,220819,017.7,E*6A
01DD71,022801,00C591,$GPRMC,010143,A,5442.9561,N,11318.4586,W,000.0,305.6,220819,017.7,E*6B
01DD6E,0227FD,00C58E,$GPRMC,010144,A,5442.9563,N,11318.4586,W,000.0,305.6,220819,017.7,E*6E
01DD70,0228FF,00C58F,$GPRMC,010145,A,5442.9560,N,11318.4588,W,000.0,305.6,220819,017.7,E*62
01DD71,022802,00C591,$GPRMC,010146,A,5442.9557,N,11318.4590,W,000.0,305.6,220819,017.7,E*6C
01DD6D,0227FC,00C58E,$GPRMC,010147,A,5442.9553,N,11318.4593,W,000.0,305.6,220819,017.7,E*6A
01DD72,022802,00C590,$GPRMC,010148,A,5442.9549,N,11318.4595,W,000.0,305.6,220819,017.7,E*68
01DD6E,0227FC,00C58E,$GPRMC,010149,A,5442.9551,N,11318.4594,W,000.0,305.6,220819,017.7,E*61
01DD6F,0227FD,00C58F,$GPRMC,010150,A,5442.9548,N,11318.4595,W,000.0,305.6,220819,017.7,E*60
01DD6C,0227F9,00C58D,$GPRMC,010151,A,5442.9550,N,11318.4593,W,000.0,305.6,220819,017.7,E*6E
01DD6F,0227FC,00C590,$GPRMC,010152,A,5442.9546,N,11318.4594,W,000.0,305.6,220819,017.7,E*6D
01DD71,0227FE,00C590,$GPRMC,010153,A,5442.9542,N,11318.4595,W,000.0,305.6,220819,017.7,E*69
01DD72,022800,00C591,$GPRMC,010154,A,5442.9545,N,11318.4592,W,000.0,305.6,220819,017.7,E*6E
01DD6D,0227F8,00C58E,$GPRMC,010155,A,5442.9542,N,11318.4592,W,000.0,305.6,220819,017.7,E*68
01DD6F,0227FB,00C58F,$GPRMC,010156,A,5442.9539,N,11318.4591,W,000.0,305.6,220819,017.7,E*64
01DD6E,0227FA,00C58E,$GPRMC,010157,A,5442.9536,N,11318.4591,W,000.0,305.6,220819,017.7,E*6A
01DD72,022800,00C591,$GPRMC,010158,A,5442.9532,N,11318.4591,W,000.0,305.6,220819,017.7,E*61
01DD71,022800,00C590,$GPRMC,010159,A,5442.9529,N,11318.4592,W,000.0,305.6,220819,017.7,E*69
01DD70,0227FD,00C58F,$GPRMC,010200,A,5442.9524,N,11318.4593,W,000.0,305.6,220819,017.7,E*6A
01DD74,022804,00C592,$GPRMC,010201,A,5442.9517,N,11318.4594,W,000.0,305.6,220819,017.7,E*6C
01DD70,0227FD,00C58F,$GPRMC,010202,A,5442.9513,N,11318.4594,W,000.0,305.6,220819,017.7,E*6B
01DD72,022800,00C590,$GPRMC,010203,A,5442.9510,N,11318.4595,W,000.0,305.6,220819,017.7,E*68
01DD73,022800,00C591,$GPRMC,010204,A,5442.9507,N,11318.4596,W,000.0,305.6,220819,017.7,E*6A
01DD72,022800,00C590,$GPRMC,010205,A,5442.9503,N,11318.4597,W,000.0,305.6,220819,017.7,E*6E
01DD70,0227FC,00C58E,$GPRMC,010206,A,5442.9500,N,11318.4598,W,000.0,305.6,220819,017.7,E*61
01DD6E,0227FB,00C58D,$GPRMC,010207,A,5442.9498,N,11318.4599,W,000.0,305.6,220819,017.7,E*61
01DD73,022803,00C591,$GPRMC,010208,A,5442.9495,N,11318.4601,W,000.0,305.6,220819,017.7,E*61
01DD70,0228FE,00C58F,$GPRMC,010209,A,5442.9493,N,11318.4602,W,000.0,305.6,220819,017.7,E*65
01DD6E,0227FC,00C58E,$GPRMC,010210,A,5442.9490,N,11318.4604,W,000.0,305.6,220819,017.7,E*68
01DD73,022805,00C592,$GPRMC,010211,A,5442.9487,N,11318.4605,W,000.0,305.6,220819,017.7,E*6E
01DD70,022800,00C590,$GPRMC,010212,A,5442.9485,N,11318.4606,W,000.0,305.6,220819,017.7,E*6C
01DD70,022800,00C590,$GPRMC,010213,A,5442.9484,N,11318.4606,W,000.0,305.6,220819,017.7,E*6C
01DD71,022800,00C590,$GPRMC,010214,A,5442.9482,N,11318.4607,W,000.0,305.6,220819,017.7,E*6C
01DD71,022801,00C590,$GPRMC,010215,A,5442.9481,N,11318.4607,W,000.0,305.6,220819,017.7,E*6E
01DD73,022803,00C591,$GPRMC,010216,A,5442.9479,N,11318.4606,W,000.0,305.6,220819,017.7,E*6B
01DD73,022803,00C591,$GPRMC,010217,A,5442.9477,N,11318.4606,W,000.0,305.6,220819,017.7,E*64
01DD73,022804,00C591,$GPRMC,010218,A,5442.9475,N,11318.4605,W,000.0,305.6,220819,017.7,E*6A
01DD74,022804,00C591,$GPRMC,010219,A,5442.9474,N,11318.4605,W,000.0,305.6,220819,017.7,E*6A
01DD6F,0227FE,00C58E,$GPRMC,010220,A,5442.9471,N,11318.4604,W,000.0,305.6,220819,017.7,E*64
01DD6D,0227FC,00C58D,$GPRMC,010221,A,5442.9467,N,11318.4604,W,000.0,305.6,220819,017.7,E*62
01DD72,022802,00C590,$GPRMC,010222,A,5442.9465,N,11318.4604,W,000.0,305.6,220819,017.7,E*63
01DD70,0228FE,00C58E,$GPRMC,010223,A,5442.9463,N,11318.4604,W,000.0,305.6,220819,017.7,E*64
01DD71,022801,00C58F,$GPRMC,010224,A,5442.9462,N,11318.4604,W,000.0,305.6,220819,017.7,E*62
01DD6E,0227FE,00C58F,$GPRMC,010225,A,5442.9459,N,11318.4604,W,000.0,305.6,220819,017.7,E*6B
01DD72,022803,00C590,$GPRMC,010226,A,5442.9458,N,11318.4605,W,000.0,305.6,220819,017.7,E*68
01DD6F,0228FF,00C58E,$GPRMC,010227,A,5442.9456,N,11318.4606,W,000.0,305.6,220819,017.7,E*64
01DD6F,0227FD,00C58F,$GPRMC,010228,A,5442.9455,N,11318.4606,W,000.0,305.6,220819,017.7,E*68
01DD70,022800,00C58F,$GPRMC,010229,A,5442.9453,N,11318.4607,W,000.0,305.6,220819,017.7,E*6E
01DD6F,0227FD,00C58E,$GPRMC,010230,A,5442.9453,N,11318.4608,W,000.0,305.6,220819,017.7,E*69
01DD70,0228FF,00C58F,$GPRMC,010231,A,5442.9452,N,11318.4609,W,000.0,305.6,220819,017.7,E*68
01DD73,022804,00C592,$GPRMC,010232,A,5442.9451,N,11318.4609,W,000.0,305.6,220819,017.7,E*68
01DD6F,0227FE,00C58F,$GPRMC,010233,A,5442.9451,N,11318.4610,W,000.0,305.6,220819,017.7,E*61
01DD73,022803,00C592,$GPRMC,010234,A,5442.9451,N,11318.4611,W,000.0,305.6,220819,017.7,E*67
01DD6E,0228FE,00C58E,$GPRMC,010235,A,5442.9451,N,11318.4611,W,000.0,305.6,220819,017.7,E*66
01DD71,022802,00C590,$GPRMC,010236,A,5442.9450,N,11318.4612,W,000.0,305.6,220819,017.7,E*67
01DD72,022803,00C591,$GPRMC,010237,A,5442.9450,N,11318.4613,W,000.0,305.6,220819,017.7,E*67
01DD71,022802,00C590,$GPRMC,010238,A,5442.9449,N,11318.4613,W,000.0,305.6,220819,017.7,E*60
01DD70,022800,00C58F,$GPRMC,010239,A,5442.9448,N,11318.4613,W,000.0,305.6,220819,017.7,E*60
01DD71,022803,00C590,$GPRMC,010240,A,5442.9447,N,11318.4613,W,000.0,305.6,220819,017.7,E*61
01DD6F,022803,00C590,$GPRMC,010241,A,5442.9447,N,11318.4614,W,000.0,305.6,220819,017.7,E*67
01DD6E,022802,00C590,$GPRMC,010242,A,5442.9446,N,11318.4614,W,000.0,305.6,220819,017.7,E*65
01DD6E,022803,00C58F,$GPRMC,010243,A,5442.9445,N,11318.4615,W,000.0,305.6,220819,017.7,E*66
01DD6F,022805,00C591,$GPRMC,010244,A,5442.9444,N,11318.4615,W,000.0,305.6,220819,017.7,E*60
01DD6C,022803,00C590,$GPRMC,010245,A,5442.9443,N,11318.4616,W,000.0,305.6,220819,017.7,E*65
01DD6C,022802,00C58F,$GPRMC,010246,A,5442.9441,N,11318.4617,W,000.0,305.6,220819,017.7,E*65
01DD69,022800,00C58E,$GPRMC,010247,A,5442.9439,N,11318.4617,W,000.0,305.6,220819,017.7,E*6B
01DD6B,022802,00C58F,$GPRMC,010248,A,5442.9437,N,11318.4618,W,000.0,305.6,220819,017.7,E*65
01DD6A,022800,00C58F,$GPRMC,010249,A,5442.9435,N,11318.4619,W,000.0,305.6,220819,017.7,E*67
01DD6D,022804,00C590,$GPRMC,010250,A,5442.9434,N,11318.4620,W,000.0,305.6,220819,017.7,E*64
01DD6A,022800,00C58E,$GPRMC,010251,A,5442.9434,N,11318.4621,W,000.0,305.6,220819,017.7,E*64
01DD6C,022801,00C58F,$GPRMC,010252,A,5442.9434,N,11318.4621,W,000.0,305.6,220819,017.7,E*67
01DD6C,022802,00C58F,$GPRMC,010253,A,5442.9433,N,11318.4621,W,000.0,305.6,220819,017.7,E*61
01DD6B,022801,00C58F,$GPRMC,010254,A,5442.9433,N,11318.4621,W,000.0,305.6,220819,017.7,E*66
01DD6D,022801,00C590,$GPRMC,010255,A,5442.9433,N,11318.4621,W,000.0,305.6,220819,017.7,E*67
01DD6D,022801,00C590,$GPRMC,010256,A,5442.9432,N,11318.4621,W,000.0,305.6,220819,017.7,E*65
01DD6B,0227FD,00C58E,$GPRMC,010257,A,5442.9432,N,11318.4621,W,000.0,305.6,220819,017.7,E*64
01DD6D,022801,00C590,$GPRMC,010258,A,5442.9432,N,11318.4620,W,000.0,305.6,220819,017.7,E*6A
01DD6B,0227FC,00C58E,$GPRMC,010259,A,5442.9432,N,11318.4620,W,000.0,305.6,220819,017.7,E*6B
01DD6A,0227FA,00C58D,$GPRMC,010300,A,5442.9432,N,11318.4619,W,000.0,305.6,220819,017.7,E*6C
01DD6A,0227FB,00C58E,$GPRMC,010301,A,5442.9432,N,11318.4618,W,000.0,305.6,220819,017.7,E*6C
01DD6D,0228FF,00C590,$GPRMC,010302,A,5442.9432,N,11318.4618,W,000.0,305.6,220819,017.7,E*6F
01DD6B,0227FB,00C58F,$GPRMC,010303,A,5442.9432,N,11318.4617,W,000.0,305.6,220819,017.7,E*61
01DD6D,0228FE,00C590,$GPRMC,010304,A,5442.9433,N,11318.4617,W,000.0,305.6,220819,017.7,E*67
01DD6E,0227FD,00C590,$GPRMC,010305,A,5442.9434,N,11318.4617,W,000.0,305.6,220819,017.7,E*61
01DD6D,0227FC,00C590,$GPRMC,010306,A,5442.9439,N,11318.4615,W,000.0,305.6,220819,017.7,E*6D
01DD6E,0227FD,00C591,$GPRMC,010307,A,5442.9439,N,11318.4615,W,000.0,305.6,220819,017.7,E*6C
01DD6B,0227F8,00C58E,$GPRMC,010308,A,5442.9439,N,11318.4615,W,000.0,305.6,220819,017.7,E*63
01DD70,0227FE,00C590,$GPRMC,010309,A,5442.9439,N,11318.4616,W,000.0,305.6,220819,017.7,E*61
01DD6F,0227FE,00C590,$GPRMC,010310,A,5442.9438,N,11318.4616,W,000.0,305.6,220819,017.7,E*68
01DD72,022801,00C592,$GPRMC,010311,A,5442.9438,N,11318.4616,W,000.0,305.6,220819,017.7,E*69
01DD6D,0227FC,00C590,$GPRMC,010312,A,5442.9437,N,11318.4616,W,000.0,305.6,220819,017.7,E*65
01DD6C,0227F9,00C58F,$GPRMC,010313,A,5442.9436,N,11318.4616,W,000.0,305.6,220819,017.7,E*65
01DD6D,0227F9,00C58E,$GPRMC,010314,A,5442.9438,N,11318.4614,W,000.0,305.6,220819,017.7,E*6E
01DD6E,0227F9,00C58F,$GPRMC,010315,A,5442.9437,N,11318.4615,W,000.0,305.6,220819,017.7,E*61
01DD6D,0227F9,00C58E,$GPRMC,010316,A,5442.9435,N,11318.4615,W,000.0,305.6,220819,017.7,E*60
01DD70,0227FD,00C590,$GPRMC,010317,A,5442.9432,N,11318.4616,W,000.0,305.6,220819,017.7,E*65
01DD6F,0227FC,00C590,$GPRMC,010318,A,5442.9429,N,11318.4616,W,000.0,305.6,220819,017.7,E*60
01DD70,0228FE,00C591,$GPRMC,010319,A,5442.9426,N,11318.4616,W,000.0,305.6,220819,017.7,E*6E
01DD6E,0227FA,00C58F,$GPRMC,010320,A,5442.9422,N,11318.4617,W,000.0,305.6,220819,017.7,E*61
01DD73,022802,00C592,$GPRMC,010321,A,5442.9419,N,11318.4618,W,000.0,305.6,220819,017.7,E*67
01DD6B,0227F8,00C58D,$GPRMC,010322,A,5442.9417,N,11318.4619,W,000.0,305.6,220819,017.7,E*6B
01DD72,022802,00C591,$GPRMC,010323,A,5442.9415,N,11318.4619,W,000.0,305.6,220819,017.7,E*68
01DD6F,0227FC,00C58F,$GPRMC,010324,A,5442.9413,N,11318.4620,W,000.0,305.6,220819,017.7,E*63
01DD6F,0228FE,00C58F,$GPRMC,010325,A,5442.9412,N,11318.4621,W,000.0,305.6,220819,017.7,E*62
01DD70,0228FF,00C58F,$GPRMC,010326,A,5442.9411,N,11318.4622,W,000.0,305.6,220819,017.7,E*61
01DD71,022800,00C590,$GPRMC,010327,A,5442.9410,N,11318.4623,W,000.0,305.6,220819,017.7,E*60
01DD6C,0227F9,00C58D,$GPRMC,010328,A,5442.9413,N,11318.4623,W,000.0,305.6,220819,017.7,E*6C
01DD6F,0228FF,00C58F,$GPRMC,010329,A,5442.9410,N,11318.4625,W,000.0,305.6,220819,017.7,E*68
01DD6E,0228FF,00C58F,$GPRMC,010330,A,5442.9406,N,11318.4627,W,000.0,305.6,220819,017.7,E*65
01DD70,022800,00C590,$GPRMC,010331,A,5442.9405,N,11318.4627,W,000.0,305.6,220819,017.7,E*67
01DD6E,0227FD,00C58E,$GPRMC,010332,A,5442.9402,N,11318.4628,W,000.0,305.6,220819,017.7,E*6C
01DD6E,0227FE,00C58E,$GPRMC,010333,A,5442.9398,N,11318.4629,W,000.0,305.6,220819,017.7,E*68
01DD6E,0227FD,00C58E,$GPRMC,010334,A,5442.9398,N,11318.4629,W,000.0,305.6,220819,017.7,E*6F
01DD6D,0227F7,00C58D,$GPRMC,010335,A,5442.9399,N,11318.4629,W,000.0,305.6,220819,017.7,E*6F
01DD70,0227EE,00C58B,$GPRMC,010336,A,5442.9400,N,11318.4629,W,000.0,305.6,220819,017.7,E*6B
01DD72,0227F5,00C58D,$GPRMC,010337,A,5442.9401,N,11318.4629,W,000.0,305.6,220819,017.7,E*6B
01DD6D,0227F5,00C58D,$GPRMC,010338,A,5442.9399,N,11318.4630,W,000.0,305.6,220819,017.7,E*6A
01DD6E,0227FA,00C58E,$GPRMC,010339,A,5442.9399,N,11318.4630,W,000.0,305.6,220819,017.7,E*6B
01DD6A,0227F6,00C58B,$GPRMC,010340,A,5442.9402,N,11318.4630,W,000.0,305.6,220819,017.7,E*60
01DD6F,0228FF,00C58F,$GPRMC,010341,A,5442.9406,N,11318.4630,W,000.0,305.6,220819,017.7,E*65
01DD70,022800,00C590,$GPRMC,010342,A,5442.9408,N,11318.4631,W,000.0,305.6,220819,017.7,E*69
01DD6A,0227F8,00C58C,$GPRMC,010343,A,5442.9408,N,11318.4632,W,000.0,305.6,220819,017.7,E*6B
01DD6F,0228FF,00C590,$GPRMC,010344,A,5442.9411,N,11318.4632,W,000.0,305.6,220819,017.7,E*64
01DD70,022800,00C591,$GPRMC,010345,A,5442.9413,N,11318.4631,W,000.0,305.6,220819,017.7,E*64
01DD6F,022801,00C590,$GPRMC,010346,A,5442.9415,N,11318.4631,W,000.0,305.6,220819,017.7,E*61
01DD71,022801,00C590,$GPRMC,010347,A,5442.9417,N,11318.4630,W,000.0,305.6,220819,017.7,E*63
01DD73,022802,00C592,$GPRMC,010348,A,5442.9419,N,11318.4629,W,000.0,305.6,220819,017.7,E*6A
01DD70,0228FF,00C591,$GPRMC,010349,A,5442.9420,N,11318.4628,W,000.0,305.6,220819,017.7,E*60
01DD70,0228FF,00C591,$GPRMC,010350,A,5442.9420,N,11318.4627,W,000.0,305.6,220819,017.7,E*67
01DD71,022801,00C592,$GPRMC,010351,A,5442.9421,N,11318.4627,W,000.0,305.6,220819,017.7,E*67
01DD74,022803,00C593,$GPRMC,010352,A,5442.9421,N,11318.4626,W,000.0,305.6,220819,017.7,E*65
01DD71,022800,00C591,$GPRMC,010353,A,5442.9423,N,11318.4625,W,000.0,305.6,220819,017.7,E*65
01DD71,0228FF,00C591,$GPRMC,010354,A,5442.9424,N,11318.4625,W,000.0,305.6,220819,017.7,E*65
01DD71,0228FF,00C592,$GPRMC,010355,A,5442.9426,N,11318.4622,W,000.0,305.6,220819,017.7,E*61
01DD6E,0227FC,00C591,$GPRMC,010356,A,5442.9427,N,11318.4623,W,000.0,305.6,220819,017.7,E*62
01DD70,022801,00C593,$GPRMC,010357,A,5442.9429,N,11318.4621,W,000.0,305.6,220819,017.7,E*6F
01DD6A,0227F8,00C58F,$GPRMC,010358,A,5442.9433,N,11318.4619,W,000.0,305.6,220819,017.7,E*60
01DD6A,0227F8,00C58F,$GPRMC,010359,A,5442.9436,N,11318.4618,W,000.0,305.6,220819,017.7,E*65
01DD6B,0227F9,00C590,$GPRMC,010400,A,5442.9438,N,11318.4618,W,000.0,305.6,220819,017.7,E*60
01DD6C,0227F9,00C590,$GPRMC,010401,A,5442.9439,N,11318.4617,W,000.0,305.6,220819,017.7,E*6F
01DD6C,0227F9,00C590,$GPRMC,010402,A,5442.9440,N,11318.4616,W,000.0,305.6,220819,017.7,E*63
01DD6C,0227FB,00C590,$GPRMC,010403,A,5442.9439,N,11318.4617,W,000.0,305.6,220819,017.7,E*6D
01DD6D,0227FB,00C590,$GPRMC,010404,A,5442.9443,N,11318.4615,W,000.0,305.6,220819,017.7,E*65
01DD6B,0227F8,00C58F,$GPRMC,010405,A,5442.9447,N,11318.4614,W,000.0,305.6,220819,017.7,E*61
01DD6D,0227FB,00C591,$GPRMC,010406,A,5442.9451,N,11318.4612,W,000.0,305.6,220819,017.7,E*63
01DD69,0227F6,00C58F,$GPRMC,010407,A,5442.9454,N,11318.4609,W,000.0,305.6,220819,017.7,E*6D
01DD6B,0227F9,00C590,$GPRMC,010408,A,5442.9457,N,11318.4607,W,000.0,305.6,220819,017.7,E*6F
01DD6A,0227F7,00C58F,$GPRMC,010409,A,5442.9459,N,11318.4606,W,000.0,305.6,220819,017.7,E*61
01DD6B,0227F7,00C58F,$GPRMC,010410,A,5442.9460,N,11318.4604,W,000.0,305.6,220819,017.7,E*61
01DD6A,0227F6,00C58E,$GPRMC,010411,A,5442.9460,N,11318.4604,W,000.0,305.6,220819,017.7,E*60
01DD6D,0227FA,00C590,$GPRMC,010412,A,5442.9457,N,11318.4604,W,000.0,305.6,220819,017.7,E*67
01DD6E,0227FC,00C591,$GPRMC,010413,A,5442.9454,N,11318.4605,W,000.0,305.6,220819,017.7,E*64
01DD6D,0227FC,00C590,$GPRMC,010414,A,5442.9451,N,11318.4606,W,000.0,305.6,220819,017.7,E*65
01DD6F,0228FF,00C592,$GPRMC,010415,A,5442.9447,N,11318.4607,W,000.0,305.6,220819,017.7,E*62
01DD6C,0227F8,00C58F,$GPRMC,010416,A,5442.9454,N,11318.4604,W,000.0,305.6,220819,017.7,E*60
01DD6E,0227FB,00C591,$GPRMC,010417,A,5442.9451,N,11318.4606,W,000.0,305.6,220819,017.7,E*66
01DD6D,0227FB,00C591,$GPRMC,010418,A,5442.9448,N,11318.4607,W,000.0,305.6,220819,017.7,E*60
01DD6C,0227F9,00C590,$GPRMC,010419,A,5442.9448,N,11318.4607,W,000.0,305.6,220819,017.7,E*61
01DD6E,0227FC,00C591,$GPRMC,010420,A,5442.9449,N,11318.4607,W,000.0,305.6,220819,017.7,E*6A
01DD6E,0227FC,00C591,$GPRMC,010421,A,5442.9450,N,11318.4607,W,000.0,305.6,220819,017.7,E*63
01DD6A,0227F6,00C58E,$GPRMC,010422,A,5442.9447,N,11318.4608,W,000.0,305.6,220819,017.7,E*69
01DD6A,0227F6,00C58E,$GPRMC,010423,A,5442.9446,N,11318.4609,W,000.0,305.6,220819,017.7,E*68
01DD6C,0227F9,00C590,$GPRMC,010424,A,5442.9445,N,11318.4609,W,000.0,305.6,220819,017.7,E*6C
01DD6C,0227F9,00C590,$GPRMC,010425,A,5442.9440,N,11318.4610,W,000.0,305.6,220819,017.7,E*60
01DD69,0227F5,00C58E,$GPRMC,010426,A,5442.9435,N,11318.4611,W,000.0,305.6,220819,017.7,E*60
01DD67,0227F2,00C58D,$GPRMC,010427,A,5442.9434,N,11318.4610,W,000.0,305.6,220819,017.7,E*61
01DD6D,0227FA,00C590,$GPRMC,010428,A,5442.9431,N,11318.4611,W,000.0,305.6,220819,017.7,E*6A
01DD6B,0227F8,00C590,$GPRMC,010429,A,5442.9428,N,11318.4611,W,000.0,305.6,220819,017.7,E*63
01DD6A,0227F6,00C58F,$GPRMC,010430,A,5442.9425,N,11318.4611,W,000.0,305.6,220819,017.7,E*66
01DD6C,0227F6,00C58F,$GPRMC,010431,A,5442.9422,N,11318.4611,W,000.0,305.6,220819,017.7,E*60
01DD6D,0227F9,00C590,$GPRMC,010432,A,5442.9420,N,11318.4611,W,000.0,305.6,220819,017.7,E*61
01DD6D,0227F8,00C590,$GPRMC,010433,A,5442.9419,N,11318.4611,W,000.0,305.6,220819,017.7,E*6A
01DD69,0227F3,00C58D,$GPRMC,010434,A,5442.9418,N,11318.4612,W,000.0,305.6,220819,017.7,E*6F
01DD6D,0227F8,00C590,$GPRMC,010435,A,5442.9416,N,11318.4612,W,000.0,305.6,220819,017.7,E*60
01DD6B,0227F6,00C590,$GPRMC,010436,A,5442.9415,N,11318.4613,W,000.0,305.6,220819,017.7,E*61
01DD6D,0227F7,00C590,$GPRMC,010437,A,5442.9414,N,11318.4613,W,000.0,305.6,220819,017.7,E*61
01DD69,0227F4,00C58E,$GPRMC,010438,A,5442.9411,N,11318.4614,W,000.0,305.6,220819,017.7,E*6C
01DD71,0227FC,00C593,$GPRMC,010439,A,5442.9409,N,11318.4615,W,000.0,305.6,220819,017.7,E*65
01DD69,0227F2,00C58E,$GPRMC,010440,A,5442.9408,N,11318.4616,W,000.0,305.6,220819,017.7,E*69
01DD6E,0227F8,00C590,$GPRMC,010441,A,5442.9407,N,11318.4617,W,000.0,305.6,220819,017.7,E*66
01DD6B,0227F5,00C58F,$GPRMC,010442,A,5442.9406,N,11318.4617,W,000.0,305.6,220819,017.7,E*64
01DD6E,0227F7,00C591,$GPRMC,010443,A,5442.9406,N,11318.4618,W,000.0,305.6,220819,017.7,E*6A
01DD6B,0227F4,00C58F,$GPRMC,010444,A,5442.9406,N,11318.4618,W,000.0,305.6,220819,017.7,E*6D
01DD6F,0227F9,00C591,$GPRMC,010445,A,5442.9407,N,11318.4617,W,000.0,305.6,220819,017.7,E*62
01DD71,0227FC,00C592,$GPRMC,010446,A,5442.9407,N,11318.4617,W,000.0,305.6,220819,017.7,E*61
01DD6C,0227F6,00C58F,$GPRMC,010447,A,5442.9405,N,11318.4618,W,000.0,305.6,220819,017.7,E*6D
01DD6C,0227F5,00C590,$GPRMC,010448,A,5442.9406,N,11318.4617,W,000.0,305.6,220819,017.7,E*6E
01DD6E,0227F8,00C591,$GPRMC,010449,A,5442.9408,N,11318.4616,W,000.0,305.6,220819,017.7,E*60
01DD6B,0227F2,00C58F,$GPRMC,010450,A,5442.9410,N,11318.4615,W,000.0,305.6,220819,017.7,E*62
01DD6C,0227F4,00C590,$GPRMC,010451,A,5442.9411,N,11318.4615,W,000.0,305.6,220819,017.7,E*62
01DD6A,0227F3,00C58F,$GPRMC,010452,A,5442.9411,N,11318.4616,W,000.0,305.6,220819,017.7,E*62
01DD70,0227F9,00C593,$GPRMC,010453,A,5442.9411,N,11318.4617,W,000.0,305.6,220819,017.7,E*62
01DD6A,0227F1,00C58F,$GPRMC,010454,A,5442.9411,N,11318.4618,W,000.0,305.6,220819,017.7,E*6A
01DD6A,0227F2,00C590,$GPRMC,010455,A,5442.9411,N,11318.4619,W,000.0,305.6,220819,017.7,E*6A
01DD6E,0227F9,00C593,$GPRMC,010456,A,5442.9410,N,11318.4620,W,000.0,305.6,220819,017.7,E*62
01DD6C,0227F4,00C591,$GPRMC,010457,A,5442.9411,N,11318.4621,W,000.0,305.6,220819,017.7,E*63
01DD6C,0227F6,00C592,$GPRMC,010458,A,5442.9411,N,11318.4621,W,000.0,305.6,220819,017.7,E*6C
01DD72,0227FE,00C595,$GPRMC,010459,A,5442.9413,N,11318.4623,W,000.0,305.6,220819,017.7,E*6D
01DD6B,0227F5,00C591,$GPRMC,010500,A,5442.9414,N,11318.4626,W,000.0,305.6,220819,017.7,E*62
01DD6F,0227FB,00C593,$GPRMC,010501,A,5442.9414,N,11318.4626,W,000.0,305.6,220819,017.7,E*63
01DD6A,0227F5,00C590,$GPRMC,010502,A,5442.9413,N,11318.4627,W,000.0,305.6,220819,017.7,E*66
01DD6D,0227F9,00C593,$GPRMC,010503,A,5442.9412,N,11318.4628,W,000.0,305.6,220819,017.7,E*69
01DD6A,0227F3,00C591,$GPRMC,010504,A,5442.9412,N,11318.4630,W,000.0,305.6,220819,017.7,E*67
01DD68,0227F0,00C590,$GPRMC,010505,A,5442.9412,N,11318.4631,W,000.0,305.6,220819,017.7,E*67
01DD6A,0227F5,00C591,$GPRMC,010506,A,5442.9411,N,11318.4633,W,000.0,305.6,220819,017.7,E*65
01DD6A,0227F4,00C591,$GPRMC,010507,A,5442.9413,N,11318.4634,W,000.0,305.6,220819,017.7,E*61
01DD6E,0227F9,00C593,$GPRMC,010508,A,5442.9412,N,11318.4636,W,000.0,305.6,220819,017.7,E*6D
01DD69,0227F2,00C590,$GPRMC,010509,A,5442.9411,N,11318.4638,W,000.0,305.6,220819,017.7,E*61
01DD6C,0227F7,00C592,$GPRMC,010510,A,5442.9410,N,11318.4640,W,000.0,305.6,220819,017.7,E*67
01DD6B,0227F6,00C592,$GPRMC,010511,A,5442.9410,N,11318.4641,W,000.0,305.6,220819,017.7,E*67
01DD6B,0227F6,00C592,$GPRMC,010512,A,5442.9410,N,11318.4645,W,000.0,305.6,220819,017.7,E*60
01DD68,0227F3,00C590,$GPRMC,010513,A,5442.9410,N,11318.4646,W,000.0,305.6,220819,017.7,E*62
01DD67,0227FA,00C58F,$GPRMC,010514,A,5442.9409,N,11318.4647,W,000.0,305.6,220819,017.7,E*6C
01DD6A,022800,00C58E,$GPRMC,010515,A,5442.9409,N,11318.4648,W,000.0,305.6,220819,017.7,E*62
01DD68,0228FE,00C58E,$GPRMC,010516,A,5442.9409,N,11318.4648,W,000.0,305.6,220819,017.7,E*61
01DD69,022800,00C58E,$GPRMC,010517,A,5442.9409,N,11318.4651,W,000.0,305.6,220819,017.7,E*68
01DD67,0227FC,00C58C,$GPRMC,010518,A,5442.9412,N,11318.4652,W,000.0,305.6,220819,017.7,E*6E
01DD68,0227FC,00C58D,$GPRMC,010519,A,5442.9412,N,11318.4652,W,000.0,305.6,220819,017.7,E*6F
01DD68,0227FD,00C58D,$GPRMC,010520,A,5442.9412,N,11318.4652,W,000.0,305.6,220819,017.7,E*65
01DD69,022800,00C58E,$GPRMC,010521,A,5442.9412,N,11318.4652,W,000.0,305.6,220819,017.7,E*64
01DD69,022800,00C58E,$GPRMC,010522,A,5442.9412,N,11318.4652,W,000.0,305.6,220819,017.7,E*67
01DD6A,022801,00C58E,$GPRMC,010523,A,5442.9412,N,11318.4652,W,000.0,305.6,220819,017.7,E*66
01DD6B,022803,00C590,$GPRMC,010524,A,5442.9411,N,11318.4651,W,000.0,305.6,220819,017.7,E*61
01DD65,0227FA,00C58C,$GPRMC,010525,A,5442.9411,N,11318.4650,W,000.0,305.6,220819,017.7,E*61
01DD68,0228FE,00C58D,$GPRMC,010526,A,5442.9412,N,11318.4649,W,000.0,305.6,220819,017.7,E*69
01DD65,0227F9,00C58B,$GPRMC,010527,A,5442.9411,N,11318.4649,W,000.0,305.6,220819,017.7,E*6B
01DD6A,0228FF,00C58F,$GPRMC,010528,A,5442.9410,N,11318.4649,W,000.0,305.6,220819,017.7,E*65
01DD67,0227FC,00C58D,$GPRMC,010529,A,5442.9410,N,11318.4648,W,000.0,305.6,220819,017.7,E*65
01DD6D,022804,00C591,$GPRMC,010530,A,5442.9409,N,11318.4648,W,000.0,305.6,220819,017.7,E*65
01DD6A,022800,00C58E,$GPRMC,010531,A,5442.9409,N,11318.4649,W,000.0,305.6,220819,017.7,E*65
01DD65,0227F9,00C58C,$GPRMC,010532,A,5442.9409,N,11318.4649,W,000.0,305.6,220819,017.7,E*66
01DD67,0227FC,00C58E,$GPRMC,010533,A,5442.9409,N,11318.4649,W,000.0,305.6,220819,017.7,E*67
01DD65,0227FB,00C58D,$GPRMC,010534,A,5442.9411,N,11318.4650,W,000.0,305.6,220819,017.7,E*61
01DD64,0227FA,00C58D,$GPRMC,010535,A,5442.9412,N,11318.4652,W,000.0,305.6,220819,017.7,E*61
01DD68,0228FF,00C58F,$GPRMC,010536,A,5442.9412,N,11318.4652,W,000.0,305.6,220819,017.7,E*62
01DD65,0227FA,00C58D,$GPRMC,010537,A,5442.9411,N,11318.4654,W,000.0,305.6,220819,017.7,E*66
01DD68,0228FF,00C58E,$GPRMC,010538,A,5442.9410,N,11318.4655,W,000.0,305.6,220819,017.7,E*69
01DD65,0227FA,00C58C,$GPRMC,010539,A,5442.9410,N,11318.4656,W,000.0,305.6,220819,017.7,E*6B
01DD68,0227FE,00C58F,$GPRMC,010540,A,5442.9411,N,11318.4658,W,000.0,305.6,220819,017.7,E*6A
01DD6A,022801,00C58F,$GPRMC,010541,A,5442.9411,N,11318.4658,W,000.0,305.6,220819,017.7,E*6B
01DD67,0227FD,00C58E,$GPRMC,010542,A,5442.9412,N,11318.4659,W,000.0,305.6,220819,017.7,E*6A
01DD61,0227F3,00C58A,$GPRMC,010543,A,5442.9411,N,11318.4658,W,000.0,305.6,220819,017.7,E*69
01DD6D,022800,00C585,$GPRMC,010544,A,5442.9411,N,11318.4659,W,000.0,305.6,220819,017.7,E*6F
01DD69,0227FA,00C57E,$GPRMC,010545,A,5442.9411,N,11318.4659,W,000.0,305.6,220819,017.7,E*6E
01DD6F,022801,00C582,$GPRMC,010546,A,5442.9410,N,11318.4659,W,000.0,305.6,220819,017.7,E*6C
01DD6C,0227FE,00C580,$GPRMC,010547,A,5442.9409,N,11318.4660,W,000.0,305.6,220819,017.7,E*6F
01DD6D,0228FE,00C581,$GPRMC,010548,A,5442.9408,N,11318.4661,W,000.0,305.6,220819,017.7,E*60
01DD6A,0227FA,00C580,$GPRMC,010549,A,5442.9404,N,11318.4664,W,000.0,305.6,220819,017.7,E*68
01DD6B,0227FB,00C581,$GPRMC,010550,A,5442.9404,N,11318.4667,W,000.0,305.6,220819,017.7,E*63
01DD68,0227FC,00C58D,$GPRMC,010551,A,5442.9403,N,11318.4669,W,000.0,305.6,220819,017.7,E*6B
01DD6A,0228FE,00C590,$GPRMC,010552,A,5442.9403,N,11318.4671,W,000.0,305.6,220819,017.7,E*61
01DD65,0227F8,00C58C,$GPRMC,010553,A,5442.9404,N,11318.4673,W,000.0,305.6,220819,017.7,E*65
01DD6A,022800,00C590,$GPRMC,010554,A,5442.9405,N,11318.4675,W,000.0,305.6,220819,017.7,E*65
01DD68,0227FE,00C58E,$GPRMC,010555,A,5442.9407,N,11318.4676,W,000.0,305.6,220819,017.7,E*65
01DD6D,022804,00C591,$GPRMC,010556,A,5442.9408,N,11318.4676,W,000.0,305.6,220819,017.7,E*69
01DD68,0227FD,00C58F,$GPRMC,010557,A,5442.9409,N,11318.4677,W,000.0,305.6,220819,017.7,E*68
01DD68,0227FE,00C58E,$GPRMC,010558,A,5442.9410,N,11318.4678,W,000.0,305.6,220819,017.7,E*60
01DD67,0227FB,00C58E,$GPRMC,010559,A,5442.9412,N,11318.4678,W,000.0,305.6,220819,017.7,E*63
01DD68,0227FC,00C58E,$GPRMC,010600,A,5442.9414,N,11318.4679,W,000.0,305.6,220819,017.7,E*6B
01DD69,0227FC,00C58D,$GPRMC,010601,A,5442.9416,N,11318.4679,W,000.0,305.6,220819,017.7,E*68
01DD68,0227FD,00C58D,$GPRMC,010602,A,5442.9418,N,11318.4678,W,000.0,305.6,220819,017.7,E*64
01DD68,0227FD,00C58E,$GPRMC,010603,A,5442.9417,N,11318.4678,W,000.0,305.6,220819,017.7,E*6A
01DD67,0227FB,00C58D,$GPRMC,010604,A,5442.9417,N,11318.4678,W,000.0,305.6,220819,017.7,E*6D
01DD66,0227F9,00C58C,$GPRMC,010605,A,5442.9419,N,11318.4678,W,000.0,305.6,220819,017.7,E*62
01DD6A,0227FE,00C58E,$GPRMC,010606,A,5442.9419,N,11318.4678,W,000.0,305.6,220819,017.7,E*61
01DD68,0227FC,00C58C,$GPRMC,010607,A,5442.9420,N,11318.4678,W,000.0,305.6,220819,017.7,E*6A
01DD69,0227FA,00C589,$GPRMC,010608,A,5442.9420,N,11318.4678,W,000.0,305.6,220819,017.7,E*65
01DD6D,022800,00C58B,$GPRMC,010609,A,5442.9420,N,11318.4678,W,000.0,305.6,220819,017.7,E*64
01DD6A,0228FE,00C588,$GPRMC,010610,A,5442.9420,N,11318.4678,W,000.0,305.6,220819,017.7,E*6C
01DD6B,0228FF,00C589,$GPRMC,010611,A,5442.9420,N,11318.4678,W,000.0,305.6,220819,017.7,E*6D
01DD6D,022800,00C58B,$GPRMC,010612,A,5442.9418,N,11318.4680,W,000.0,305.6,220819,017.7,E*62
01DD6D,0228FF,00C58B,$GPRMC,010613,A,5442.9418,N,11318.4680,W,000.0,305.6,220819,017.7,E*63
01DD6A,0227FB,00C58A,$GPRMC,010614,A,5442.9419,N,11318.4680,W,000.0,305.6,220819,017.7,E*65
01DD6B,0227FC,00C58A,$GPRMC,010615,A,5442.9419,N,11318.4680,W,000.0,305.6,220819,017.7,E*64
01DD6B,0227FC,00C58A,$GPRMC,010616,A,5442.9413,N,11318.4683,W,000.0,305.6,220819,017.7,E*6E
01DD69,0227FA,00C589,$GPRMC,010617,A,5442.9407,N,11318.4686,W,000.0,305.6,220819,017.7,E*6F
01DD6B,0227FD,00C58A,$GPRMC,010618,A,5442.9401,N,11318.4690,W,000.0,305.6,220819,017.7,E*61
01DD69,0227FB,00C58C,$GPRMC,010619,A,5442.9396,N,11318.4692,W,000.0,305.6,220819,017.7,E*6B
01DD6A,022800,00C590,$GPRMC,010620,A,5442.9392,N,11318.4695,W,000.0,305.6,220819,017.7,E*62
01DD69,0227FE,00C58E,$GPRMC,010621,A,5442.9388,N,11318.4697,W,000.0,305.6,220819,017.7,E*6A
01DD68,0227F9,00C58C,$GPRMC,010622,A,5442.9385,N,11318.4699,W,000.0,305.6,220819,017.7,E*6A
01DD6D,0227FD,00C58F,$GPRMC,010623,A,5442.9382,N,11318.4700,W,000.0,305.6,220819,017.7,E*6D
01DD67,0227F7,00C58B,$GPRMC,010624,A,5442.9382,N,11318.4700,W,000.0,305.6,220819,017.7,E*6A
01DD6B,0227FD,00C58D,$GPRMC,010625,A,5442.9380,N,11318.4701,W,000.0,305.6,220819,017.7,E*68
01DD68,0227F9,00C58B,$GPRMC,010626,A,5442.9379,N,11318.4702,W,000.0,305.6,220819,017.7,E*6E
01DD6C,0228FF,00C58E,$GPRMC,010627,A,5442.9379,N,11318.4702,W,000.0,305.6,220819,017.7,E*6F
01DD68,0227FC,00C58D,$GPRMC,010628,A,5442.9379,N,11318.4702,W,000.0,305.6,220819,017.7,E*60
01DD66,0227F9,00C58C,$GPRMC,010629,A,5442.9379,N,11318.4702,W,000.0,305.6,220819,017.7,E*61
01DD66,0227FB,00C58C,$GPRMC,010630,A,5442.9379,N,11318.4702,W,000.0,305.6,220819,017.7,E*69
01DD6A,0228FE,00C58E,$GPRMC,010631,A,5442.9379,N,11318.4702,W,000.0,305.6,220819,017.7,E*68
01DD66,0227F8,00C58B,$GPRMC,010632,A,5442.9379,N,11318.4702,W,000.0,305.6,220819,017.7,E*6B
01DD6B,022800,00C58F,$GPRMC,010633,A,5442.9378,N,11318.4703,W,000.0,305.6,220819,017.7,E*6A
01DD68,0227FC,00C58D,$GPRMC,010634,A,5442.9376,N,11318.4699,W,000.0,305.6,220819,017.7,E*61
01DD68,0227F9,00C58C,$GPRMC,010635,A,5442.9375,N,11318.4699,W,000.0,305.6,220819,017.7,E*63
01DD6D,022801,00C58F,$GPRMC,010636,A,5442.9376,N,11318.4696,W,000.0,305.6,220819,017.7,E*6C
01DD65,0227F6,00C58A,$GPRMC,010637,A,5442.9375,N,11318.4696,W,000.0,305.6,220819,017.7,E*6E
01DD68,0227FA,00C58D,$GPRMC,010638,A,5442.9375,N,11318.4696,W,000.0,305.6,220819,017.7,E*61
01DD6C,022800,00C590,$GPRMC,010639,A,5442.9374,N,11318.4696,W,000.0,305.6,220819,017.7,E*61
01DD69,0227FA,00C58D,$GPRMC,010640,A,5442.9373,N,11318.4696,W,000.0,305.6,220819,017.7,E*68
01DD68,0227F8,00C58D,$GPRMC,010641,A,5442.9372,N,11318.4696,W,000.0,305.6,220819,017.7,E*68
01DD69,0227FA,00C58E,$GPRMC,010642,A,5442.9372,N,11318.4696,W,000.0,305.6,220819,017.7,E*6B
01DD68,0227F7,00C58D,$GPRMC,010643,A,5442.9371,N,11318.4696,W,000.0,305.6,220819,017.7,E*69
01DD65,0227F3,00C58B,$GPRMC,010644,A,5442.9370,N,11318.4696,W,000.0,305.6,220819,017.7,E*6F
01DD6F,022802,00C591,$GPRMC,010645,A,5442.9369,N,11318.4696,W,000.0,305.6,220819,017.7,E*66
01DD65,0227F5,00C58B,$GPRMC,010646,A,5442.9368,N,11318.4696,W,000.0,305.6,220819,017.7,E*64
01DD69,0227FA,00C58D,$GPRMC,010647,A,5442.9368,N,11318.4696,W,000.0,305.6,220819,017.7,E*65
01DD6B,0227FC,00C58E,$GPRMC,010648,A,5442.9367,N,11318.4696,W,000.0,305.6,220819,017.7,E*65
01DD69,0227F9,00C58D,$GPRMC,010649,A,5442.9366,N,11318.4696,W,000.0,305.6,220819,017.7,E*65
01DD67,0227F7,00C58D,$GPRMC,010650,A,5442.9364,N,11318.4695,W,000.0,305.6,220819,017.7,E*6C
01DD68,0227F8,00C58D,$GPRMC,010651,A,5442.9363,N,11318.4695,W,000.0,305.6,220819,017.7,E*6A
01DD67,0227F7,00C58D,$GPRMC,010652,A,5442.9362,N,11318.4695,W,000.0,305.6,220819,017.7,E*68
01DD68,0227F7,00C58D,$GPRMC,010653,A,5442.9361,N,11318.4695,W,000.0,305.6,220819,017.7,E*6A
01DD69,0227FB,00C58D,$GPRMC,010654,A,5442.9360,N,11318.4695,W,000.0,305.6,220819,017.7,E*6C
01DD66,0227F8,00C58C,$GPRMC,010655,A,5442.9359,N,11318.4695,W,000.0,305.6,220819,017.7,E*67
01DD68,0227F9,00C58D,$GPRMC,010656,A,5442.9358,N,11318.4695,W,000.0,305.6,220819,017.7,E*65
01DD65,0227F5,00C58B,$GPRMC,010657,A,5442.9356,N,11318.4695,W,000.0,305.6,220819,017.7,E*6A
01DD66,0227F6,00C58B,$GPRMC,010658,A,5442.9353,N,11318.4694,W,000.0,305.6,220819,017.7,E*61
01DD69,0227FA,00C58D,$GPRMC,010659,A,5442.9351,N,11318.4692,W,000.0,305.6,220819,017.7,E*64
01DD67,0227F7,00C58C,$GPRMC,010700,A,5442.9349,N,11318.4690,W,000.0,305.6,220819,017.7,E*62
01DD65,0227F5,00C58B,$GPRMC,010701,A,5442.9348,N,11318.4690,W,000.0,305.6,220819,017.7,E*62
01DD66,0227F6,00C58B,$GPRMC,010702,A,5442.9348,N,11318.4690,W,000.0,305.6,220819,017.7,E*61
01DD67,0227F9,00C58C,$GPRMC,010703,A,5442.9347,N,11318.4689,W,000.0,305.6,220819,017.7,E*67
01DD69,0227F9,00C58D,$GPRMC,010704,A,5442.9344,N,11318.4688,W,000.0,305.6,220819,017.7,E*62
01DD64,0227F2,00C58A,$GPRMC,010705,A,5442.9345,N,11318.4687,W,000.0,305.6,220819,017.7,E*6D
01DD66,0227F6,00C58B,$GPRMC,010706,A,5442.9344,N,11318.4686,W,000.0,305.6,220819,017.7,E*6E
01DD6B,0228FE,00C58E,$GPRMC,010707,A,5442.9344,N,11318.4686,W,000.0,305.6,220819,017.7,E*6F
01DD68,0227F8,00C58C,$GPRMC,010708,A,5442.9344,N,11318.4686,W,000.0,305.6,220819,017.7,E*60
01DD6A,0227FC,00C58E,$GPRMC,010709,A,5442.9344,N,11318.4685,W,000.0,305.6,220819,017.7,E*62
01DD6B,0228FF,00C58E,$GPRMC,010710,A,5442.9344,N,11318.4685,W,000.0,305.6,220819,017.7,E*6A
01DD68,0227F8,00C58C,$GPRMC,010711,A,5442.9344,N,11318.4685,W,000.0,305.6,220819,017.7,E*6B
01DD69,0227FB,00C58D,$GPRMC,010712,A,5442.9344,N,11318.4684,W,000.0,305.6,220819,017.7,E*69
01DD66,0227F7,00C58C,$GPRMC,010713,A,5442.9343,N,11318.4684,W,000.0,305.6,220819,017.7,E*6F
01DD6C,0228FF,00C590,$GPRMC,010714,A,5442.9343,N,11318.4684,W,000.0,305.6,220819,017.7,E*68
01DD66,0227F7,00C58C,$GPRMC,010715,A,5442.9343,N,11318.4684,W,000.0,305.6,220819,017.7,E*69
01DD68,0227FA,00C58E,$GPRMC,010716,A,5442.9343,N,11318.4683,W,000.0,305.6,220819,017.7,E*6D
01DD66,0227F7,00C58C,$GPRMC,010717,A,5442.9343,N,11318.4683,W,000.0,305.6,220819,017.7,E*6C
01DD6D,022801,00C590,$GPRMC,010718,A,5442.9343,N,11318.4683,W,000.0,305.6,220819,017.7,E*63
01DD68,0227FB,00C58E,$GPRMC,010719,A,5442.9343,N,11318.4683,W,000.0,305.6,220819,017.7,E*62
01DD6B,0228FF,00C590,$GPRMC,010720,A,5442.9342,N,11318.4682,W,000.0,305.6,220819,017.7,E*68
01DD6B,0227FE,00C58F,$GPRMC,010721,A,5442.9342,N,11318.4682,W,000.0,305.6,220819,017.7,E*69
01DD68,0227FA,00C58D,$GPRMC,010722,A,5442.9342,N,11318.4682,W,000.0,305.6,220819,017.7,E*6A
01DD6D,022802,00C591,$GPRMC,010723,A,5442.9342,N,11318.4682,W,000.0,305.6,220819,017.7,E*6B
01DD6A,0227FD,00C58E,$GPRMC,010724,A,5442.9342,N,11318.4681,W,000.0,305.6,220819,017.7,E*6F
01DD69,0227FC,00C58E,$GPRMC,010725,A,5442.9342,N,11318.4681,W,000.0,305.6,220819,017.7,E*6E
01DD6B,0228FF,00C58F,$GPRMC,010726,A,5442.9342,N,11318.4681,W,000.0,305.6,220819,017.7,E*6D
01DD68,0227FA,00C58E,$GPRMC,010727,A,5442.9342,N,11318.4681,W,000.0,305.6,220819,017.7,E*6C
01DD6A,0227FD,00C58F,$GPRMC,010728,A,5442.9341,N,11318.4680,W,000.0,305.6,220819,017.7,E*61
01DD68,0227FC,00C58E,$GPRMC,010729,A,5442.9341,N,11318.4680,W,000.0,305.6,220819,017.7,E*60
01DD6A,0227FD,00C58F,$GPRMC,010730,A,5442.9341,N,11318.4680,W,000.0,305.6,220819,017.7,E*68
01DD67,0227F9,00C58D,$GPRMC,010731,A,5442.9341,N,11318.4679,W,000.0,305.6,220819,017.7,E*6F
01DD6B,0228FF,00C590,$GPRMC,010732,A,5442.9341,N,11318.4679,W,000.0,305.6,220819,017.7,E*6C
01DD67,0227F8,00C58E,$GPRMC,010733,A,5442.9341,N,11318.4679,W,000.0,305.6,220819,017.7,E*6D
01DD6D,022800,00C591,$GPRMC,010734,A,5442.9341,N,11318.4679,W,000.0,305.6,220819,017.7,E*6A
01DD69,0227FA,00C58E,$GPRMC,010735,A,5442.9340,N,11318.4678,W,000.0,305.6,220819,017.7,E*6B
01DD6C,0228FF,00C590,$GPRMC,010736,A,5442.9340,N,11318.4678,W,000.0,305.6,220819,017.7,E*68
01DD66,0227F6,00C58C,$GPRMC,010737,V,5442.9340,N,11318.4678,W,,,220819,017.7,E*7E
01DD6A,0227FD,00C58F,$GPRMC,010738,V,5442.9340,N,11318.4678,W,,,220819,017.7,E*71
01DD66,0227F7,00C58D,$GPRMC,010739,V,5442.9340,N,11318.4678,W,,,220819,017.7,E*70
01DD68,0227FA,00C58F,$GPRMC,010740,V,5442.9340,N,11318.4678,W,,,220819,017.7,E*7E
01DD68,0227F9,00C58E,$GPRMC,010741,V,5442.9340,N,11318.4678,W,,,220819,017.7,E*7F
01DD6A,0227FC,00C58F,$GPRMC,010742,V,5442.9340,N,11318.4678,W,,,220819,017.7,E*7C
01DD64,0227F4,00C58C,$GPRMC,010743,V,5442.9340,N,11318.4678,W,,,220819,017.7,E*7D
01DD69,0227FB,00C58F,$GPRMC,010744,V,5442.9340,N,11318.4678,W,,,220819,017.7,E*7A
01DD64,0227F2,00C58B,$GPRMC,010745,V,5442.9340,N,11318.4678,W,,,220819,017.7,E*7B
01DD65,0227F5,00C58C,$GPRMC,010746,V,5442.9340,N,11318.4678,W,,,220819,017.7,E*78
01DD65,0227F5,00C58C,$GPRMC,010747,V,5442.9340,N,11318.4678,W,,,220819,017.7,E*79
01DD64,0227F4,00C58C,$GPRMC,010748,V,5442.9340,N,11318.4678,W,,,220819,017.7,E*76
01DD64,0227F3,00C58C,$GPRMC,010749,V,5442.9340,N,11318.4678,W,,,220819,017.7,E*77
01DD65,0227F5,00C58D,$GPRMC,010750,V,5442.9340,N,11318.4678,W,,,220819,017.7,E*7F
01DD67,0227F6,00C58E,$GPRMC,010751,V,5442.9340,N,11318.4678,W,,,220819,017.7,E*7E
01DD65,0227F5,00C58D,$GPRMC,010752,V,5442.9340,N,11318.4678,W,,,220819,017.7,E*7D
01DD68,0227F9,00C58E,$GPRMC,010753,V,5442.9340,N,11318.4678,W,,,220819,017.7,E*7C
01DD66,0227F4,00C58D,$GPRMC,010754,V,5442.9340,N,11318.4678,W,,,220819,017.7,E*7B
01DD67,0227F5,00C58D,$GPRMC,010755,V,5442.9340,N,11318.4678,W,,,220819,017.7,E*7A
01DD67,0227F5,00C58E,$GPRMC,010756,V,5442.9340,N,11318.4678,W,,,220819,017.7,E*79
01DD66,0227F5,00C58E,$GPRMC,010757,V,5442.9340,N,11318.4678,W,,,220819,017.7,E*78
01DD64,0227F1,00C58D,$GPRMC,010758,V,5442.9340,N,11318.4678,W,,,220819,017.7,E*77
01DD68,0227F7,00C58F,$GPRMC,010759,V,5442.9340,N,11318.4678,W,,,220819,017.7,E*76
01DD65,0227F1,00C58D,$GPRMC,010800,V,5442.9340,N,11318.4678,W,,,220819,017.7,E*75
01DD65,0227F1,00C58D,$GPRMC,010801,V,5442.9340,N,11318.4678,W,,,220819,017.7,E*74
01DD66,0227F3,00C58E,$GPRMC,010802,V,5442.9340,N,11318.4678,W,,,220819,017.7,E*77
01DD62,0227ED,00C58B,$GPRMC,010803,V,5442.9340,N,11318.4678,W,,,220819,017.7,E*76
01DD63,0227F0,00C58C,$GPRMC,010804,V,5442.9340,N,11318.4678,W,,,220819,017.7,E*71
01DD64,0227F0,00C58E,$GPRMC,010805,V,5442.9340,N,11318.4678,W,,,220819,017.7,E*70
01DD66,0227F3,00C58F,$GPRMC,010806,V,5442.9340,N,11318.4678,W,,,220819,017.7,E*73
01DD64,0227EF,00C58D,$GPRMC,010807,V,5442.9340,N,11318.4678,W,,,220819,017.7,E*72
01DD67,0227F1,00C58F,$GPRMC,010808,V,5442.9340,N,11318.4678,W,,,220819,017.7,E*7D
01DD64,0227EF,00C58E,$GPRMC,010809,V,5442.9340,N,11318.4678,W,,,220819,017.7,E*7C
01DD68,0227E8,00C58C,$GPRMC,010810,V,5442.9340,N,11318.4678,W,,,220819,017.7,E*74
01DD68,0227E7,00C58B,$GPRMC,010811,V,5442.9340,N,11318.4678,W,,,220819,017.7,E*75
01DD67,0227EC,00C58E,$GPRMC,010812,V,5442.9340,N,11318.4678,W,,,220819,017.7,E*76
01DD63,0227E9,00C58C,$GPRMC,010813,V,5442.9340,N,11318.4678,W,,,220819,017.7,E*77
01DD64,0227EE,00C58D,$GPRMC,010814,V,5442.9340,N,11318.4678,W,,,220819,017.7,E*70
01DD61,0227EA,00C58B,$GPRMC,010815,V,5442.9340,N,11318.4678,W,,,220819,017.7,E*71
01DD64,0227EF,00C58E,$GPRMC,010816,V,5442.9340,N,11318.4678,W,,,220819,017.7,E*72
01DD60,0227E9,00C58B,$GPRMC,010817,V,5442.9340,N,11318.4678,W,,,220819,017.7,E*73
01DD60,0227EA,00C58B,$GPRMC,010818,V,5442.9340,N,11318.4678,W,,,220819,017.7,E*7C
01DD62,0227EC,00C58D,$GPRMC,010819,V,5442.9340,N,11318.4678,W,,,220819,017.7,E*7D
01DD60,0227EA,00C58B,$GPRMC,010820,V,5442.9340,N,11318.4678,W,,,220819,017.7,E*77
01DD5F,0227E9,00C58A,$GPRMC,010821,V,5442.9340,N,11318.4678,W,,,220819,017.7,E*76
01DD5F,0227EA,00C58A,$GPRMC,010822,V,5442.9340,N,11318.4678,W,,,220819,017.7,E*75
01DD5E,0227E9,00C58A,$GPRMC,010823,V,5442.9340,N,11318.4678,W,,,220819,017.7,E*74
01DD60,0227EB,00C58B,$GPRMC,010824,V,5442.9340,N,11318.4678,W,,,220819,017.7,E*73
01DD60,0227EB,00C58C,$GPRMC,010825,V,5442.9340,N,11318.4678,W,,,220819,017.7,E*72
01DD5F,0227EA,00C58B,$GPRMC,010826,V,5442.9340,N,11318.4678,W,,,220819,017.7,E*71
01DD61,0227ED,00C58C,$GPRMC,010827,V,5442.9340,N,11318.4678,W,,,220819,017.7,E*70
01DD62,0227EE,00C58D,$GPRMC,010828,V,5442.9340,N,11318.4678,W,,,220819,017.7,E*7F
01DD62,0227EE,00C58D,$GPRMC,010829,V,5442.9340,N,11318.4678,W,,,220819,017.7,E*7E
01DD63,0227F0,00C58E,$GPRMC,010830,V,5442.9340,N,11318.4678,W,,,220819,017.7,E*76
01DD61,0227EE,00C58C,$GPRMC,010831,V,5442.9340,N,11318.4678,W,,,220819,017.7,E*77
01DD60,0227EB,00C58B,$GPRMC,010832,V,5442.9340,N,11318.4678,W,,,220819,017.7,E*74
01DD65,0227F3,00C590,$GPRMC,010833,V,5442.9340,N,11318.4678,W,,,220819,017.7,E*75
01DD64,0227F0,00C58E,$GPRMC,010834,V,5442.9340,N,11318.4678,W,,,220819,017.7,E*72
01DD63,0227F0,00C58E,$GPRMC,010835,V,5442.9340,N,11318.4678,W,,,220819,017.7,E*73
01DD5F,0227EA,00C58B,$GPRMC,010836,V,5442.9340,N,11318.4678,W,,,220819,017.7,E*70
01DD61,0227EC,00C58C,$GPRMC,010837,V,5442.9340,N,11318.4678,W,,,220819,017.7,E*71
01DD5E,0227E8,00C58B,$GPRMC,010838,V,5442.9340,N,11318.4678,W,,,220819,017.7,E*7E
01DD64,0227EE,00C58F,$GPRMC,010839,V,5442.9340,N,11318.4678,W,,,220819,017.7,E*7F
01DD62,0227EC,00C58E,$GPRMC,010840,V,5442.9340,N,11318.4678,W,,,220819,017.7,E*71
01DD60,0227E8,00C58C,$GPRMC,010841,V,5442.9340,N,11318.4678,W,,,220819,017.7,E*70
01DD60,0227E8,00C58C,$GPRMC,010842,V,5442.9340,N,11318.4678,W,,,220819,017.7,E*73
01DD5D,0227E5,00C58A,$GPRMC,010843,V,5442.9340,N,11318.4678,W,,,220819,017.7,E*72
01DD5F,0227E9,00C58C,$GPRMC,010844,V,5442.9340,N,11318.4678,W,,,220819,017.7,E*75
01DD5C,0227E3,00C589,$GPRMC,010845,V,5442.9340,N,11318.4678,W,,,220819,017.7,E*74
01DD5F,0227E7,00C58B,$GPRMC,010846,V,5442.9340,N,11318.4678,W,,,220819,017.7,E*77
01DD5D,0227E4,00C58A,$GPRMC,010847,V,5442.9340,N,11318.4678,W,,,220819,017.7,E*76
01DD5F,0227E8,00C58C,$GPRMC,010848,V,5442.9340,N,11318.4678,W,,,220819,017.7,E*79
01DD5C,0227E3,00C589,$GPRMC,010849,V,5442.9340,N,11318.4678,W,,,220819,017.7,E*78
01DD61,0227EB,00C58C,$GPRMC,010850,V,5442.9340,N,11318.4678,W,,,220819,017.7,E*70
01DD5F,0227E8,00C58B,$GPRMC,010851,V,5442.9340,N,11318.4678,W,,,220819,017.7,E*71
01DD60,0227EA,00C58C,$GPRMC,010852,A,5442.8956,N,11318.4668,W,000.0,131.3,220819,017.7,E*68
01DD5F,0227EA,00C58B,$GPRMC,010853,A,5442.8956,N,11318.4669,W,000.0,131.3,220819,017.7,E*68
01DD64,0227F2,00C58F,$GPRMC,010854,A,5442.8938,N,11318.4636,W,000.0,305.6,220819,017.7,E*6D
01DD5E,0227E8,00C58B,$GPRMC,010855,A,5442.8940,N,11318.4637,W,000.0,305.6,220819,017.7,E*62
01DD64,0227F2,00C58F,$GPRMC,010856,A,5442.8942,N,11318.4639,W,000.0,305.6,220819,017.7,E*6D
01DD60,0227EB,00C58C,$GPRMC,010857,A,5442.8943,N,11318.4640,W,000.0,305.6,220819,017.7,E*63
01DD68,0227F7,00C592,$GPRMC,010858,A,5442.8945,N,11318.4641,W,000.0,305.6,220819,017.7,E*6B
01DD5D,0227E9,00C58B,$GPRMC,010859,A,5442.8947,N,11318.4643,W,000.0,305.6,220819,017.7,E*6A
01DD65,0227F2,00C58F,$GPRMC,010900,A,5442.8949,N,11318.4644,W,000.0,305.6,220819,017.7,E*6E
01DD5F,0227EA,00C58B,$GPRMC,010901,A,5442.9071,N,11318.4617,W,002.0,355.7,220819,017.7,E*6C
01DD64,0227F0,00C58E,$GPRMC,010902,A,5442.9255,N,11318.4601,W,000.0,355.7,220819,017.7,E*6E
01DD62,0227EF,00C58E,$GPRMC,010903,A,5442.9309,N,11318.4601,W,000.0,355.7,220819,017.7,E*67
01DD65,0227F1,00C590,$GPRMC,010904,A,5442.9341,N,11318.4598,W,000.0,355.7,220819,017.7,E*6F
01DD63,0227EF,00C58F,$GPRMC,010905,A,5442.9359,N,11318.4601,W,000.0,355.7,220819,017.7,E*64
01DD65,0227F2,00C590,$GPRMC,010906,A,5442.9358,N,11318.4607,W,000.0,355.7,220819,017.7,E*60
01DD61,0227EB,00C58D,$GPRMC,010907,A,5442.9371,N,11318.4607,W,000.0,355.7,220819,017.7,E*6A
01DD65,0227F3,00C590,$GPRMC,010908,A,5442.9382,N,11318.4606,W,000.0,355.7,220819,017.7,E*68
01DD65,0227EE,00C58D,$GPRMC,010909,A,5442.9386,N,11318.4606,W,000.0,355.7,220819,017.7,E*6D
01DD68,0227F4,00C58B,$GPRMC,010910,A,5442.9393,N,11318.4604,W,000.0,355.7,220819,017.7,E*63
01DD62,0227EC,00C587,$GPRMC,010911,A,5442.9401,N,11318.4603,W,000.0,355.7,220819,017.7,E*69
01DD63,0227EC,00C58B,$GPRMC,010912,A,5442.9400,N,11318.4603,W,000.0,355.7,220819,017.7,E*6B
01DD64,0227EF,00C58E,$GPRMC,010913,A,5442.9410,N,11318.4604,W,000.0,355.7,220819,017.7,E*6C
01DD64,0227F0,00C58F,$GPRMC,010914,A,5442.9418,N,11318.4604,W,000.0,355.7,220819,017.7,E*63
01DD64,0227EF,00C58E,$GPRMC,010915,A,5442.9425,N,11318.4602,W,000.0,355.7,220819,017.7,E*6A
01DD62,0227ED,00C58D,$GPRMC,010916,A,5442.9431,N,11318.4600,W,000.0,355.7,220819,017.7,E*6E
01DD62,0227EE,00C58D,$GPRMC,010917,A,5442.9445,N,11318.4595,W,000.0,355.7,220819,017.7,E*63
01DD62,0227EC,00C58D,$GPRMC,010918,A,5442.9452,N,11318.4592,W,000.0,355.7,220819,017.7,E*6D
01DD62,0227EB,00C58D,$GPRMC,010919,A,5442.9459,N,11318.4590,W,000.0,355.7,220819,017.7,E*65
01DD65,0227F1,00C58F,$GPRMC,010920,A,5442.9462,N,11318.4588,W,000.0,355.7,220819,017.7,E*6E
01DD5E,0227E6,00C58B,$GPRMC,010921,A,5442.9457,N,11318.4586,W,000.0,355.7,220819,017.7,E*67
01DD61,0227EB,00C58D,$GPRMC,010922,A,5442.9456,N,11318.4587,W,000.0,355.7,220819,017.7,E*64
01DD61,0227EB,00C58D,$GPRMC,010923,A,5442.9454,N,11318.4589,W,000.0,355.7,220819,017.7,E*69
01DD5F,0227E8,00C58C,$GPRMC,010924,A,5442.9453,N,11318.4590,W,000.0,355.7,220819,017.7,E*61
01DD63,0227EE,00C58F,$GPRMC,010925,A,5442.9453,N,11318.4591,W,000.0,355.7,220819,017.7,E*61
01DD63,0227EC,00C58F,$GPRMC,010926,A,5442.9451,N,11318.4592,W,000.0,355.7,220819,017.7,E*63
01DD66,0227F2,00C591,$GPRMC,010927,A,5442.9450,N,11318.4593,W,000.0,355.7,220819,017.7,E*62
01DD62,0227EC,00C58F,$GPRMC,010928,A,5442.9448,N,11318.4595,W,000.0,355.7,220819,017.7,E*62
01DD60,0227E8,00C58D,$GPRMC,010929,A,5442.9446,N,11318.4597,W,000.0,355.7,220819,017.7,E*6F
01DD66,0227F1,00C591,$GPRMC,010930,A,5442.9445,N,11318.4599,W,000.0,355.7,220819,017.7,E*6A
01DD61,0227E9,00C58D,$GPRMC,010931,A,5442.9439,N,11318.4598,W,000.0,355.7,220819,017.7,E*61
01DD62,0227EA,00C58D,$GPRMC,010932,A,5442.9439,N,11318.4600,W,000.0,355.7,220819,017.7,E*60
01DD63,0227EB,00C58E,$GPRMC,010933,A,5442.9438,N,11318.4602,W,000.0,355.7,220819,017.7,E*62
01DD62,0227E9,00C58D,$GPRMC,010934,A,5442.9435,N,11318.4603,W,000.0,355.7,220819,017.7,E*69
01DD63,0227EC,00C58A,$GPRMC,010935,A,5442.9434,N,11318.4605,W,000.0,355.7,220819,017.7,E*6F
01DD61,0227E7,00C58A,$GPRMC,010936,A,5442.9433,N,11318.4606,W,000.0,355.7,220819,017.7,E*68
01DD65,0227EE,00C590,$GPRMC,010937,A,5442.9432,N,11318.4607,W,000.0,355.7,220819,017.7,E*69
01DD64,0227EE,00C591,$GPRMC,010938,A,5442.9431,N,11318.4609,W,000.0,355.7,220819,017.7,E*6B
01DD63,0227ED,00C591,$GPRMC,010939,A,5442.9430,N,11318.4610,W,000.0,355.7,220819,017.7,E*63
01DD64,0227EE,00C592,$GPRMC,010940,A,5442.9428,N,11318.4611,W,000.0,355.7,220819,017.7,E*65
01DD63,0227ED,00C591,$GPRMC,010941,A,5442.9425,N,11318.4611,W,000.0,355.7,220819,017.7,E*69
01DD60,0227E8,00C590,$GPRMC,010942,A,5442.9422,N,11318.4611,W,000.0,355.7,220819,017.7,E*6D
01DD65,0227EF,00C592,$GPRMC,010943,A,5442.9419,N,11318.4612,W,000.0,355.7,220819,017.7,E*67
01DD63,0227EC,00C591,$GPRMC,010944,A,5442.9417,N,11318.4614,W,000.0,355.7,220819,017.7,E*68
01DD65,0227ED,00C592,$GPRMC,010945,A,5442.9415,N,11318.4615,W,000.0,355.7,220819,017.7,E*6A
01DD63,0227EC,00C592,$GPRMC,010946,A,5442.9417,N,11318.4614,W,000.0,355.7,220819,017.7,E*6A
01DD62,0227EA,00C591,$GPRMC,010947,A,5442.9418,N,11318.4614,W,000.0,355.7,220819,017.7,E*64
01DD64,0227EE,00C592,$GPRMC,010948,A,5442.9419,N,11318.4615,W,000.0,355.7,220819,017.7,E*6B
01DD64,0227EC,00C592,$GPRMC,010949,A,5442.9416,N,11318.4617,W,000.0,355.7,220819,017.7,E*67
01DD62,0227E9,00C590,$GPRMC,010950,A,5442.9420,N,11318.4616,W,000.0,355.7,220819,017.7,E*6B
01DD61,0227E9,00C591,$GPRMC,010951,A,5442.9424,N,11318.4615,W,000.0,355.7,220819,017.7,E*6D
01DD61,0227E8,00C590,$GPRMC,010952,A,5442.9429,N,11318.4614,W,000.0,355.7,220819,017.7,E*62
01DD64,0227EC,00C592,$GPRMC,010953,A,5442.9433,N,11318.4612,W,000.0,355.7,220819,017.7,E*6E
01DD60,0227E8,00C590,$GPRMC,010954,A,5442.9431,N,11318.4613,W,000.0,355.7,220819,017.7,E*6A
01DD60,0227E7,00C590,$GPRMC,010955,A,5442.9430,N,11318.4614,W,000.0,355.7,220819,017.7,E*6D
01DD61,0227EA,00C591,$GPRMC,010956,A,5442.9429,N,11318.4614,W,000.0,355.7,220819,017.7,E*66
01DD5E,0227E3,00C58F,$GPRMC,010957,A,5442.9434,N,11318.4613,W,000.0,355.7,220819,017.7,E*6C
01DD60,0227E8,00C591,$GPRMC,010958,A,5442.9442,N,11318.4610,W,000.0,355.7,220819,017.7,E*61
01DD60,0227E8,00C590,$GPRMC,010959,A,5442.9450,N,11318.4607,W,000.0,355.7,220819,017.7,E*65
01DD60,0227E8,00C590,$GPRMC,011000,A,5442.9458,N,11318.4605,W,000.0,355.7,220819,017.7,E*6B
01DD5F,0227E6,00C58F,$GPRMC,011001,A,5442.9455,N,11318.4607,W,000.0,355.7,220819,017.7,E*65
01DD60,0227E9,00C590,$GPRMC,011002,A,5442.9460,N,11318.4604,W,000.0,355.7,220819,017.7,E*63
01DD6C,0227BB,00C589,$GPRMC,011003,A,5442.9466,N,11318.4602,W,000.0,355.7,220819,017.7,E*62
01DDFC,022678,00C546,$GPRMC,011004,A,5442.9462,N,11318.4605,W,000.0,355.7,220819,017.7,E*66
01DE44,0225FA,00C522,$GPRMC,011005,A,5442.9470,N,11318.4603,W,000.0,355.7,220819,017.7,E*62
01DE45,0225FB,00C521,$GPRMC,011006,A,5442.9474,N,11318.4604,W,000.0,355.7,220819,017.7,E*62
01DE47,0225FD,00C522,$GPRMC,011007,A,5442.9475,N,11318.4606,W,000.0,355.7,220819,017.7,E*60
01DE44,0225F8,00C520,$GPRMC,011008,A,5442.9484,N,11318.4605,W,000.0,355.7,220819,017.7,E*62
01DE43,0225F7,00C520,$GPRMC,011009,A,5442.9492,N,11318.4604,W,000.0,355.7,220819,017.7,E*65
01DE47,0225FB,00C522,$GPRMC,011010,A,5442.9499,N,11318.4604,W,000.0,355.7,220819,017.7,E*66
01DE46,0225F9,00C521,$GPRMC,011011,A,5442.9505,N,11318.4605,W,000.0,355.7,220819,017.7,E*62
01DE42,0225F4,00C51F,$GPRMC,011012,A,5442.9513,N,11318.4605,W,000.0,355.7,220819,017.7,E*66
01DE43,0225F4,00C520,$GPRMC,011013,A,5442.9516,N,11318.4607,W,000.0,355.7,220819,017.7,E*60
01DE42,0225F4,00C51F,$GPRMC,011014,A,5442.9516,N,11318.4609,W,000.0,355.7,220819,017.7,E*69
01DE44,0225F6,00C51F,$GPRMC,011015,A,5442.9515,N,11318.4611,W,000.0,355.7,220819,017.7,E*62
01DE45,0225F7,00C520,$GPRMC,011016,A,5442.9512,N,11318.4612,W,000.0,355.7,220819,017.7,E*65
01DE41,0225F2,00C51F,$GPRMC,011017,A,5442.9509,N,11318.4613,W,000.0,355.7,220819,017.7,E*6F
01DE43,0225F4,00C51F,$GPRMC,011018,A,5442.9507,N,11318.4614,W,000.0,355.7,220819,017.7,E*69
01DE47,0225FA,00C522,$GPRMC,011019,A,5442.9510,N,11318.4614,W,000.0,355.7,220819,017.7,E*6E
01DE44,0225F5,00C51F,$GPRMC,011020,A,5442.9515,N,11318.4614,W,000.0,355.7,220819,017.7,E*61
01DE45,0225F7,00C520,$GPRMC,011021,A,5442.9519,N,11318.4613,W,000.0,355.7,220819,017.7,E*6B
01DE42,0225F3,00C51E,$GPRMC,011022,A,5442.9516,N,11318.4613,W,000.0,355.7,220819,017.7,E*67
01DE42,0225F3,00C51F,$GPRMC,011023,A,5442.9513,N,11318.4613,W,000.0,355.7,220819,017.7,E*63
01DE45,0225F8,00C521,$GPRMC,011024,A,5442.9511,N,11318.4613,W,000.0,355.7,220819,017.7,E*66
01DE42,0225F2,00C51E,$GPRMC,011025,A,5442.9508,N,11318.4614,W,000.0,355.7,220819,017.7,E*68
01DE46,0225F9,00C521,$GPRMC,011026,A,5442.9506,N,11318.4614,W,000.0,355.7,220819,017.7,E*65
01DE43,0225F3,00C520,$GPRMC,011027,A,5442.9500,N,11318.4616,W,000.0,355.7,220819,017.7,E*60
01DE46,0225F8,00C522,$GPRMC,011028,A,5442.9495,N,11318.4618,W,000.0,355.7,220819,017.7,E*6C
01DE43,0225F4,00C520,$GPRMC,011029,A,5442.9490,N,11318.4620,W,000.0,355.7,220819,017.7,E*63
01DE47,0225FA,00C522,$GPRMC,011030,A,5442.9484,N,11318.4622,W,000.0,355.7,220819,017.7,E*6C
01DE44,0225F4,00C520,$GPRMC,011031,A,5442.9481,N,11318.4624,W,000.0,355.7,220819,017.7,E*6E
01DE43,0225F4,00C521,$GPRMC,011032,A,5442.9480,N,11318.4625,W,000.0,355.7,220819,017.7,E*6D
01DE42,0225F2,00C520,$GPRMC,011033,A,5442.9478,N,11318.4625,W,000.0,355.7,220819,017.7,E*6B
01DE45,0225F5,00C522,$GPRMC,011034,A,5442.9482,N,11318.4625,W,000.0,355.7,220819,017.7,E*69
01DE42,0225EF,00C520,$GPRMC,011035,A,5442.9486,N,11318.4625,W,000.0,355.7,220819,017.7,E*6C
01DE45,0225F5,00C522,$GPRMC,011036,A,5442.9486,N,11318.4624,W,000.0,355.7,220819,017.7,E*6E
01DE42,0225F2,00C521,$GPRMC,011037,A,5442.9484,N,11318.4623,W,000.0,355.7,220819,017.7,E*6A
01DE42,0225F1,00C520,$GPRMC,011038,A,5442.9483,N,11318.4624,W,000.0,355.7,220819,017.7,E*65
01DE40,0225EF,00C51F,$GPRMC,011039,A,5442.9483,N,11318.4625,W,000.0,355.7,220819,017.7,E*65
01DE44,0225F3,00C522,$GPRMC,011040,A,5442.9484,N,11318.4625,W,000.0,355.7,220819,017.7,E*6C
01DE47,0225F8,00C523,$GPRMC,011041,A,5442.9484,N,11318.4625,W,000.0,355.7,220819,017.7,E*6D
01DE47,0225F8,00C523,$GPRMC,011042,A,5442.9484,N,11318.4625,W,000.0,355.7,220819,017.7,E*6E
01DE42,0225EF,00C520,$GPRMC,011043,A,5442.9484,N,11318.4625,W,000.0,355.7,220819,017.7,E*6F
01DE43,0225F2,00C521,$GPRMC,011044,A,5442.9484,N,11318.4625,W,000.0,355.7,220819,017.7,E*68
01DE44,0225F2,00C522,$GPRMC,011045,A,5442.9483,N,11318.4624,W,000.0,355.7,220819,017.7,E*6F
